"academia","andar","area","area_servico","banheiro","condominio","elevador","endereco","espaco_gourmet","id","iptu","piscina","playground","portaria_24_horas","quadra_de_esporte","quarto","salao_de_festa","sauna","spa","tipo","url","vaga","valor","varanda_gourmet","latitude","longitude"
NA,NA,1200,NA,NA,NA,NA,"Rua Cristiano Vieira da Silva, 34 - Paraviana, Boa Vista - RR",NA,2613313665,NA,NA,NA,NA,NA,NA,NA,NA,NA,"terrenos_lotes_e_condominios","https://www.zapimoveis.com.br/imovel/venda-terreno-lote-condominio-paraviana-boa-vista-rr-1200m2-id-2613313665/",NA,1560000,NA,2.85917,-60.66054
NA,NA,961,NA,NA,NA,NA,"Rua Raio de Lua - Raiar do Sol, Boa Vista - RR",NA,2641163592,NA,NA,NA,NA,NA,NA,NA,NA,NA,"terrenos_e_lotes_comerciais","https://www.zapimoveis.com.br/imovel/venda-terreno-lote-comercial-raiar-do-sol-boa-vista-rr-961m2-id-2641163592/",NA,970000,NA,2.781052169642,-60.726958212395
0,2,438,0,5,NA,0,"Alameda Platão - Nossa Senhora Aparecida, Boa Vista - RR",1,2639442185,NA,1,0,0,0,2,0,0,0,"sobrados","https://www.zapimoveis.com.br/imovel/venda-sobrados-2-quartos-com-piscina-nossa-senhora-aparecida-boa-vista-rr-438m2-id-2639442185/",4,2150000,1,2.843590009885,-60.663174977835
NA,2,167,NA,4,NA,NA,"Rua Desembargador Francisco Murilo Pinto - Caçari, Boa Vista - RR",NA,2641079170,NA,NA,NA,NA,NA,3,NA,NA,NA,"sobrados","https://www.zapimoveis.com.br/imovel/venda-sobrados-3-quartos-cacari-boa-vista-rr-167m2-id-2641079170/",2,950000,NA,2.850996782251,-60.651309268821
0,NA,934,0,2,NA,0,"Avenida Getúlio Vargas - Caçari, Boa Vista - RR",0,2624390134,NA,1,0,0,0,5,0,0,0,"casas","https://www.zapimoveis.com.br/imovel/venda-casa-5-quartos-com-piscina-cacari-boa-vista-rr-934m2-id-2624390134/",8,6e+06,1,2.839218714701,-60.651993804052
NA,NA,286,NA,5,NA,NA,"Rua Papa João Paulo II, 1186 - Doutor Silvio Botelho, Boa Vista - RR",NA,2645336113,NA,NA,NA,NA,NA,10,NA,NA,NA,"casas_de_condominio","https://www.zapimoveis.com.br/imovel/venda-casa-de-condominio-10-quartos-doutor-silvio-botelho-boa-vista-rr-286m2-id-2645336113/",NA,670000,NA,2.7987400176,-60.743119977761
NA,NA,283,NA,6,NA,NA,"Rua Ministro Sérgio Mota, 46 - Paraviana, Boa Vista - RR",NA,2588951822,NA,NA,NA,NA,NA,4,NA,NA,NA,"casas","https://www.zapimoveis.com.br/imovel/venda-casa-4-quartos-paraviana-boa-vista-rr-283m2-id-2588951822/",3,2e+06,NA,2.855499368021,-60.665418753628
NA,NA,1200,NA,NA,NA,NA,"Rua Cerejeira, 125 - Paraviana, Boa Vista - RR",NA,2629276267,NA,NA,NA,NA,NA,NA,NA,NA,NA,"terrenos_lotes_e_condominios","https://www.zapimoveis.com.br/imovel/venda-terreno-lote-condominio-paraviana-boa-vista-rr-1200m2-id-2629276267/",NA,1100000,NA,2.856375853046,-60.665891018565
0,NA,249,0,2,NA,0,"Cinturao Verde, Boa Vista - RR",1,2652887091,NA,1,0,0,0,3,0,0,0,"casas","https://www.zapimoveis.com.br/imovel/venda-casa-3-quartos-com-piscina-cinturao-verde-boa-vista-rr-249m2-id-2652887091/",3,750000,0,2.8051,-60.70749
NA,NA,73,NA,2,NA,NA,"Said Salomao, Boa Vista - RR",NA,2652887092,NA,NA,NA,NA,NA,2,NA,NA,NA,"casas","https://www.zapimoveis.com.br/imovel/venda-casa-2-quartos-com-cozinha-said-salomao-boa-vista-rr-73m2-id-2652887092/",NA,335000,NA,2.82807,-60.66671
NA,NA,833,NA,NA,NA,NA,"Rua Ministro Sérgio Mota, SN - Paraviana, Boa Vista - RR",NA,2648019207,NA,NA,NA,NA,NA,NA,NA,NA,NA,"terrenos_lotes_e_condominios","https://www.zapimoveis.com.br/imovel/venda-terreno-lote-condominio-paraviana-boa-vista-rr-833m2-id-2648019207/",NA,7e+05,NA,2.858595488404,-60.66273814534
NA,NA,1000,NA,NA,NA,NA,"Avenida Caçari, 65 - Caçari, Boa Vista - RR",NA,2601153765,NA,NA,NA,NA,NA,NA,NA,NA,NA,"terrenos_lotes_e_condominios","https://www.zapimoveis.com.br/imovel/venda-terreno-lote-condominio-cacari-boa-vista-rr-1000m2-id-2601153765/",NA,950000,NA,2.858550765984,-60.634503102571
NA,NA,10,NA,1,NA,NA,"Rua Pastor Nicanor Fabrício dos Santos - Doutor Silvio Botelho, Boa Vista - RR",NA,2645319210,NA,NA,NA,NA,NA,2,NA,NA,NA,"casas","https://www.zapimoveis.com.br/imovel/venda-casa-2-quartos-com-cozinha-doutor-silvio-botelho-boa-vista-rr-10m2-id-2645319210/",NA,220000,NA,2.799625250493,-60.741890443067
NA,NA,100,NA,1,NA,NA,"Rua Capitão Clovis da Costa - Sao Bento, Boa Vista - RR",NA,2645318146,NA,NA,NA,NA,NA,2,NA,NA,NA,"casas","https://www.zapimoveis.com.br/imovel/venda-casa-2-quartos-sao-bento-boa-vista-rr-100m2-id-2645318146/",NA,230000,NA,2.779545554113,-60.708630372383
0,NA,100,0,1,NA,0,"Rua Deuza Leão - Cidade Satelite, Boa Vista - RR",0,2645319382,NA,1,0,0,0,1,0,0,0,"casas","https://www.zapimoveis.com.br/imovel/venda-casa-1-quarto-com-piscina-cidade-satelite-boa-vista-rr-100m2-id-2645319382/",NA,380000,0,2.84485,-60.74668
0,NA,140,1,2,NA,0,"Rua 04, 143 - Cidade Satelite, Boa Vista - RR",0,2559326348,NA,0,0,0,0,2,0,0,0,"casas","https://www.zapimoveis.com.br/imovel/venda-casa-2-quartos-com-area-de-servico-cidade-satelite-boa-vista-rr-140m2-id-2559326348/",2,5e+05,0,2.836469981278,-60.72985000011
NA,NA,2.5e+07,NA,NA,NA,NA,"Rua Guararapes, 1569 - Aeroporto, Boa Vista - RR",NA,2648804806,NA,NA,NA,NA,NA,NA,NA,NA,NA,"terrenos_lotes_e_condominios","https://www.zapimoveis.com.br/imovel/venda-terreno-lote-condominio-aeroporto-boa-vista-rr-25000000m2-id-2648804806/",NA,1.4e+07,NA,2.848504323996,-60.702854238924
0,NA,46,1,1,NA,0,"Rua Marú, 105 - Aeroporto, Boa Vista - RR",0,2649835753,490,0,0,0,0,1,0,0,0,"casas","https://www.zapimoveis.com.br/imovel/venda-casa-1-quarto-aeroporto-boa-vista-rr-46m2-id-2649835753/",1,298000,0,2.84881,-60.70223
NA,NA,2400,NA,NA,NA,NA,"Avenida Centenário, 653 - Centenario, Boa Vista - RR",NA,2626034231,NA,NA,NA,NA,NA,NA,NA,NA,NA,"terrenos_lotes_e_condominios","https://www.zapimoveis.com.br/imovel/venda-terreno-lote-condominio-centenario-boa-vista-rr-2400m2-id-2626034231/",NA,1150000,NA,2.797810689615,-60.703821117317
NA,NA,176,NA,2,NA,NA,"Rua Helena Bezerra de Menezes - Liberdade, Boa Vista - RR",NA,2641723975,NA,NA,NA,NA,NA,3,NA,NA,NA,"casas","https://www.zapimoveis.com.br/imovel/venda-casa-3-quartos-liberdade-boa-vista-rr-176m2-id-2641723975/",NA,4e+05,NA,2.820384623423,-60.699296022934
NA,NA,5,NA,NA,NA,NA,"Boa Vista - RR",NA,2614466543,NA,NA,NA,NA,NA,NA,NA,NA,NA,"terrenos_lotes_e_condominios","https://www.zapimoveis.com.br/imovel/venda-terreno-lote-condominio-com-infraestrutura-internet-boa-vista-rr-5m2-id-2614466543/",NA,432480,NA,2.82175,-60.67356
0,NA,115,1,2,NA,0,"Travessa Salomão Lima da Silva - Centenario, Boa Vista - RR",0,2624388877,NA,0,0,0,0,3,0,0,0,"casas","https://www.zapimoveis.com.br/imovel/venda-casa-3-quartos-com-churrasqueira-centenario-boa-vista-rr-115m2-id-2624388877/",2,499000,0,2.78853595429,-60.702438070803
NA,NA,100,NA,1,NA,NA,"Avenida Zenaide Peixoto Mota - Doutor Airton Rocha, Boa Vista - RR",NA,2645318506,NA,NA,NA,NA,NA,2,NA,NA,NA,"casas","https://www.zapimoveis.com.br/imovel/venda-casa-2-quartos-doutor-airton-rocha-boa-vista-rr-100m2-id-2645318506/",NA,180000,NA,2.75796,-60.73854
0,NA,380,1,5,NA,0,"Avenida Bento Brasil, 480 - São Vicente, Boa Vista - RR",0,2648208175,1000,0,0,0,0,3,0,0,0,"sobrados","https://www.zapimoveis.com.br/imovel/venda-sobrados-3-quartos-sao-vicente-boa-vista-rr-380m2-id-2648208175/",4,1580000,0,2.808242730183,-60.675517526905
NA,NA,98,NA,2,NA,NA,"Cidade Satelite, Boa Vista - RR",NA,2553107197,NA,NA,NA,NA,NA,3,NA,NA,NA,"casas","https://www.zapimoveis.com.br/imovel/venda-casa-3-quartos-cidade-satelite-boa-vista-rr-98m2-id-2553107197/",1,5e+05,NA,2.84485,-60.74668
NA,NA,375,NA,NA,NA,NA,"Rua Vênus - Cidade Satelite, Boa Vista - RR",NA,2640793032,NA,NA,NA,NA,NA,NA,NA,NA,NA,"terrenos_lotes_e_condominios","https://www.zapimoveis.com.br/imovel/venda-terreno-lote-condominio-cidade-satelite-boa-vista-rr-375m2-id-2640793032/",NA,160000,NA,2.841010893548,-60.748455647898
0,NA,260,1,4,NA,0,"Rua Itália, 99 - Cauamé, Boa Vista - RR",0,2648782769,450,0,0,0,0,5,0,0,0,"casas","https://www.zapimoveis.com.br/imovel/venda-casa-5-quartos-cauame-boa-vista-rr-260m2-id-2648782769/",2,530000,1,2.854530007045,-60.715730013659
NA,NA,103,NA,1,NA,NA,"Rua Governador Walmor Leal Dalcin, 58 - Doutor Airton Rocha, Boa Vista - RR",NA,2645315019,NA,NA,NA,NA,NA,2,NA,NA,NA,"casas","https://www.zapimoveis.com.br/imovel/venda-casa-2-quartos-doutor-airton-rocha-boa-vista-rr-103m2-id-2645315019/",2,3e+05,NA,2.75796,-60.73854
NA,NA,360,NA,NA,NA,NA,"Rua Canopus - Cidade Satelite, Boa Vista - RR",NA,2645315022,NA,NA,NA,NA,NA,NA,NA,NA,NA,"terrenos_lotes_e_condominios","https://www.zapimoveis.com.br/imovel/venda-terreno-lote-condominio-cidade-satelite-boa-vista-rr-360m2-id-2645315022/",NA,130000,NA,2.857589051849,-60.737049409501
NA,NA,10,NA,NA,NA,NA,"Rua Alexandrino Batista Barbosa, 122 - Murilo Teixeira Cidade, Boa Vista - RR",NA,2645336388,NA,NA,NA,NA,NA,NA,NA,NA,NA,"terrenos_lotes_e_condominios","https://www.zapimoveis.com.br/imovel/venda-terreno-lote-condominio-murilo-teixeira-cidade-boa-vista-rr-10m2-id-2645336388/",NA,27000,NA,2.830725436743,-60.760766876762
0,NA,10,0,1,NA,0,"Avenida Olímpica - Jardim Tropical, Boa Vista - RR",1,2635552387,NA,0,0,0,0,3,0,0,0,"casas","https://www.zapimoveis.com.br/imovel/venda-casa-3-quartos-com-cozinha-jardim-tropical-boa-vista-rr-10m2-id-2635552387/",2,3e+05,0,2.796799775881,-60.731179727808
NA,NA,50,NA,1,NA,NA,"Avenida Chile - Cauamé, Boa Vista - RR",NA,2645315296,NA,NA,NA,NA,NA,2,NA,NA,NA,"apartamentos","https://www.zapimoveis.com.br/imovel/venda-apartamento-2-quartos-cauame-boa-vista-rr-50m2-id-2645315296/",NA,150000,NA,2.840268810654,-60.711684003104
NA,NA,50,NA,5,NA,NA,"Rua Antônio Silvino de Alexandre, 23 - Professora Araceli Souto Maior, Boa Vista - RR",NA,2559326345,NA,NA,NA,NA,NA,5,NA,NA,NA,"casas_de_condominio","https://www.zapimoveis.com.br/imovel/venda-casa-de-condominio-5-quartos-professora-araceli-souto-maior-boa-vista-rr-50m2-id-2559326345/",5,3e+05,NA,2.783576552386,-60.722639854567
0,NA,135,0,2,NA,0,"Jardim Tropical, Boa Vista - RR",1,2652320980,NA,1,0,0,0,3,0,0,0,"casas","https://www.zapimoveis.com.br/imovel/venda-casa-3-quartos-com-piscina-jardim-tropical-boa-vista-rr-135m2-id-2652320980/",NA,475000,0,2.80069,-60.73268
NA,NA,230,NA,NA,NA,NA,"Alameda 20, SN - Cauamé, Boa Vista - RR",NA,2646671398,NA,NA,NA,NA,NA,NA,NA,NA,NA,"terrenos_lotes_e_condominios","https://www.zapimoveis.com.br/imovel/venda-terreno-lote-condominio-cauame-boa-vista-rr-230m2-id-2646671398/",NA,230000,NA,2.85275,-60.71579
NA,NA,600,NA,2,NA,NA,"Rua Dom Aquino, 470 - Nossa Senhora Aparecida, Boa Vista - RR",NA,2631060877,NA,NA,NA,NA,NA,2,NA,NA,NA,"casas","https://www.zapimoveis.com.br/imovel/venda-casa-2-quartos-nossa-senhora-aparecida-boa-vista-rr-600m2-id-2631060877/",8,550000,NA,2.838966559964,-60.663856610323
0,NA,314,1,3,NA,0,"Rua Caribe, 156 - São Vicente, Boa Vista - RR",0,2649165783,700,0,0,0,0,4,0,0,0,"casas","https://www.zapimoveis.com.br/imovel/venda-casa-4-quartos-sao-vicente-boa-vista-rr-314m2-id-2649165783/",3,730000,0,2.806369980241,-60.687560029648
0,NA,58,1,1,NA,0,"Rua SR-32, 10 - Murilo Teixeira Cidade, Boa Vista - RR",0,2552513504,NA,0,0,0,0,2,0,0,0,"casas","https://www.zapimoveis.com.br/imovel/venda-casa-2-quartos-com-area-de-servico-murilo-teixeira-cidade-boa-vista-rr-58m2-id-2552513504/",NA,255000,0,2.83958,-60.74003
NA,NA,10,NA,NA,NA,NA,"Avenida Consolação de Matos - Cidade Satelite, Boa Vista - RR",NA,2645328249,NA,NA,NA,NA,NA,NA,NA,NA,NA,"terrenos_lotes_e_condominios","https://www.zapimoveis.com.br/imovel/venda-terreno-lote-condominio-cidade-satelite-boa-vista-rr-10m2-id-2645328249/",NA,22000,NA,2.840138285271,-60.752482674065
NA,NA,700,NA,NA,NA,NA,"Rua Augusto Cesar Luitgards Moura - Paraviana, Boa Vista - RR",NA,2592300733,NA,NA,NA,NA,NA,NA,NA,NA,NA,"terrenos_lotes_e_condominios","https://www.zapimoveis.com.br/imovel/venda-terreno-lote-condominio-paraviana-boa-vista-rr-700m2-id-2592300733/",NA,320000,NA,2.864514298605,-60.666750174951
NA,NA,120,NA,1,NA,NA,"Rua Ametista - Boa Vista - RR",NA,2651714964,NA,NA,NA,NA,NA,2,NA,NA,NA,"casas","https://www.zapimoveis.com.br/imovel/venda-casa-2-quartos-com-lavanderia-coletiva-boa-vista-rr-120m2-id-2651714964/",NA,230000,NA,2.806031775912,-60.730298507183
NA,NA,2246,NA,NA,NA,NA,"Rua Reinaldo Neves - Jardim Floresta, Boa Vista - RR",NA,2640779852,NA,NA,NA,NA,NA,NA,NA,NA,NA,"terrenos_lotes_e_condominios","https://www.zapimoveis.com.br/imovel/venda-terreno-lote-condominio-jardim-floresta-boa-vista-rr-2246m2-id-2640779852/",NA,1200000,NA,2.827767438781,-60.705168712698
NA,NA,72,NA,2,NA,NA,"Rua CC-29 - Laura Moreira, Boa Vista - RR",NA,2645769753,NA,NA,NA,NA,NA,4,NA,NA,NA,"casas","https://www.zapimoveis.com.br/imovel/venda-casa-4-quartos-laura-moreira-boa-vista-rr-72m2-id-2645769753/",NA,1e+05,NA,2.801326667942,-60.779646836121
0,NA,145,1,3,NA,0,"Rua Dona Marina Carneiro, 564 - Cinturao Verde, Boa Vista - RR",0,2640009677,500,0,0,0,0,3,0,0,0,"casas","https://www.zapimoveis.com.br/imovel/venda-casa-3-quartos-cinturao-verde-boa-vista-rr-145m2-id-2640009677/",2,705000,0,2.801680680517,-60.703495070394
NA,NA,540,NA,NA,NA,NA,"Rua Augusto Cesar Luitgards Moura, SN - Paraviana, Boa Vista - RR",NA,2652238493,450,NA,NA,NA,NA,NA,NA,NA,NA,"terrenos_lotes_e_condominios","https://www.zapimoveis.com.br/imovel/venda-terreno-lote-condominio-paraviana-boa-vista-rr-540m2-id-2652238493/",NA,440000,NA,2.864514298605,-60.666750174951
NA,NA,360,NA,NA,NA,NA,"Cidade Satelite, Boa Vista - RR",NA,2540735197,NA,NA,NA,NA,NA,NA,NA,NA,NA,"terrenos_lotes_e_condominios","https://www.zapimoveis.com.br/imovel/venda-terreno-lote-condominio-cidade-satelite-boa-vista-rr-360m2-id-2540735197/",NA,130000,NA,2.84485,-60.74668
0,NA,110,1,1,NA,0,"Rua Francisco Régis Maciel de Melo, 1226 - Equatorial, Boa Vista - RR",0,2650538672,NA,0,0,0,0,2,0,0,0,"casas","https://www.zapimoveis.com.br/imovel/venda-casa-2-quartos-equatorial-boa-vista-rr-110m2-id-2650538672/",NA,110000,0,2.821930019568,-60.765000013991
NA,NA,1498,NA,NA,NA,NA,"Rua Sargento Azevedo, 158 - Aeroporto, Boa Vista - RR",NA,2653012853,950,NA,NA,NA,NA,NA,NA,NA,NA,"terrenos_lotes_e_condominios","https://www.zapimoveis.com.br/imovel/venda-terreno-lote-condominio-com-infraestrutura-internet-aeroporto-boa-vista-rr-1498m2-id-2653012853/",NA,750000,NA,2.836950012872,-60.702379988834
0,NA,204,1,2,NA,0,"Rua Dona Marina Carneiro - Cinturao Verde, Boa Vista - RR",0,2633479285,NA,0,0,0,0,3,0,0,0,"casas","https://www.zapimoveis.com.br/imovel/venda-casa-3-quartos-com-ar-condicionado-cinturao-verde-boa-vista-rr-204m2-id-2633479285/",2,552000,0,2.802248287959,-60.703259884459
NA,NA,200,NA,4,NA,NA,"Rua Ivone Pinheiro, 564 - Tancredo Neves, Boa Vista - RR",NA,2563906700,NA,NA,NA,NA,NA,4,NA,NA,NA,"casas_comerciais","https://www.zapimoveis.com.br/imovel/venda-casa-4-quartos-tancredo-neves-boa-vista-rr-200m2-id-2563906700/",4,550000,NA,2.820922319308,-60.717907576606
0,1,128,1,3,NA,0,"Rua São Francisco, 555 - Cinturao Verde, Boa Vista - RR",0,2651423016,600,0,0,0,0,3,0,0,0,"casas","https://www.zapimoveis.com.br/imovel/venda-casa-3-quartos-cinturao-verde-boa-vista-rr-128m2-id-2651423016/",2,650000,0,2.805199992287,-60.709899980905
NA,NA,116,NA,2,NA,NA,"Rua Doutor Luiz Brito Júnior - Equatorial, Boa Vista - RR",NA,2645334077,NA,NA,NA,NA,NA,3,NA,NA,NA,"casas","https://www.zapimoveis.com.br/imovel/venda-casa-3-quartos-equatorial-boa-vista-rr-116m2-id-2645334077/",1,150000,NA,2.82175,-60.67356
0,NA,80,1,1,NA,0,"Rua 03, 1398 - Jardim Tropical, Boa Vista - RR",0,2649818594,390,0,0,0,0,2,0,0,0,"casas","https://www.zapimoveis.com.br/imovel/venda-casa-2-quartos-jardim-tropical-boa-vista-rr-80m2-id-2649818594/",1,340000,0,2.803360982958,-60.751205109678
0,NA,84,0,1,NA,0,"Cauamé, Boa Vista - RR",0,2651691514,NA,0,0,0,0,2,0,0,0,"apartamentos","https://www.zapimoveis.com.br/imovel/venda-apartamento-2-quartos-mobiliado-cauame-boa-vista-rr-84m2-id-2651691514/",1,3e+05,1,2.85275,-60.71579
NA,NA,139870,NA,NA,NA,NA,"Rodovia BR-174, SN - Said Salomao, Boa Vista - RR",NA,2651469565,NA,NA,NA,NA,NA,NA,NA,NA,NA,"terrenos_e_lotes_comerciais","https://www.zapimoveis.com.br/imovel/venda-terreno-lote-comercial-said-salomao-boa-vista-rr-139870m2-id-2651469565/",NA,2.5e+07,NA,2.882375876832,-60.699058320298
0,NA,95,1,2,NA,0,"Rua Pará, 972 - Estados, Boa Vista - RR",0,2651202209,500,0,0,0,0,3,0,0,0,"casas","https://www.zapimoveis.com.br/imovel/venda-casa-3-quartos-estados-boa-vista-rr-95m2-id-2651202209/",3,480000,0,2.844676034338,-60.666553914534
0,NA,130,1,2,NA,0,"Rua Colômbia, 50 - Cauamé, Boa Vista - RR",0,2648815437,600,0,0,0,0,2,0,0,0,"casas","https://www.zapimoveis.com.br/imovel/venda-casa-2-quartos-cauame-boa-vista-rr-130m2-id-2648815437/",3,280000,0,2.852704946785,-60.718401467251
0,NA,10,1,2,NA,0,"Rua Maisa Campos de Melo, 315 - Senador Helio Campos, Boa Vista - RR",0,2552513509,NA,0,0,0,0,2,0,0,0,"casas","https://www.zapimoveis.com.br/imovel/venda-casa-2-quartos-com-churrasqueira-senador-helio-campos-boa-vista-rr-10m2-id-2552513509/",2,250000,0,2.811009761893,-60.765694778295
0,NA,10,1,2,NA,0,"Rua 04, 234 - Jardim Tropical, Boa Vista - RR",0,2552513506,NA,0,0,0,0,2,0,0,0,"casas","https://www.zapimoveis.com.br/imovel/venda-casa-2-quartos-com-area-de-servico-jardim-tropical-boa-vista-rr-10m2-id-2552513506/",3,230000,0,2.810106686933,-60.730291119999
1,NA,340,0,3,650,0,"Avenida Universo, 188 - Cidade Satelite, Boa Vista - RR",1,2646510166,1260,1,0,0,0,3,0,0,0,"casas_de_condominio","https://www.zapimoveis.com.br/imovel/venda-casa-de-condominio-3-quartos-mobiliado-cidade-satelite-boa-vista-rr-340m2-id-2646510166/",3,380000,0,2.85067382922,-60.739909102495
NA,NA,100,NA,1,NA,NA,"Rua Souza Júnior, 214 - Mecejana, Boa Vista - RR",NA,2652425754,600,NA,NA,NA,NA,2,NA,NA,NA,"casas","https://www.zapimoveis.com.br/imovel/venda-casa-2-quartos-mecejana-boa-vista-rr-100m2-id-2652425754/",NA,260000,NA,2.827793160986,-60.690070834517
0,NA,375,1,4,NA,0,"Rua Vereador Manoel Joaquim Martins, 167 - Senador Helio Campos, Boa Vista - RR",0,2648442459,400,0,0,0,0,4,0,0,0,"casas","https://www.zapimoveis.com.br/imovel/venda-casa-4-quartos-senador-helio-campos-boa-vista-rr-375m2-id-2648442459/",3,360000,0,2.800660859042,-60.74729538795
1,NA,340,0,3,650,0,"Avenida Universo, 188 - Cidade Satelite, Boa Vista - RR",1,2646510166,1260,1,0,0,0,3,0,0,0,"casas_de_condominio","https://www.zapimoveis.com.br/imovel/venda-casa-de-condominio-3-quartos-mobiliado-cidade-satelite-boa-vista-rr-340m2-id-2646510166/",3,380000,0,2.85067382922,-60.739909102495
NA,NA,90,NA,1,NA,NA,"Rua Padre Caleri, 620 - São Francisco, Boa Vista - RR",NA,2652410849,1500,NA,NA,NA,NA,2,NA,NA,NA,"casas","https://www.zapimoveis.com.br/imovel/venda-casa-2-quartos-sao-francisco-boa-vista-rr-90m2-id-2652410849/",NA,450000,NA,2.83217,-60.67472
NA,NA,60,NA,1,NA,NA,"Rua Provérbio, 280 - Cinturao Verde, Boa Vista - RR",NA,2653109720,NA,NA,NA,NA,NA,2,NA,NA,NA,"apartamentos","https://www.zapimoveis.com.br/imovel/venda-apartamento-2-quartos-cinturao-verde-boa-vista-rr-60m2-id-2653109720/",NA,750000,NA,2.799334199338,-60.699340196842
NA,NA,120,NA,1,NA,NA,"Via das Flores, 21 - Pricumã, Boa Vista - RR",NA,2617653502,NA,NA,NA,NA,NA,4,NA,NA,NA,"casas","https://www.zapimoveis.com.br/imovel/venda-casa-4-quartos-pricuma-boa-vista-rr-120m2-id-2617653502/",6,680000,NA,2.804540600978,-60.699401746904
0,NA,55,1,1,NA,0,"Rua Eurides Vasconcelos Rodrigues, 74 - Jardim Floresta, Boa Vista - RR",0,2648441071,399,0,0,0,0,1,0,0,0,"casas","https://www.zapimoveis.com.br/imovel/venda-casa-1-quarto-jardim-floresta-boa-vista-rr-55m2-id-2648441071/",2,250000,0,2.826112088121,-60.703244045921
0,NA,108,1,2,NA,0,"Rua José Brock, 493 - Cidade Satelite, Boa Vista - RR",0,2649210370,490,0,0,0,0,3,0,0,0,"casas","https://www.zapimoveis.com.br/imovel/venda-casa-3-quartos-cidade-satelite-boa-vista-rr-108m2-id-2649210370/",2,380000,0,2.845284998345,-60.751235001139
NA,NA,90,NA,3,NA,NA,"Rua Francisco Anacleto da Silva - Equatorial, Boa Vista - RR",NA,2597756174,NA,NA,NA,NA,NA,2,NA,NA,NA,"casas","https://www.zapimoveis.com.br/imovel/venda-casa-2-quartos-equatorial-boa-vista-rr-90m2-id-2597756174/",1,170000,NA,2.819714070504,-60.771627217529
0,NA,90,1,1,NA,0,"Rua Raimundo da Silva Bríglia, 575 - Centenario, Boa Vista - RR",0,2650531256,NA,0,0,0,0,2,0,0,0,"casas","https://www.zapimoveis.com.br/imovel/venda-casa-2-quartos-centenario-boa-vista-rr-90m2-id-2650531256/",1,270000,0,2.793903699674,-60.705476108689
0,NA,10,1,2,NA,0,"Rua Maisa Campos de Melo, 315 - Senador Helio Campos, Boa Vista - RR",0,2552513509,NA,0,0,0,0,2,0,0,0,"casas","https://www.zapimoveis.com.br/imovel/venda-casa-2-quartos-com-churrasqueira-senador-helio-campos-boa-vista-rr-10m2-id-2552513509/",2,250000,0,2.811009761893,-60.765694778295
0,NA,87,1,3,NA,0,"Rua Vênus, 460 - Cidade Satelite, Boa Vista - RR",0,2649818567,400,0,0,0,0,3,0,0,0,"casas","https://www.zapimoveis.com.br/imovel/venda-casa-3-quartos-cidade-satelite-boa-vista-rr-87m2-id-2649818567/",3,350000,0,2.842343034703,-60.748662670011
NA,NA,130,NA,3,NA,NA,"Rua Francisco Anacleto da Silva - Alvorada, Boa Vista - RR",NA,2638395716,NA,NA,NA,NA,NA,3,NA,NA,NA,"casas","https://www.zapimoveis.com.br/imovel/venda-casa-3-quartos-alvorada-boa-vista-rr-130m2-id-2638395716/",NA,190000,NA,2.822650004096,-60.745934998033
0,NA,182,1,2,NA,0,"Rua Beira Rio, 51 - Centenario, Boa Vista - RR",0,2646712535,500,0,0,0,0,3,0,0,0,"casas","https://www.zapimoveis.com.br/imovel/venda-casa-3-quartos-centenario-boa-vista-rr-182m2-id-2646712535/",1,380000,0,2.791517203323,-60.713841535391
NA,NA,158,NA,1,NA,NA,"Rua JT-12, 200 - Jardim Tropical, Boa Vista - RR",NA,2645318157,NA,NA,NA,NA,NA,2,NA,NA,NA,"casas","https://www.zapimoveis.com.br/imovel/venda-casa-2-quartos-jardim-tropical-boa-vista-rr-158m2-id-2645318157/",2,210000,NA,2.797670004795,-60.729970028964
NA,NA,280,NA,NA,NA,NA,"Rua Manganês, 10 - Jóquei Clube, Boa Vista - RR",NA,2650078072,NA,NA,NA,NA,NA,NA,NA,NA,NA,"terrenos_lotes_e_condominios","https://www.zapimoveis.com.br/imovel/venda-terreno-lote-condominio-joquei-clube-boa-vista-rr-280m2-id-2650078072/",NA,65000,NA,2.803592265881,-60.725434393577
NA,NA,450,NA,1,NA,NA,"Rua N-22, 75 - Doutor Silvio Botelho, Boa Vista - RR",NA,2641679923,NA,NA,NA,NA,NA,2,NA,NA,NA,"casas","https://www.zapimoveis.com.br/imovel/venda-casa-2-quartos-doutor-silvio-botelho-boa-vista-rr-450m2-id-2641679923/",3,295000,NA,2.79756680786,-60.74091172257
NA,NA,98,NA,1,NA,NA,"Rua Abrilina Pena, 655 - Jardim Floresta, Boa Vista - RR",NA,2643475332,NA,NA,NA,NA,NA,1,NA,NA,NA,"casas","https://www.zapimoveis.com.br/imovel/venda-casa-1-quarto-com-jardim-jardim-floresta-boa-vista-rr-98m2-id-2643475332/",2,3e+05,NA,2.830489996276,-60.703090019852
0,NA,169,1,4,NA,0,"Avenida Ville Roy - Caçari, Boa Vista - RR",0,2622876414,NA,1,1,0,0,3,1,0,0,"casas_de_condominio","https://www.zapimoveis.com.br/imovel/venda-casa-de-condominio-3-quartos-com-piscina-cacari-boa-vista-rr-169m2-id-2622876414/",2,919000,0,2.848766052757,-60.648649357448
NA,NA,57,NA,1,NA,NA,"Rua Papa João Paulo II, 1186 - Doutor Silvio Botelho, Boa Vista - RR",NA,2645334076,NA,NA,NA,NA,NA,2,NA,NA,NA,"apartamentos","https://www.zapimoveis.com.br/imovel/venda-apartamento-2-quartos-doutor-silvio-botelho-boa-vista-rr-57m2-id-2645334076/",1,140000,NA,2.7987400176,-60.743119977761
NA,NA,250,NA,1,NA,NA,"Rua América Sarmento Ribeiro - Caimbé, Boa Vista - RR",NA,2645318888,NA,NA,NA,NA,NA,4,NA,NA,NA,"casas","https://www.zapimoveis.com.br/imovel/venda-casa-4-quartos-caimbe-boa-vista-rr-250m2-id-2645318888/",NA,380000,NA,2.82985881973,-60.717789812004
NA,NA,100,NA,2,NA,NA,"Rua dos Ipês - Pricumã, Boa Vista - RR",NA,2596124880,NA,NA,NA,NA,NA,3,NA,NA,NA,"casas","https://www.zapimoveis.com.br/imovel/venda-casa-3-quartos-pricuma-boa-vista-rr-100m2-id-2596124880/",2,3e+05,NA,2.811734685173,-60.699094947693
0,NA,160,1,1,NA,0,"Rua Walmir Pereira da Rocha, 345 - Jardim Carana, Boa Vista - RR",0,2648784255,390,0,0,0,0,4,0,0,0,"casas","https://www.zapimoveis.com.br/imovel/venda-casa-4-quartos-jardim-carana-boa-vista-rr-160m2-id-2648784255/",NA,230000,0,2.85259221062,-60.725707014872
0,NA,10,1,2,NA,0,"Rua Joaquim Honorato de Souza, 1664 - Nova Canaã, Boa Vista - RR",0,2552513508,NA,0,0,0,0,3,0,0,0,"casas","https://www.zapimoveis.com.br/imovel/venda-casa-3-quartos-com-churrasqueira-nova-canaa-boa-vista-rr-10m2-id-2552513508/",3,360000,0,2.828992251567,-60.741427274203
0,NA,10,1,2,NA,0,"Rua Pinto Martins, 467 - Aeroporto, Boa Vista - RR",0,2552514153,NA,0,0,0,0,3,0,0,0,"casas","https://www.zapimoveis.com.br/imovel/venda-casa-3-quartos-com-area-de-servico-aeroporto-boa-vista-rr-10m2-id-2552514153/",2,350000,0,2.847789992973,-60.703940028653
NA,NA,300,NA,NA,NA,NA,"Rua Dona Marina Carneiro, 346 - Cinturao Verde, Boa Vista - RR",NA,2651407109,NA,NA,NA,NA,NA,NA,NA,NA,NA,"terrenos_lotes_e_condominios","https://www.zapimoveis.com.br/imovel/venda-terreno-lote-condominio-cinturao-verde-boa-vista-rr-300m2-id-2651407109/",NA,2e+05,NA,2.803591153802,-60.702908275143
NA,NA,130,NA,1,NA,NA,"Rua Bérgamo, 351 - Centenario, Boa Vista - RR",NA,2639487636,NA,NA,NA,NA,NA,2,NA,NA,NA,"casas","https://www.zapimoveis.com.br/imovel/venda-casa-2-quartos-centenario-boa-vista-rr-130m2-id-2639487636/",2,530000,NA,2.797242282424,-60.715929936331
NA,NA,83,NA,2,NA,NA,"Rua Hélio Pinto Pinheiro - Jóquei Clube, Boa Vista - RR",NA,2645336387,NA,NA,NA,NA,NA,2,NA,NA,NA,"casas","https://www.zapimoveis.com.br/imovel/venda-casa-2-quartos-joquei-clube-boa-vista-rr-83m2-id-2645336387/",NA,320000,NA,2.80288,-60.72727
NA,NA,58,NA,1,NA,NA,"Rua Teresina - Nova Cidade, Boa Vista - RR",NA,2651846261,NA,NA,NA,NA,NA,2,NA,NA,NA,"casas","https://www.zapimoveis.com.br/imovel/venda-casa-2-quartos-com-cozinha-nova-cidade-boa-vista-rr-58m2-id-2651846261/",NA,170000,NA,2.769605268675,-60.735292836257
NA,NA,80,NA,1,NA,NA,"Rua São Rafael - Said Salomao, Boa Vista - RR",NA,2651846863,NA,NA,NA,NA,NA,2,NA,NA,NA,"casas","https://www.zapimoveis.com.br/imovel/venda-casa-2-quartos-com-sala-de-jantar-said-salomao-boa-vista-rr-80m2-id-2651846863/",NA,205000,NA,2.837494870236,-60.730737145919
NA,NA,72,NA,2,NA,NA,"Rua HC-14 - Senador Helio Campos, Boa Vista - RR",NA,2647845177,NA,NA,NA,NA,NA,2,NA,NA,NA,"casas","https://www.zapimoveis.com.br/imovel/venda-casa-2-quartos-senador-helio-campos-boa-vista-rr-72m2-id-2647845177/",NA,165000,NA,2.803495395557,-60.765257961274
NA,NA,300,NA,2,NA,NA,"Travessa Jasmim, 94 - Aeroporto, Boa Vista - RR",NA,2648993891,NA,NA,NA,NA,NA,2,NA,NA,NA,"casas","https://www.zapimoveis.com.br/imovel/venda-casa-2-quartos-aeroporto-boa-vista-rr-300m2-id-2648993891/",2,3e+05,NA,2.84881,-60.70223
0,NA,150,1,3,NA,0,"Rua Tambaqui, 397 - Santa Tereza, Boa Vista - RR",0,2649835199,560,0,0,0,0,2,0,0,0,"casas","https://www.zapimoveis.com.br/imovel/venda-casa-2-quartos-santa-tereza-boa-vista-rr-150m2-id-2649835199/",1,4e+05,0,2.823299999732,-60.729480022904
0,NA,163,1,3,NA,0,"Rua São Mateus, 699 - Cinturao Verde, Boa Vista - RR",0,2647530664,590,0,0,0,0,4,0,0,0,"casas","https://www.zapimoveis.com.br/imovel/venda-casa-4-quartos-cinturao-verde-boa-vista-rr-163m2-id-2647530664/",2,710000,0,2.804619436896,-60.712577356029
NA,NA,180,NA,2,NA,NA,"Professora Araceli Souto Maior, Boa Vista - RR",NA,2598334164,NA,NA,NA,NA,NA,4,NA,NA,NA,"sobrados","https://www.zapimoveis.com.br/imovel/venda-sobrados-4-quartos-com-cozinha-professora-araceli-souto-maior-boa-vista-rr-180m2-id-2598334164/",2,270000,NA,2.79064,-60.72384
NA,NA,250,NA,7,NA,NA,"Rua Pastor Almir Nogueira Guerra, 99 - Pricumã, Boa Vista - RR",NA,2616475980,NA,NA,NA,NA,NA,5,NA,NA,NA,"casas","https://www.zapimoveis.com.br/imovel/venda-casa-5-quartos-pricuma-boa-vista-rr-250m2-id-2616475980/",3,6e+05,NA,2.809419987169,-60.701499972819
NA,NA,4000,NA,NA,NA,NA,"Travessa Salomão Lima da Silva, 1660 - Centenario, Boa Vista - RR",NA,2644803026,NA,NA,NA,NA,NA,NA,NA,NA,NA,"terrenos_e_lotes_comerciais","https://www.zapimoveis.com.br/imovel/venda-terreno-lote-comercial-centenario-boa-vista-rr-4000m2-id-2644803026/",NA,1600000,NA,2.78853595429,-60.702438070803
0,NA,248,0,3,NA,0,"Travessa B, 25 - Cinturao Verde, Boa Vista - RR",0,2619350771,NA,0,0,0,0,3,0,0,0,"casas","https://www.zapimoveis.com.br/imovel/venda-casa-3-quartos-mobiliado-cinturao-verde-boa-vista-rr-248m2-id-2619350771/",3,750000,1,2.806292936327,-60.705090991916
NA,NA,120,NA,4,NA,NA,"Rua João Pereira Caldas, 13 - Nossa Senhora Aparecida, Boa Vista - RR",NA,2633225191,NA,NA,NA,NA,NA,4,NA,NA,NA,"casas","https://www.zapimoveis.com.br/imovel/venda-casa-4-quartos-nossa-senhora-aparecida-boa-vista-rr-120m2-id-2633225191/",2,450000,NA,2.835711199686,-60.66020363651
NA,NA,200,NA,1,NA,NA,"Avenida Carlos Pereira de Melo - Piscicultura, Boa Vista - RR",NA,2645617397,NA,NA,NA,NA,NA,2,NA,NA,NA,"casas","https://www.zapimoveis.com.br/imovel/venda-casa-2-quartos-com-cozinha-piscicultura-boa-vista-rr-200m2-id-2645617397/",2,350000,NA,2.835905852,-60.730196179971
0,NA,227,1,3,NA,0,"Rua Darôra, 1457 - Paraviana, Boa Vista - RR",0,2650061557,490,0,0,0,0,4,0,0,0,"casas","https://www.zapimoveis.com.br/imovel/venda-casa-4-quartos-paraviana-boa-vista-rr-227m2-id-2650061557/",5,7e+05,0,2.855436238206,-60.664295130116
0,NA,168,1,4,NA,0,"Rua Udine Benedetti, 472 - Cinturao Verde, Boa Vista - RR",0,2651155339,NA,0,0,0,0,1,0,0,0,"casas","https://www.zapimoveis.com.br/imovel/venda-casa-1-quarto-com-area-de-servico-cinturao-verde-boa-vista-rr-168m2-id-2651155339/",1,850000,0,2.8051,-60.70749
NA,NA,140,NA,2,NA,NA,"Rua 02, 100 - Cidade Satelite, Boa Vista - RR",NA,2630649488,NA,NA,NA,NA,NA,3,NA,NA,NA,"casas","https://www.zapimoveis.com.br/imovel/venda-casa-3-quartos-cidade-satelite-boa-vista-rr-140m2-id-2630649488/",2,535000,NA,2.828284487242,-60.7390699931
0,NA,290,1,3,NA,0,"Rua Sucupira, 1094 - Paraviana, Boa Vista - RR",0,2647487656,600,0,0,0,0,5,0,0,0,"casas","https://www.zapimoveis.com.br/imovel/venda-casa-5-quartos-paraviana-boa-vista-rr-290m2-id-2647487656/",4,890000,0,2.85471998288,-60.65885997408
NA,NA,10,NA,NA,NA,NA,"Rua Monte Sinai - Raiar do Sol, Boa Vista - RR",NA,2649353168,NA,NA,NA,NA,NA,NA,NA,NA,NA,"terrenos_lotes_e_condominios","https://www.zapimoveis.com.br/imovel/venda-terreno-lote-condominio-raiar-do-sol-boa-vista-rr-10m2-id-2649353168/",NA,155000,NA,2.786414239196,-60.732899302518
NA,NA,250,NA,1,NA,NA,"Avenida José Alves Cavalcanti - Murilo Teixeira Cidade, Boa Vista - RR",NA,2645315298,NA,NA,NA,NA,NA,2,NA,NA,NA,"casas","https://www.zapimoveis.com.br/imovel/venda-casa-2-quartos-murilo-teixeira-cidade-boa-vista-rr-250m2-id-2645315298/",2,3e+05,NA,2.827740531114,-60.771631481486
NA,NA,60,NA,1,NA,NA,"Rua Edmilson José da Costa, 40 - Equatorial, Boa Vista - RR",NA,2645335784,NA,NA,NA,NA,NA,2,NA,NA,NA,"casas","https://www.zapimoveis.com.br/imovel/venda-casa-2-quartos-equatorial-boa-vista-rr-60m2-id-2645335784/",NA,210000,NA,2.812338771302,-60.764533130726
NA,NA,4612,NA,NA,NA,NA,"Avenida João Alencar - Cauamé, Boa Vista - RR",NA,2624388875,NA,NA,NA,NA,NA,NA,NA,NA,NA,"terrenos_e_lotes_comerciais","https://www.zapimoveis.com.br/imovel/venda-terreno-lote-comercial-cauame-boa-vista-rr-4612m2-id-2624388875/",NA,3e+06,NA,2.847355380795,-60.706412865168
NA,NA,396,NA,NA,NA,NA,"Rua Ajuricaba, SN - Centro, Boa Vista - RR",NA,2647892769,600,NA,NA,NA,NA,NA,NA,NA,NA,"terrenos_lotes_e_condominios","https://www.zapimoveis.com.br/imovel/venda-terreno-lote-condominio-com-infraestrutura-internet-centro-boa-vista-rr-396m2-id-2647892769/",NA,620000,NA,2.817443836114,-60.676452019302
0,NA,200,1,2,NA,0,"Rua Pedro Rodrigues, 180 - Centro, Boa Vista - RR",0,2652341185,1000,0,0,0,0,3,0,0,0,"casas","https://www.zapimoveis.com.br/imovel/venda-casa-3-quartos-centro-boa-vista-rr-200m2-id-2652341185/",3,770000,0,2.82288716894,-60.677771359082
NA,NA,200,NA,1,NA,NA,"Rua J - Cidade Satelite, Boa Vista - RR",NA,2645315086,NA,NA,NA,NA,NA,1,NA,NA,NA,"casas","https://www.zapimoveis.com.br/imovel/venda-casa-1-quarto-cidade-satelite-boa-vista-rr-200m2-id-2645315086/",2,350000,NA,2.84910349189,-60.748245608238
NA,NA,250,NA,2,NA,NA,"Avenida Rui Baraúna - Caranã, Boa Vista - RR",NA,2578610003,NA,NA,NA,NA,NA,5,NA,NA,NA,"casas","https://www.zapimoveis.com.br/imovel/venda-casa-5-quartos-carana-boa-vista-rr-250m2-id-2578610003/",2,4e+05,NA,2.842183011558,-60.728073118233
NA,NA,100,NA,1,NA,NA,"Rua José Aleixo, 825 - Buritis, Boa Vista - RR",NA,2639334482,NA,NA,NA,NA,NA,2,NA,NA,NA,"casas","https://www.zapimoveis.com.br/imovel/venda-casa-2-quartos-buritis-boa-vista-rr-100m2-id-2639334482/",NA,350000,NA,2.817689991937,-60.708140032696
NA,NA,10,NA,NA,NA,NA,"Rua Japão - Cauamé, Boa Vista - RR",NA,2645315300,NA,NA,NA,NA,NA,NA,NA,NA,NA,"terrenos_lotes_e_condominios","https://www.zapimoveis.com.br/imovel/venda-terreno-lote-condominio-cauame-boa-vista-rr-10m2-id-2645315300/",NA,165000,NA,2.849612473973,-60.713128535102
0,NA,184,0,1,NA,0,"Rua 11, 150 - Jardim Tropical, Boa Vista - RR",1,2645319379,NA,1,0,0,0,3,0,0,0,"casas","https://www.zapimoveis.com.br/imovel/venda-casa-3-quartos-com-piscina-jardim-tropical-boa-vista-rr-184m2-id-2645319379/",1,650000,0,2.79292000122,-60.732344999319
NA,NA,69,NA,2,NA,NA,"Rua Peixes - Cidade Satelite, Boa Vista - RR",NA,2645319920,NA,NA,NA,NA,NA,2,NA,NA,NA,"casas","https://www.zapimoveis.com.br/imovel/venda-casa-2-quartos-com-cozinha-cidade-satelite-boa-vista-rr-69m2-id-2645319920/",2,330000,NA,2.8491208094,-60.742847268168
NA,NA,60,NA,2,NA,NA,"Rua JT-01A, 629 - Jardim Tropical, Boa Vista - RR",NA,2647427850,NA,NA,NA,NA,NA,2,NA,NA,NA,"casas","https://www.zapimoveis.com.br/imovel/venda-casa-2-quartos-jardim-tropical-boa-vista-rr-60m2-id-2647427850/",1,215000,NA,2.799791164456,-60.731263008519
NA,NA,10,NA,NA,NA,NA,"Rua Espedito de Paula Rodrigues - Alvorada, Boa Vista - RR",NA,2645315295,NA,NA,NA,NA,NA,NA,NA,NA,NA,"terrenos_lotes_e_condominios","https://www.zapimoveis.com.br/imovel/venda-terreno-lote-condominio-alvorada-boa-vista-rr-10m2-id-2645315295/",NA,95000,NA,2.814354401984,-60.756840896348
NA,NA,10,NA,NA,NA,NA,"Rua das Hortas, 14 - Doutor Silvio Botelho, Boa Vista - RR",NA,2645334075,NA,NA,NA,NA,NA,NA,NA,NA,NA,"terrenos_lotes_e_condominios","https://www.zapimoveis.com.br/imovel/venda-terreno-lote-condominio-doutor-silvio-botelho-boa-vista-rr-10m2-id-2645334075/",NA,110000,NA,2.804459995965,-60.737620024354
0,3,44,0,1,NA,0,"Avenida Chile, 213 - Caranã, Boa Vista - RR",0,2642753075,NA,0,0,1,0,2,0,0,0,"apartamentos","https://www.zapimoveis.com.br/imovel/venda-apartamento-2-quartos-carana-boa-vista-rr-44m2-id-2642753075/",1,250000,0,2.840052372453,-60.711637184745
0,NA,147,1,2,NA,0,"Rua Dona Marina Carneiro, 324 - Cinturao Verde, Boa Vista - RR",0,2648819288,600,0,0,0,0,3,0,0,0,"casas","https://www.zapimoveis.com.br/imovel/venda-casa-3-quartos-cinturao-verde-boa-vista-rr-147m2-id-2648819288/",2,7e+05,0,2.803764708276,-60.702856069238
NA,NA,996,NA,NA,NA,NA,"Rua Coronel Mota, SN - Centro, Boa Vista - RR",NA,2647889306,3882,NA,NA,NA,NA,NA,NA,NA,NA,"terrenos_lotes_e_condominios","https://www.zapimoveis.com.br/imovel/venda-terreno-lote-condominio-com-infraestrutura-internet-centro-boa-vista-rr-996m2-id-2647889306/",NA,1380000,NA,2.826304553141,-60.669411673586
NA,NA,230,NA,5,NA,NA,"Rua DI-X2, 12 - Distrito Industrial Governador Aquilino Mota Duarte, Boa Vista - RR",NA,2652536071,NA,NA,NA,NA,NA,3,NA,NA,NA,"casas","https://www.zapimoveis.com.br/imovel/venda-casa-3-quartos-distrito-industrial-governador-aquilino-mota-duarte-boa-vista-rr-230m2-id-2652536071/",5,1e+06,NA,2.7686,-60.706
NA,NA,145,NA,3,NA,NA,"Avenida Brasil, 70 - Cinturao Verde, Boa Vista - RR",NA,2630647574,NA,NA,NA,NA,NA,3,NA,NA,NA,"casas","https://www.zapimoveis.com.br/imovel/venda-casa-3-quartos-cinturao-verde-boa-vista-rr-145m2-id-2630647574/",2,705000,NA,2.804962483403,-60.691768387501
NA,NA,146,NA,3,NA,NA,"Rua Dona Marina Carneiro, 346 - Cinturao Verde, Boa Vista - RR",NA,2648973396,NA,NA,NA,NA,NA,3,NA,NA,NA,"casas","https://www.zapimoveis.com.br/imovel/venda-casa-3-quartos-cinturao-verde-boa-vista-rr-146m2-id-2648973396/",3,770000,NA,2.803591153802,-60.702908275143
NA,NA,200,NA,3,NA,NA,"Rua Sibipiruna, 70 - Paraviana, Boa Vista - RR",NA,2616840597,NA,NA,NA,NA,NA,4,NA,NA,NA,"casas","https://www.zapimoveis.com.br/imovel/venda-casa-4-quartos-paraviana-boa-vista-rr-200m2-id-2616840597/",3,870000,NA,2.851120761559,-60.664072181322
NA,NA,130,NA,3,NA,NA,"Rua Raimundo Penafort - Buritis, Boa Vista - RR",NA,2648972334,NA,NA,NA,NA,NA,2,NA,NA,NA,"casas","https://www.zapimoveis.com.br/imovel/venda-casa-2-quartos-com-sala-de-jantar-buritis-boa-vista-rr-130m2-id-2648972334/",5,290000,NA,2.813216766166,-60.708395103583
NA,NA,85,NA,1,NA,NA,"Avenida Parque Veneza - Centenario, Boa Vista - RR",NA,2650132960,NA,NA,NA,NA,NA,2,NA,NA,NA,"casas","https://www.zapimoveis.com.br/imovel/venda-casa-2-quartos-com-cozinha-centenario-boa-vista-rr-85m2-id-2650132960/",NA,3e+05,NA,2.79566,-60.70636
0,NA,228,0,3,NA,0,"Rua Maria Alves da Cunha - Caçari, Boa Vista - RR",0,2647844986,NA,1,0,0,0,3,0,0,0,"casas","https://www.zapimoveis.com.br/imovel/venda-casa-3-quartos-com-piscina-cacari-boa-vista-rr-228m2-id-2647844986/",2,1200000,0,2.856740493587,-60.634414206184
0,NA,400,1,3,NA,0,"Rua Maria de Lourdes Paracat Lucena, 730 - Caçari, Boa Vista - RR",0,2649835958,700,0,0,0,0,4,0,0,0,"sobrados","https://www.zapimoveis.com.br/imovel/venda-sobrados-4-quartos-cacari-boa-vista-rr-400m2-id-2649835958/",4,1575000,1,2.85329,-60.65048
0,NA,134,1,3,NA,0,"Rua da Lua - Cidade Satelite, Boa Vista - RR",0,2552514157,NA,0,0,0,0,3,0,0,0,"casas","https://www.zapimoveis.com.br/imovel/venda-casa-3-quartos-com-churrasqueira-cidade-satelite-boa-vista-rr-134m2-id-2552514157/",2,530000,0,2.841166046057,-60.74775922098
0,NA,150,0,2,NA,0,"Rua Alexandrino Batista Barbosa - Murilo Teixeira Cidade, Boa Vista - RR",1,2646629137,NA,0,0,0,0,2,0,0,0,"casas","https://www.zapimoveis.com.br/imovel/venda-casa-2-quartos-com-churrasqueira-murilo-teixeira-cidade-boa-vista-rr-150m2-id-2646629137/",2,270000,0,2.830725436743,-60.760766876762
0,NA,10,0,1,NA,0,"Avenida Olímpica - Jardim Tropical, Boa Vista - RR",1,2635552387,NA,0,0,0,0,3,0,0,0,"casas","https://www.zapimoveis.com.br/imovel/venda-casa-3-quartos-com-cozinha-jardim-tropical-boa-vista-rr-10m2-id-2635552387/",2,3e+05,0,2.796799775881,-60.731179727808
0,NA,154,1,3,NA,0,"Rua Libra, 689 - Cidade Satelite, Boa Vista - RR",1,2645718538,NA,1,0,0,0,1,0,0,0,"casas","https://www.zapimoveis.com.br/imovel/venda-casa-1-quarto-mobiliado-cidade-satelite-boa-vista-rr-154m2-id-2645718538/",2,650000,0,2.848908240908,-60.742201913867
0,NA,157,1,2,NA,0,"Rua Santa Maria, 500 - Centenario, Boa Vista - RR",0,2648786520,480,0,0,0,0,5,0,0,0,"casas","https://www.zapimoveis.com.br/imovel/venda-casa-5-quartos-centenario-boa-vista-rr-157m2-id-2648786520/",1,495000,0,2.796319662569,-60.713710047032
NA,NA,100,NA,1,NA,NA,"Rua Sílvio Leite - Caimbé, Boa Vista - RR",NA,2645319279,NA,NA,NA,NA,NA,2,NA,NA,NA,"casas","https://www.zapimoveis.com.br/imovel/venda-casa-2-quartos-caimbe-boa-vista-rr-100m2-id-2645319279/",NA,3e+05,NA,2.824400059902,-60.716414873092
0,NA,129,0,1,NA,0,"Rua Dom Apparecido José Dias - Cidade Satelite, Boa Vista - RR",1,2645319280,NA,1,0,0,0,1,0,0,0,"casas_comerciais","https://www.zapimoveis.com.br/imovel/venda-casa-1-quarto-com-piscina-cidade-satelite-boa-vista-rr-129m2-id-2645319280/",3,550000,0,2.848314993479,-60.751890004963
NA,NA,13420,NA,NA,NA,NA,"Rua José Moreno, 678 - Cinturao Verde, Boa Vista - RR",NA,2559328972,NA,NA,NA,NA,NA,NA,NA,NA,NA,"terrenos_lotes_e_condominios","https://www.zapimoveis.com.br/imovel/venda-terreno-lote-condominio-cinturao-verde-boa-vista-rr-13420m2-id-2559328972/",NA,6e+06,NA,2.8051,-60.70749
0,NA,223,1,2,NA,0,"Rua Lobo D'Almada, 490 - São Francisco, Boa Vista - RR",0,2651618654,900,0,0,0,0,2,0,0,0,"casas","https://www.zapimoveis.com.br/imovel/venda-casa-2-quartos-sao-francisco-boa-vista-rr-223m2-id-2651618654/",4,8e+05,0,2.833895805807,-60.670290294782
NA,NA,355,NA,1,NA,NA,"Avenida Presidente Castelo Branco - São Vicente, Boa Vista - RR",NA,2576563895,NA,NA,NA,NA,NA,2,NA,NA,NA,"casas","https://www.zapimoveis.com.br/imovel/venda-casa-2-quartos-sao-vicente-boa-vista-rr-355m2-id-2576563895/",1,3e+05,NA,2.809144059678,-60.678757769637
NA,NA,10,NA,NA,NA,NA,"Rua Dom Apparecido José Dias - Cidade Satelite, Boa Vista - RR",NA,2645336386,NA,NA,NA,NA,NA,NA,NA,NA,NA,"terrenos_lotes_e_condominios","https://www.zapimoveis.com.br/imovel/venda-terreno-lote-condominio-cidade-satelite-boa-vista-rr-10m2-id-2645336386/",NA,50000,NA,2.848314993479,-60.751890004963
NA,NA,10,NA,1,NA,NA,"Rua dos Ipês - Pricumã, Boa Vista - RR",NA,2645318309,NA,NA,NA,NA,NA,3,NA,NA,NA,"casas","https://www.zapimoveis.com.br/imovel/venda-casa-3-quartos-com-cozinha-pricuma-boa-vista-rr-10m2-id-2645318309/",2,6e+05,NA,2.811734685173,-60.699094947693
NA,NA,167,NA,1,NA,NA,"Alameda Sebastião Ferreira da Costa, 114 - Paraviana, Boa Vista - RR",NA,2649184280,NA,NA,NA,NA,NA,3,NA,NA,NA,"casas","https://www.zapimoveis.com.br/imovel/venda-casa-3-quartos-paraviana-boa-vista-rr-167m2-id-2649184280/",4,1350000,NA,2.864495623587,-60.658783542318
0,1,227,1,2,NA,0,"Jardim Floresta, Boa Vista - RR",0,2552514163,NA,0,0,0,0,3,0,0,0,"casas","https://www.zapimoveis.com.br/imovel/venda-casa-3-quartos-com-area-de-servico-jardim-floresta-boa-vista-rr-227m2-id-2552514163/",4,9e+05,0,2.83093,-60.69982
NA,NA,167,NA,1,NA,NA,"Rua Luiz Avelino, 429 - Paraviana, Boa Vista - RR",NA,2649803895,NA,NA,NA,NA,NA,3,NA,NA,NA,"casas","https://www.zapimoveis.com.br/imovel/venda-casa-3-quartos-paraviana-boa-vista-rr-167m2-id-2649803895/",4,1200000,NA,2.85917,-60.66054
NA,NA,260,NA,5,NA,NA,"Alameda Júpiter, 1039 - Nossa Senhora Aparecida, Boa Vista - RR",NA,2642947914,NA,NA,NA,NA,NA,3,NA,NA,NA,"casas","https://www.zapimoveis.com.br/imovel/venda-casa-3-quartos-nossa-senhora-aparecida-boa-vista-rr-260m2-id-2642947914/",4,1600000,NA,2.840398412517,-60.663040273233
0,NA,237,1,4,NA,0,"Rua Frederico Francisco Fontelles, 356 - Cinturao Verde, Boa Vista - RR",0,2647485262,500,0,0,0,0,4,0,0,0,"casas","https://www.zapimoveis.com.br/imovel/venda-casa-4-quartos-cinturao-verde-boa-vista-rr-237m2-id-2647485262/",2,1020000,1,2.800323922706,-60.705724593725
0,NA,168,1,4,NA,0,"Rua Udine Benedetti, 987 - Cinturao Verde, Boa Vista - RR",0,2648818657,600,0,0,0,0,3,0,0,0,"casas","https://www.zapimoveis.com.br/imovel/venda-casa-3-quartos-cinturao-verde-boa-vista-rr-168m2-id-2648818657/",1,870000,0,2.8051,-60.70749
0,NA,47,1,1,NA,0,"Rua Cuiabá, 373 - Nova Cidade, Boa Vista - RR",0,2641720426,NA,0,0,0,0,2,0,0,0,"casas","https://www.zapimoveis.com.br/imovel/venda-casa-2-quartos-com-area-de-servico-nova-cidade-boa-vista-rr-47m2-id-2641720426/",NA,160000,0,2.77220682111,-60.737097197202
NA,NA,2880,NA,NA,NA,NA,"Rua Salgado Filho, 34 - Aeroporto, Boa Vista - RR",NA,2627268556,NA,NA,NA,NA,NA,NA,NA,NA,NA,"terrenos_lotes_e_condominios","https://www.zapimoveis.com.br/imovel/venda-terreno-lote-condominio-aeroporto-boa-vista-rr-2880m2-id-2627268556/",NA,1100000,NA,2.841937260789,-60.705568484071
NA,NA,69,NA,3,NA,NA,"Rua Libra - Cidade Satelite, Boa Vista - RR",NA,2645315018,NA,NA,NA,NA,NA,2,NA,NA,NA,"casas","https://www.zapimoveis.com.br/imovel/venda-casa-2-quartos-com-lavanderia-coletiva-cidade-satelite-boa-vista-rr-69m2-id-2645315018/",1,350000,NA,2.848908240908,-60.742201913867
NA,NA,149,NA,1,NA,NA,"Rua Carmelo - Doutor Silvio Botelho, Boa Vista - RR",NA,2645318145,NA,NA,NA,NA,NA,4,NA,NA,NA,"casas","https://www.zapimoveis.com.br/imovel/venda-casa-4-quartos-com-cozinha-doutor-silvio-botelho-boa-vista-rr-149m2-id-2645318145/",1,370000,NA,2.804034952611,-60.739091960628
NA,NA,453,NA,6,NA,NA,"Rua Curicaca, 554 - Caçari, Boa Vista - RR",NA,2635860858,NA,NA,NA,NA,NA,5,NA,NA,NA,"casas","https://www.zapimoveis.com.br/imovel/venda-casa-5-quartos-cacari-boa-vista-rr-453m2-id-2635860858/",5,1500000,NA,2.85329,-60.65048
NA,NA,150,NA,1,NA,NA,"Rua Vicente Correia Lira - Asa Branca, Boa Vista - RR",NA,2650131364,NA,NA,NA,NA,NA,3,NA,NA,NA,"casas","https://www.zapimoveis.com.br/imovel/venda-casa-3-quartos-com-cozinha-asa-branca-boa-vista-rr-150m2-id-2650131364/",1,320000,NA,2.813573990052,-60.719209142882
NA,NA,10,NA,NA,NA,NA,"Rua Lindolfo Bernardo Coutinho - Tancredo Neves, Boa Vista - RR",NA,2648979071,NA,NA,NA,NA,NA,NA,NA,NA,NA,"terrenos_lotes_e_condominios","https://www.zapimoveis.com.br/imovel/venda-terreno-lote-condominio-tancredo-neves-boa-vista-rr-10m2-id-2648979071/",NA,150000,NA,2.826015242005,-60.722841118453
NA,NA,320,NA,4,NA,NA,"Avenida Ville Roy, 90 - Caçari, Boa Vista - RR",NA,2609137560,NA,NA,NA,NA,NA,4,NA,NA,NA,"casas","https://www.zapimoveis.com.br/imovel/venda-casa-4-quartos-cacari-boa-vista-rr-320m2-id-2609137560/",4,1100000,NA,2.848766052757,-60.648649357448
NA,NA,220,NA,1,NA,NA,"Rua Universidade Estadual de Roraima - Cidade Satelite, Boa Vista - RR",NA,2646203278,NA,NA,NA,NA,NA,3,NA,NA,NA,"casas","https://www.zapimoveis.com.br/imovel/venda-casa-3-quartos-com-cozinha-cidade-satelite-boa-vista-rr-220m2-id-2646203278/",2,5e+05,NA,2.853953742008,-60.738148628787
NA,NA,10,NA,1,NA,NA,"Avenida dos Imigrantes - Buritis, Boa Vista - RR",NA,2645315216,NA,NA,NA,NA,NA,2,NA,NA,NA,"casas","https://www.zapimoveis.com.br/imovel/venda-casa-2-quartos-buritis-boa-vista-rr-10m2-id-2645315216/",1,550000,NA,2.818635353239,-60.712886921853
NA,NA,60,NA,1,NA,NA,"Avenida Teresa Maciel - Cidade Satelite, Boa Vista - RR",NA,2645318148,NA,NA,NA,NA,NA,2,NA,NA,NA,"casas","https://www.zapimoveis.com.br/imovel/venda-casa-2-quartos-cidade-satelite-boa-vista-rr-60m2-id-2645318148/",NA,250000,NA,2.854000019307,-60.743645020176
NA,NA,190,NA,4,NA,NA,"Rua Zacaria Mendes Ribeiro, 44 - Paraviana, Boa Vista - RR",NA,2627012838,NA,NA,NA,NA,NA,3,NA,NA,NA,"casas","https://www.zapimoveis.com.br/imovel/venda-casa-3-quartos-paraviana-boa-vista-rr-190m2-id-2627012838/",3,1580000,NA,2.851812700028,-60.660089365755
NA,NA,150,NA,2,NA,NA,"Rua Horácio Mardel de Magalhães, 1758 - Tancredo Neves, Boa Vista - RR",NA,2645315214,NA,NA,NA,NA,NA,3,NA,NA,NA,"casas","https://www.zapimoveis.com.br/imovel/venda-casa-3-quartos-com-sala-de-jantar-tancredo-neves-boa-vista-rr-150m2-id-2645315214/",2,590000,NA,2.823970007163,-60.727110039781
NA,NA,204,NA,4,NA,NA,"Rua São José, 238 - Cinturao Verde, Boa Vista - RR",NA,2645319199,NA,NA,NA,NA,NA,3,NA,NA,NA,"casas","https://www.zapimoveis.com.br/imovel/venda-casa-3-quartos-cinturao-verde-boa-vista-rr-204m2-id-2645319199/",2,530000,NA,2.803539998272,-60.713929999952
NA,NA,194,NA,3,NA,NA,"Rua Adolfo Brasil, 602 - São Francisco, Boa Vista - RR",NA,2627512083,NA,NA,NA,NA,NA,3,NA,NA,NA,"casas","https://www.zapimoveis.com.br/imovel/venda-casa-3-quartos-sao-francisco-boa-vista-rr-194m2-id-2627512083/",3,8e+05,NA,2.837187309942,-60.678222639534
0,NA,202,0,3,NA,0,"Rua Dom Pedro I - Centro, Boa Vista - RR",0,2624388873,NA,1,1,0,0,3,0,0,0,"apartamentos","https://www.zapimoveis.com.br/imovel/venda-apartamento-3-quartos-com-piscina-centro-boa-vista-rr-202m2-id-2624388873/",2,990000,0,2.822271424942,-60.679014328898
NA,NA,32000,NA,NA,NA,NA,"Rua DI-X2, SN - Distrito Industrial Governador Aquilino Mota Duarte, Boa Vista - RR",NA,2649805853,NA,NA,NA,NA,NA,NA,NA,NA,NA,"terrenos_e_lotes_comerciais","https://www.zapimoveis.com.br/imovel/venda-terreno-lote-comercial-distrito-industrial-governador-aquilino-mota-duarte-boa-vista-rr-32000m2-id-2649805853/",NA,2800000,NA,2.770668172046,-60.706745664775
NA,NA,1200,NA,NA,NA,NA,"Avenida Brasília, 66 - Aeroporto, Boa Vista - RR",NA,2640040254,NA,NA,NA,NA,NA,NA,NA,NA,NA,"terrenos_lotes_e_condominios","https://www.zapimoveis.com.br/imovel/venda-terreno-lote-condominio-aeroporto-boa-vista-rr-1200m2-id-2640040254/",NA,550000,NA,2.833210362458,-60.693894804196
NA,NA,161,NA,4,NA,NA,"Rua Maria Socorro de Alencar Meira, 78 - Paraviana, Boa Vista - RR",NA,2613057412,NA,NA,NA,NA,NA,3,NA,NA,NA,"casas","https://www.zapimoveis.com.br/imovel/venda-casa-3-quartos-paraviana-boa-vista-rr-161m2-id-2613057412/",2,1600000,NA,2.85917,-60.66054
NA,NA,168,NA,4,NA,NA,"Rua 01 de Maio, 120 - Cinturao Verde, Boa Vista - RR",NA,2630649958,NA,NA,NA,NA,NA,3,NA,NA,NA,"casas","https://www.zapimoveis.com.br/imovel/venda-casa-3-quartos-cinturao-verde-boa-vista-rr-168m2-id-2630649958/",2,870000,NA,2.803467006163,-60.704664539896
NA,NA,292,NA,4,NA,NA,"Rua do Genipapeiro, 98 - Caçari, Boa Vista - RR",NA,2619015470,NA,NA,NA,NA,NA,3,NA,NA,NA,"casas","https://www.zapimoveis.com.br/imovel/venda-casa-3-quartos-cacari-boa-vista-rr-292m2-id-2619015470/",5,890000,NA,2.848722015308,-60.654380229632
NA,NA,600,NA,NA,NA,NA,"Paraviana, Boa Vista - RR",NA,2648022460,NA,NA,NA,NA,NA,NA,NA,NA,NA,"terrenos_lotes_e_condominios","https://www.zapimoveis.com.br/imovel/venda-terreno-lote-condominio-paraviana-boa-vista-rr-600m2-id-2648022460/",NA,5e+05,NA,2.85917,-60.66054
NA,NA,280,NA,5,NA,NA,"Avenida Baraúna, 32 - Paraviana, Boa Vista - RR",NA,2574073552,NA,NA,NA,NA,NA,4,NA,NA,NA,"casas","https://www.zapimoveis.com.br/imovel/venda-casa-4-quartos-paraviana-boa-vista-rr-280m2-id-2574073552/",6,1100000,NA,2.847399838755,-60.663132160083
NA,NA,10,NA,NA,NA,NA,"Rua Antônio Pinheiro Galvão, 200 - Buritis, Boa Vista - RR",NA,2648114492,NA,NA,NA,NA,NA,NA,NA,NA,NA,"terrenos_lotes_e_condominios","https://www.zapimoveis.com.br/imovel/venda-terreno-lote-condominio-buritis-boa-vista-rr-10m2-id-2648114492/",NA,160000,NA,2.810039996547,-60.708170039909
NA,NA,1380,NA,NA,NA,NA,"Avenida Nossa Senhora da Consolata, SN - Centro, Boa Vista - RR",NA,2642751368,NA,NA,NA,NA,NA,NA,NA,NA,NA,"terrenos_lotes_e_condominios","https://www.zapimoveis.com.br/imovel/venda-terreno-lote-condominio-centro-boa-vista-rr-1380m2-id-2642751368/",NA,1400000,NA,2.823616856494,-60.669013759441
NA,NA,310,NA,2,NA,NA,"Rua Levindo Inácio de Oliveira, 3163 - Paraviana, Boa Vista - RR",NA,2652819534,NA,NA,NA,NA,NA,3,NA,NA,NA,"casas","https://www.zapimoveis.com.br/imovel/venda-casa-3-quartos-paraviana-boa-vista-rr-310m2-id-2652819534/",4,2150000,NA,2.865930075055,-60.672919459529
NA,NA,10,NA,1,NA,NA,"Rua Professora Antonia Cutrim - Pintolândia, Boa Vista - RR",NA,2645315294,NA,NA,NA,NA,NA,2,NA,NA,NA,"casas","https://www.zapimoveis.com.br/imovel/venda-casa-2-quartos-com-cozinha-pintolandia-boa-vista-rr-10m2-id-2645315294/",NA,150000,NA,2.801197229875,-60.750272626864
NA,2,388,NA,1,NA,NA,"Rua Desembargador Francisco Murilo Pinto, 15 - Caçari, Boa Vista - RR",NA,2649817281,NA,NA,NA,NA,NA,3,NA,NA,NA,"casas","https://www.zapimoveis.com.br/imovel/venda-casa-3-quartos-cacari-boa-vista-rr-388m2-id-2649817281/",2,1700000,NA,2.850996782251,-60.651309268821
NA,NA,207,NA,4,NA,NA,"Alameda Beta, 28 - Nossa Senhora Aparecida, Boa Vista - RR",NA,2601305330,NA,NA,NA,NA,NA,3,NA,NA,NA,"casas","https://www.zapimoveis.com.br/imovel/venda-casa-3-quartos-nossa-senhora-aparecida-boa-vista-rr-207m2-id-2601305330/",2,1390000,NA,2.842007874662,-60.663667913012
NA,NA,250,NA,5,NA,NA,"Rua Chico Lira, 33 - São Francisco, Boa Vista - RR",NA,2639968472,NA,NA,NA,NA,NA,5,NA,NA,NA,"casas","https://www.zapimoveis.com.br/imovel/venda-casa-5-quartos-sao-francisco-boa-vista-rr-250m2-id-2639968472/",6,1020000,NA,2.83217,-60.67472
NA,NA,10,NA,NA,NA,NA,"Rua Maú - São Vicente, Boa Vista - RR",NA,2645318889,NA,NA,NA,NA,NA,NA,NA,NA,NA,"terrenos_lotes_e_condominios","https://www.zapimoveis.com.br/imovel/venda-terreno-lote-condominio-sao-vicente-boa-vista-rr-10m2-id-2645318889/",NA,5e+05,NA,2.809104226761,-60.684759745648
NA,NA,10,NA,1,NA,NA,"Avenida Bento Brasil - Calungá, Boa Vista - RR",NA,2645317086,NA,NA,NA,NA,NA,4,NA,NA,NA,"casas","https://www.zapimoveis.com.br/imovel/venda-casa-4-quartos-com-cozinha-calunga-boa-vista-rr-10m2-id-2645317086/",NA,4e+05,NA,2.806533829736,-60.676944998042
NA,NA,10,NA,NA,NA,NA,"Avenida Antonino Menezes da Silva - Caçari, Boa Vista - RR",NA,2646203376,NA,NA,NA,NA,NA,NA,NA,NA,NA,"terrenos_lotes_e_condominios","https://www.zapimoveis.com.br/imovel/venda-terreno-lote-condominio-cacari-boa-vista-rr-10m2-id-2646203376/",NA,350000,NA,2.85329,-60.65048
NA,NA,130,NA,1,NA,NA,"Rua Angico - Paraviana, Boa Vista - RR",NA,2645315215,NA,NA,NA,NA,NA,4,NA,NA,NA,"casas","https://www.zapimoveis.com.br/imovel/venda-casa-4-quartos-paraviana-boa-vista-rr-130m2-id-2645315215/",4,7e+05,NA,2.865066531787,-60.670620212193
NA,NA,128,NA,1,NA,NA,"Rua Mato Grosso - Estados, Boa Vista - RR",NA,2645319200,NA,NA,NA,NA,NA,3,NA,NA,NA,"casas","https://www.zapimoveis.com.br/imovel/venda-casa-3-quartos-estados-boa-vista-rr-128m2-id-2645319200/",NA,430000,NA,2.845176822707,-60.6705125699
NA,NA,340,NA,5,NA,NA,"Avenida Ville Roy, 21 - Caçari, Boa Vista - RR",NA,2613332140,NA,NA,NA,NA,NA,4,NA,NA,NA,"casas","https://www.zapimoveis.com.br/imovel/venda-casa-4-quartos-cacari-boa-vista-rr-340m2-id-2613332140/",4,2900000,NA,2.848766052757,-60.648649357448
NA,NA,88,NA,2,NA,NA,"Avenida Major Williams - Centro, Boa Vista - RR",NA,2642360110,NA,NA,NA,NA,NA,2,NA,NA,NA,"casas","https://www.zapimoveis.com.br/imovel/venda-casa-2-quartos-centro-boa-vista-rr-88m2-id-2642360110/",4,7e+05,NA,2.828785517242,-60.672998118503
NA,NA,243,NA,1,NA,NA,"Rua Boa Esperança - Centenario, Boa Vista - RR",NA,2645315299,NA,NA,NA,NA,NA,3,NA,NA,NA,"casas","https://www.zapimoveis.com.br/imovel/venda-casa-3-quartos-com-sala-de-jantar-centenario-boa-vista-rr-243m2-id-2645315299/",2,350000,NA,2.796698033222,-60.713134212585
NA,NA,230,NA,5,NA,NA,"Rua Aroeira, 67 - Paraviana, Boa Vista - RR",NA,2559326341,NA,NA,NA,NA,NA,4,NA,NA,NA,"casas","https://www.zapimoveis.com.br/imovel/venda-casa-4-quartos-paraviana-boa-vista-rr-230m2-id-2559326341/",4,1500000,NA,2.864731308458,-60.672235832353
NA,NA,10,NA,1,NA,NA,"Rua das Margaridas - Jardim Primavera, Boa Vista - RR",NA,2645315021,NA,NA,NA,NA,NA,3,NA,NA,NA,"casas","https://www.zapimoveis.com.br/imovel/venda-casa-3-quartos-com-cozinha-jardim-primavera-boa-vista-rr-10m2-id-2645315021/",NA,2e+05,NA,2.83096609053,-60.738212504926
0,NA,90,1,2,NA,0,"Travessa Araraquara, 789 - São Vicente, Boa Vista - RR",0,2559326344,NA,0,0,0,0,2,0,0,0,"apartamentos","https://www.zapimoveis.com.br/imovel/venda-apartamento-2-quartos-com-area-de-servico-sao-vicente-boa-vista-rr-90m2-id-2559326344/",5,1800000,0,2.80420713518,-60.68245921463
NA,2,600,NA,5,NA,NA,"Rua General Penha Brasil - Centro, Boa Vista - RR",NA,2642759899,NA,NA,NA,NA,NA,3,NA,NA,NA,"imoveis","https://www.zapimoveis.com.br/imovel/venda-3-quartos-centro-boa-vista-rr-600m2-id-2642759899/",4,3500000,NA,2.825592372967,-60.674977030812
0,NA,390,0,5,NA,0,"Caçari, Boa Vista - RR",1,2652631201,NA,1,0,0,0,4,0,0,0,"casas","https://www.zapimoveis.com.br/imovel/venda-casa-4-quartos-com-piscina-cacari-boa-vista-rr-390m2-id-2652631201/",NA,2800000,0,2.85329,-60.65048
0,NA,108,0,3,NA,0,"Aeroporto, Boa Vista - RR",1,2652634280,NA,0,0,0,0,2,0,0,0,"casas","https://www.zapimoveis.com.br/imovel/venda-casa-2-quartos-com-sala-de-jantar-aeroporto-boa-vista-rr-108m2-id-2652634280/",1,780000,0,2.84881,-60.70223
NA,NA,241,NA,2,NA,NA,"Rua Ajuricaba - Centro, Boa Vista - RR",NA,2645319922,NA,NA,NA,NA,NA,2,NA,NA,NA,"casas","https://www.zapimoveis.com.br/imovel/venda-casa-2-quartos-centro-boa-vista-rr-241m2-id-2645319922/",NA,7e+05,NA,2.817443836114,-60.676452019302
NA,NA,10,NA,NA,NA,NA,"Rua Victor Hugo - Nossa Senhora Aparecida, Boa Vista - RR",NA,2645318153,NA,NA,NA,NA,NA,NA,NA,NA,NA,"terrenos_lotes_e_condominios","https://www.zapimoveis.com.br/imovel/venda-terreno-lote-condominio-nossa-senhora-aparecida-boa-vista-rr-10m2-id-2645318153/",NA,2200000,NA,2.838875126842,-60.66031621868
0,NA,985,0,7,NA,0,"Rua Village - Residencial Village, Boa Vista - RR",1,2631638168,NA,1,0,0,0,6,0,0,0,"casas_de_condominio","https://www.zapimoveis.com.br/imovel/venda-casa-de-condominio-6-quartos-com-piscina-residencial-village-boa-vista-rr-985m2-id-2631638168/",3,2.2e+07,0,2.82175,-60.67356
NA,NA,390,NA,2,NA,NA,"Rua Levindo Inácio de Oliveira, 2281 - Paraviana, Boa Vista - RR",NA,2644800895,NA,NA,NA,NA,NA,6,NA,NA,NA,"casas","https://www.zapimoveis.com.br/imovel/venda-casa-6-quartos-com-ar-condicionado-paraviana-boa-vista-rr-390m2-id-2644800895/",4,2350000,NA,2.865477224835,-60.672421803653
0,NA,600,1,5,NA,0,"Avenida Antonino Menezes da Silva - Caçari, Boa Vista - RR",0,2559326333,NA,0,0,0,0,5,0,0,0,"casas","https://www.zapimoveis.com.br/imovel/venda-casa-5-quartos-com-area-de-servico-cacari-boa-vista-rr-600m2-id-2559326333/",4,1900000,0,2.85329,-60.65048
NA,NA,240,NA,6,NA,NA,"Rua 06, 259 - Jardim Tropical, Boa Vista - RR",NA,2645337472,NA,NA,NA,NA,NA,6,NA,NA,NA,"apartamentos","https://www.zapimoveis.com.br/imovel/venda-apartamento-6-quartos-jardim-tropical-boa-vista-rr-240m2-id-2645337472/",NA,420000,NA,2.808711007127,-60.731781050847
0,NA,418,1,2,NA,0,"Avenida Getúlio Vargas - Centro, Boa Vista - RR",0,2624389563,NA,0,0,0,0,3,0,0,0,"casas","https://www.zapimoveis.com.br/imovel/venda-casa-3-quartos-com-cozinha-centro-boa-vista-rr-418m2-id-2624389563/",2,1e+06,0,2.822824997279,-60.666189990317
NA,NA,101,NA,1,NA,NA,"Avenida Sebastião Diniz - São Vicente, Boa Vista - RR",NA,2645615836,NA,NA,NA,NA,NA,2,NA,NA,NA,"casas","https://www.zapimoveis.com.br/imovel/venda-casa-2-quartos-sao-vicente-boa-vista-rr-101m2-id-2645615836/",NA,480000,NA,2.807231476115,-60.678082562095
NA,NA,167,NA,3,NA,NA,"Alameda Sebastião Ferreira da Costa - Paraviana, Boa Vista - RR",NA,2624390136,NA,NA,NA,NA,NA,3,NA,NA,NA,"casas","https://www.zapimoveis.com.br/imovel/venda-casa-3-quartos-paraviana-boa-vista-rr-167m2-id-2624390136/",NA,1095000,NA,2.864495623587,-60.658783542318
NA,NA,266,NA,2,NA,NA,"Rua Pau-Brasil - Paraviana, Boa Vista - RR",NA,2649353167,NA,NA,NA,NA,NA,3,NA,NA,NA,"casas","https://www.zapimoveis.com.br/imovel/venda-casa-3-quartos-com-cozinha-paraviana-boa-vista-rr-266m2-id-2649353167/",2,990000,NA,2.868035423836,-60.673925217504
NA,NA,190,NA,3,NA,NA,"Rua Iuguslávia, 591 - Cauamé, Boa Vista - RR",NA,2651159287,NA,NA,NA,NA,NA,2,NA,NA,NA,"casas","https://www.zapimoveis.com.br/imovel/venda-casa-2-quartos-cauame-boa-vista-rr-190m2-id-2651159287/",NA,550000,NA,2.848257101789,-60.710786368824
0,NA,147,1,3,NA,0,"Rua Dona Marina Carneiro, 324 - Cinturao Verde, Boa Vista - RR",0,2651157159,NA,0,0,0,0,1,0,0,0,"casas","https://www.zapimoveis.com.br/imovel/venda-casa-1-quarto-com-area-de-servico-cinturao-verde-boa-vista-rr-147m2-id-2651157159/",2,7e+05,0,2.803764708276,-60.702856069238
0,NA,173,1,3,NA,0,"Rua São Vicente, 204 - Cinturao Verde, Boa Vista - RR",0,2649678585,NA,0,0,0,0,3,0,0,0,"casas","https://www.zapimoveis.com.br/imovel/venda-casa-3-quartos-cinturao-verde-boa-vista-rr-173m2-id-2649678585/",2,650000,0,2.800120014139,-60.706589967341
0,NA,212,0,1,NA,0,"Rua Dermario Bonates, 273 - Cambará, Boa Vista - RR",1,2636935756,NA,1,0,0,0,1,0,0,0,"casas","https://www.zapimoveis.com.br/imovel/venda-casa-1-quarto-mobiliado-cambara-boa-vista-rr-212m2-id-2636935756/",4,650000,0,2.81307,-60.72789
NA,NA,180,NA,3,NA,NA,"Rua João Padilha, 986 - Caimbé, Boa Vista - RR",NA,2635585988,NA,NA,NA,NA,NA,3,NA,NA,NA,"casas","https://www.zapimoveis.com.br/imovel/venda-casa-3-quartos-caimbe-boa-vista-rr-180m2-id-2635585988/",4,5e+05,NA,2.827850275171,-60.715555164168
0,NA,104,1,2,NA,0,"Rua Doutor Zamenhof, 1179 - Caranã, Boa Vista - RR",0,2648805142,390,0,0,0,0,2,0,0,0,"casas","https://www.zapimoveis.com.br/imovel/venda-casa-2-quartos-carana-boa-vista-rr-104m2-id-2648805142/",3,380000,0,2.842860008982,-60.724690016697
NA,NA,202,NA,1,NA,NA,"Rua Risos-do-Prado - Pricumã, Boa Vista - RR",NA,2633479284,NA,NA,NA,NA,NA,3,NA,NA,NA,"casas","https://www.zapimoveis.com.br/imovel/venda-casa-3-quartos-com-cozinha-pricuma-boa-vista-rr-202m2-id-2633479284/",5,460000,NA,2.812391106835,-60.699503341513
NA,NA,54,NA,2,NA,NA,"Rua Jacy de Souza Cruz - Santa Luzia, Boa Vista - RR",NA,2645334074,NA,NA,NA,NA,NA,2,NA,NA,NA,"casas","https://www.zapimoveis.com.br/imovel/venda-casa-2-quartos-santa-luzia-boa-vista-rr-54m2-id-2645334074/",NA,220000,NA,2.80811,-60.75312
NA,NA,600,NA,NA,NA,NA,"Rua Alzimiro Gomes da Silva, SN - Jardim Floresta, Boa Vista - RR",NA,2649824666,500,NA,NA,NA,NA,NA,NA,NA,NA,"terrenos_lotes_e_condominios","https://www.zapimoveis.com.br/imovel/venda-terreno-lote-condominio-jardim-floresta-boa-vista-rr-600m2-id-2649824666/",NA,250000,NA,2.83132500147,-60.713194990863
NA,NA,353,NA,4,NA,NA,"Rua Dom Apparecido José Dias - Cidade Satelite, Boa Vista - RR",NA,2645318307,NA,NA,NA,NA,NA,4,NA,NA,NA,"casas","https://www.zapimoveis.com.br/imovel/venda-casa-4-quartos-cidade-satelite-boa-vista-rr-353m2-id-2645318307/",NA,795000,NA,2.848314993479,-60.751890004963
0,NA,160,0,3,NA,0,"Paraviana, Boa Vista - RR",0,2652627314,NA,1,0,0,0,3,0,0,0,"casas","https://www.zapimoveis.com.br/imovel/venda-casa-3-quartos-com-piscina-paraviana-boa-vista-rr-160m2-id-2652627314/",NA,1600000,0,2.85917,-60.66054
1,NA,340,0,3,650,0,"Avenida Universo, 188 - Cidade Satelite, Boa Vista - RR",1,2646510166,1260,1,0,0,0,3,0,0,0,"casas_de_condominio","https://www.zapimoveis.com.br/imovel/venda-casa-de-condominio-3-quartos-mobiliado-cidade-satelite-boa-vista-rr-340m2-id-2646510166/",3,380000,0,2.85067382922,-60.739909102495
0,NA,190,0,3,NA,0,"Asa Branca, Boa Vista - RR",1,2652631289,NA,0,0,0,0,3,0,0,0,"casas","https://www.zapimoveis.com.br/imovel/venda-casa-3-quartos-com-churrasqueira-asa-branca-boa-vista-rr-190m2-id-2652631289/",2,850000,0,2.81426,-60.71629
0,NA,310,1,4,NA,0,"Rua José Alber Sampaio, 324 - Pintolândia, Boa Vista - RR",0,2649193155,400,0,0,0,0,5,0,0,0,"casas","https://www.zapimoveis.com.br/imovel/venda-casa-5-quartos-pintolandia-boa-vista-rr-310m2-id-2649193155/",3,295000,1,2.79931,-60.74813
NA,NA,50,NA,1,NA,NA,"Rua Afonso dos Santos Pereira, 1676 - Alvorada, Boa Vista - RR",NA,2609520070,NA,NA,NA,NA,NA,1,NA,NA,NA,"casas","https://www.zapimoveis.com.br/imovel/venda-casa-1-quarto-alvorada-boa-vista-rr-50m2-id-2609520070/",1,180000,NA,2.818040020213,-60.763499988599
NA,NA,384,NA,5,NA,NA,"Rua Cristiano Vieira da Silva - Caçari, Boa Vista - RR",NA,2631789358,NA,NA,NA,NA,NA,4,NA,NA,NA,"casas","https://www.zapimoveis.com.br/imovel/venda-casa-4-quartos-com-ar-condicionado-cacari-boa-vista-rr-384m2-id-2631789358/",4,1970000,NA,2.85329,-60.65048
NA,NA,405,NA,4,NA,NA,"Rua Capitão Castro Mendes, 60 - Paraviana, Boa Vista - RR",NA,2630529285,NA,NA,NA,NA,NA,4,NA,NA,NA,"casas","https://www.zapimoveis.com.br/imovel/venda-casa-4-quartos-paraviana-boa-vista-rr-405m2-id-2630529285/",6,3500000,NA,2.862889698445,-60.660204019713
NA,NA,1600,NA,1,NA,NA,"Rua Turmalina, 461 - Jóquei Clube, Boa Vista - RR",NA,2652150954,NA,NA,NA,NA,NA,1,NA,NA,NA,"terrenos_lotes_e_condominios","https://www.zapimoveis.com.br/imovel/venda-terreno-lote-condominio-1-quarto-joquei-clube-boa-vista-rr-1600m2-id-2652150954/",NA,150000,NA,2.804019694685,-60.729615665461
0,NA,1054,0,2,NA,0,"Rua Rio Tocantins - Caçari, Boa Vista - RR",1,2643149670,NA,1,0,0,0,4,0,1,0,"casas","https://www.zapimoveis.com.br/imovel/venda-casa-4-quartos-com-piscina-cacari-boa-vista-rr-1054m2-id-2643149670/",4,3997000,0,2.840091536498,-60.652824811115
0,NA,390,0,5,NA,0,"Caçari, Boa Vista - RR",0,2651582655,NA,1,0,0,0,1,0,0,0,"casas","https://www.zapimoveis.com.br/imovel/venda-casa-1-quarto-com-piscina-cacari-boa-vista-rr-390m2-id-2651582655/",3,2800000,0,2.85329,-60.65048
NA,NA,82,NA,1,NA,NA,"Rua Amajari - São Vicente, Boa Vista - RR",NA,2645319197,NA,NA,NA,NA,NA,2,NA,NA,NA,"casas","https://www.zapimoveis.com.br/imovel/venda-casa-2-quartos-sao-vicente-boa-vista-rr-82m2-id-2645319197/",NA,8e+05,NA,2.813018654223,-60.678577180788
NA,NA,2246,NA,NA,NA,NA,"Rua Reinaldo Neves - Jardim Floresta, Boa Vista - RR",NA,2640779852,NA,NA,NA,NA,NA,NA,NA,NA,NA,"terrenos_lotes_e_condominios","https://www.zapimoveis.com.br/imovel/venda-terreno-lote-condominio-jardim-floresta-boa-vista-rr-2246m2-id-2640779852/",NA,1200000,NA,2.827767438781,-60.705168712698
0,1,500,0,2,NA,0,"Rua Severino Soares de Freitas - Paraviana, Boa Vista - RR",1,2647724457,NA,1,0,0,0,4,0,1,0,"casas","https://www.zapimoveis.com.br/imovel/venda-casa-4-quartos-mobiliado-paraviana-boa-vista-rr-500m2-id-2647724457/",4,5500000,1,2.857054696411,-60.665067316425
NA,NA,90,NA,3,NA,NA,"Rua Francisco Anacleto da Silva - Equatorial, Boa Vista - RR",NA,2597756174,NA,NA,NA,NA,NA,2,NA,NA,NA,"casas","https://www.zapimoveis.com.br/imovel/venda-casa-2-quartos-equatorial-boa-vista-rr-90m2-id-2597756174/",1,170000,NA,2.819714070504,-60.771627217529
0,NA,125,1,1,NA,0,"Rua Gavião, 165 - Jóquei Clube, Boa Vista - RR",0,2645010767,NA,0,0,0,0,3,0,0,0,"casas","https://www.zapimoveis.com.br/imovel/venda-casa-3-quartos-joquei-clube-boa-vista-rr-125m2-id-2645010767/",NA,285000,0,2.807218030191,-60.719687722028
NA,NA,168,NA,1,NA,NA,"Cinturao Verde, Boa Vista - RR",NA,2652320374,NA,NA,NA,NA,NA,3,NA,NA,NA,"casas","https://www.zapimoveis.com.br/imovel/venda-casa-3-quartos-com-varanda-cinturao-verde-boa-vista-rr-168m2-id-2652320374/",NA,850000,NA,2.8051,-60.70749
0,NA,10,0,1,NA,0,"Avenida Olímpica - Jardim Tropical, Boa Vista - RR",1,2635552387,NA,0,0,0,0,3,0,0,0,"casas","https://www.zapimoveis.com.br/imovel/venda-casa-3-quartos-com-cozinha-jardim-tropical-boa-vista-rr-10m2-id-2635552387/",2,3e+05,0,2.796799775881,-60.731179727808
0,NA,55,1,1,NA,0,"Rua Eurides Vasconcelos Rodrigues, 74 - Jardim Floresta, Boa Vista - RR",0,2648441071,399,0,0,0,0,1,0,0,0,"casas","https://www.zapimoveis.com.br/imovel/venda-casa-1-quarto-jardim-floresta-boa-vista-rr-55m2-id-2648441071/",2,250000,0,2.826112088121,-60.703244045921
