"academia","andar","area","area_servico","banheiro","condominio","elevador","espaco_gourmet","id","iptu","piscina","playground","portaria_24_horas","quadra_de_esporte","quarto","salao_de_festa","sauna","spa","vaga","valor","varanda_gourmet","endereco","tipo","url","latitude","longitude"
NA,NA,300,NA,NA,NA,NA,NA,2619088403,NA,NA,NA,NA,NA,NA,NA,NA,NA,NA,NA,NA,"Rodovia Juscelino Kubitschek, S/N - Jardim Marco Zero, Macapá - AP","apartamentos","https://www.zapimoveis.com.br/lancamento/venda-apartamento-jardim-marco-zero-macapa-ap-300m2-id-2619088403/",-0.003905000128,-51.081766269647
1,8,172,0,4,1100,1,1,2556635872,NA,1,1,1,1,3,1,0,1,3,1500000,1,"Central, Macapá - AP","apartamentos","https://www.zapimoveis.com.br/imovel/venda-apartamento-3-quartos-com-piscina-central-macapa-ap-172m2-id-2556635872/",0.03398,-51.0613
1,6,172,0,4,1100,1,1,2651227155,NA,1,1,0,1,3,1,0,0,3,1300000,1,"Avenida General Gurjão, 435 - Central, Macapá - AP","apartamentos","https://www.zapimoveis.com.br/imovel/venda-apartamento-3-quartos-com-piscina-central-macapa-ap-172m2-id-2651227155/",0.036023737438,-51.052425877751
0,NA,80,1,2,NA,0,0,2617891624,NA,0,0,0,0,2,0,0,0,1,180000,0,"Rua Floriano Waldek, 1459 - Sao Lazaro, Macapá - AP","apartamentos","https://www.zapimoveis.com.br/imovel/venda-apartamento-2-quartos-com-area-de-servico-sao-lazaro-macapa-ap-80m2-id-2617891624/",0.076310019976,-51.061819973896
1,1,130,0,2,NA,1,0,2602445545,NA,1,1,1,0,2,0,0,0,3,460000,0,"Avenida Caramuru, 1204 - Beirol, Macapá - AP","apartamentos","https://www.zapimoveis.com.br/imovel/venda-apartamento-2-quartos-com-piscina-beirol-macapa-ap-130m2-id-2602445545/",0.02016662765,-51.06715139332
1,NA,99,0,3,NA,1,1,2617880820,NA,1,1,1,1,3,1,1,0,1,620000,1,"Avenida Stephan Houat, 1 - Jardim Marco Zero, Macapá - AP","apartamentos","https://www.zapimoveis.com.br/imovel/venda-apartamento-3-quartos-com-piscina-jardim-marco-zero-macapa-ap-99m2-id-2617880820/",0.005086172858,-51.072979924304
0,2,49,0,1,380,0,0,2559221926,NA,0,1,1,0,1,0,0,0,1,240000,0,"Avenida Jose Tupinamba de Almeida, 736 - Laguinho, Macapá - AP","apartamentos","https://www.zapimoveis.com.br/imovel/venda-apartamento-1-quarto-com-playground-laguinho-macapa-ap-49m2-id-2559221926/",0.04799,-51.05647
NA,NA,143,NA,4,NA,NA,NA,2574650991,NA,NA,NA,NA,NA,3,NA,NA,NA,2,1800000,NA,"Renascer, Macapá - AP","apartamentos","https://www.zapimoveis.com.br/imovel/venda-apartamento-3-quartos-renascer-macapa-ap-143m2-id-2574650991/",0.00414878699,-51.062637467
0,NA,72,1,2,600,0,0,2618766462,NA,0,0,0,0,1,0,0,0,1,4e+05,1,"Avenida Professora Cora de Carvalho, 2993 - Santa Rita, Macapá - AP","apartamentos","https://www.zapimoveis.com.br/imovel/venda-apartamento-1-quarto-com-cozinha-santa-rita-macapa-ap-72m2-id-2618766462/",0.037183302621,-51.081354642969
0,NA,100,1,3,3000,0,0,2631182187,NA,0,0,0,0,3,0,0,0,2,1600000,0,"Avenida Pedro Baião, 01 - Central, Macapá - AP","apartamentos","https://www.zapimoveis.com.br/imovel/venda-apartamento-3-quartos-com-cozinha-central-macapa-ap-100m2-id-2631182187/",0.030015682767,-51.062828585302
NA,NA,172,NA,3,1375,NA,NA,2618761552,NA,NA,NA,NA,NA,3,NA,NA,NA,2,750000,NA,"Avenida Almirante Barroso, 1055 - Central, Macapá - AP","apartamentos","https://www.zapimoveis.com.br/imovel/venda-apartamento-3-quartos-central-macapa-ap-172m2-id-2618761552/",0.036949985678,-51.066530016748
0,NA,192,0,3,270,0,0,2655068164,NA,0,0,1,0,3,0,0,0,5,950000,0,"Avenida França, 4 - São José, Macapá - AP","apartamentos","https://www.zapimoveis.com.br/imovel/venda-apartamento-3-quartos-sao-jose-macapa-ap-192m2-id-2655068164/",0.023278160126,-51.150022688116
0,NA,221,1,1,NA,0,0,2618761544,NA,1,0,0,0,3,0,0,0,3,1392648,1,"Avenida Presidente Getúlio Vargas, 479 - Central, Macapá - AP","apartamentos","https://www.zapimoveis.com.br/imovel/venda-apartamento-3-quartos-com-piscina-central-macapa-ap-221m2-id-2618761544/",0.037700036048,-51.053166634812
NA,2,600,NA,5,NA,NA,NA,2581719574,100,NA,NA,NA,NA,5,NA,NA,NA,NA,6e+05,NA,"Rua Hildemar Maia, 0001 - Muca, Macapá - AP","casas","https://www.zapimoveis.com.br/imovel/venda-casa-5-quartos-com-varanda-muca-macapa-ap-600m2-id-2581719574/",0.04996117864,-51.068138746367
NA,NA,30000,NA,NA,NA,NA,NA,2655065153,NA,NA,NA,NA,NA,NA,NA,NA,NA,NA,3.6e+07,NA,"Alameda Alexandrina, SN - Jardim Marco Zero, Macapá - AP","terrenos_e_lotes_comerciais","https://www.zapimoveis.com.br/imovel/venda-terreno-lote-comercial-jardim-marco-zero-macapa-ap-30000m2-id-2655065153/",0.0024,-51.07889
NA,NA,9722,NA,NA,NA,NA,NA,2618766616,NA,NA,NA,NA,NA,NA,NA,NA,NA,NA,1200000,NA,"Travessa Benjamim Constant. - Universidade, Macapá - AP","terrenos_e_lotes_comerciais","https://www.zapimoveis.com.br/imovel/venda-terreno-lote-comercial-universidade-macapa-ap-9722m2-id-2618766616/",-0.011841524838,-51.094083440425
NA,NA,250,NA,NA,NA,NA,NA,2618761547,NA,NA,NA,NA,NA,NA,NA,NA,NA,NA,3e+05,NA,"Avenida das Bacabas - Loteamento Açaí, Macapá - AP","terrenos_e_lotes_comerciais","https://www.zapimoveis.com.br/imovel/venda-terreno-lote-comercial-loteamento-acai-macapa-ap-250m2-id-2618761547/",0.077011627498,-51.080582051097
NA,NA,825,NA,NA,NA,NA,NA,2649413570,NA,NA,NA,NA,NA,NA,NA,NA,NA,NA,1200000,NA,"Rua Guanabara, 287 - Pacoval, Macapá - AP","terrenos_e_lotes_comerciais","https://www.zapimoveis.com.br/imovel/venda-terreno-lote-comercial-pacoval-macapa-ap-825m2-id-2649413570/",0.054895349942,-51.054277408591
NA,NA,396,NA,NA,NA,NA,NA,2618767328,NA,NA,NA,NA,NA,NA,NA,NA,NA,NA,8e+05,NA,"Rua Beira Rio, S/N - Santa Inês, Macapá - AP","terrenos_e_lotes_comerciais","https://www.zapimoveis.com.br/imovel/venda-terreno-lote-comercial-santa-ines-macapa-ap-396m2-id-2618767328/",0.020429231859,-51.056508293444
NA,NA,202,NA,1,NA,NA,NA,2648796219,NA,NA,NA,NA,NA,NA,NA,NA,NA,3,92000,NA,"Avenida da Fazendinha, 1 - Fazendinha, Macapá - AP","terrenos_e_lotes_comerciais","https://www.zapimoveis.com.br/imovel/venda-terreno-lote-comercial-com-energia-eletrica-fazendinha-macapa-ap-202m2-id-2648796219/",-0.04629,-51.11138
NA,NA,625,NA,NA,NA,NA,NA,2618767324,NA,NA,NA,NA,NA,NA,NA,NA,NA,NA,150000,NA,"Avenida das Oliveiras, 39 - Lagoa Azul, Macapá - AP","terrenos_e_lotes_comerciais","https://www.zapimoveis.com.br/imovel/venda-terreno-lote-comercial-lagoa-azul-macapa-ap-625m2-id-2618767324/",0.000839204257,-51.067125380243
NA,NA,1,NA,NA,NA,NA,NA,2638083981,NA,NA,NA,NA,NA,NA,NA,NA,NA,NA,180000,NA,"Avenida Principal, s/n - Boné Azul, Macapá - AP","terrenos_e_lotes_comerciais","https://www.zapimoveis.com.br/imovel/venda-terreno-lote-comercial-bone-azul-macapa-ap-1m2-id-2638083981/",0.081003853297,-51.070774126925
NA,2,300,NA,4,NA,NA,NA,2641572916,2,NA,NA,NA,NA,3,NA,NA,NA,NA,7e+05,NA,"Avenida Ernesto Pereira Colares, 230 - Novo Buritizal, Macapá - AP","casas","https://www.zapimoveis.com.br/imovel/venda-casa-3-quartos-novo-buritizal-macapa-ap-300m2-id-2641572916/",0.020747311225,-51.079708819564
0,2,189,0,2,300,0,1,2559974222,NA,0,1,1,1,3,1,0,0,NA,6e+05,1,"Rodovia Juscelino Kubitschek, 537 - Universidade, Macapá - AP","casas","https://www.zapimoveis.com.br/imovel/venda-casa-3-quartos-com-espaco-gourmet-universidade-macapa-ap-189m2-id-2559974222/",0.006181237574,-51.067983662799
NA,NA,250,NA,4,NA,NA,NA,2562964661,NA,NA,NA,NA,NA,4,NA,NA,NA,NA,750000,NA,"Avenida Anhangüera, 1000 - Buritizal, Macapá - AP","casas","https://www.zapimoveis.com.br/imovel/venda-casa-4-quartos-buritizal-macapa-ap-250m2-id-2562964661/",0.021619524372,-51.076739616531
NA,2,200,NA,9,NA,NA,NA,2556122236,NA,NA,NA,NA,NA,9,NA,NA,NA,2,350000,NA,"Avenida Cabo Velho, 1475 - Congós, Macapá - AP","casas","https://www.zapimoveis.com.br/imovel/venda-casa-9-quartos-congos-macapa-ap-200m2-id-2556122236/",0.011621922627,-51.095143946258
0,NA,160,1,1,NA,0,0,2618761549,NA,0,0,0,0,2,0,0,0,1,170000,0,"Rua Cinco, 184 - Lagoa Azul, Macapá - AP","casas","https://www.zapimoveis.com.br/imovel/venda-casa-2-quartos-com-cozinha-lagoa-azul-macapa-ap-160m2-id-2618761549/",0.019290838351,-51.075273573336
NA,NA,200,NA,2,NA,NA,NA,2626438784,NA,NA,NA,NA,NA,4,NA,NA,NA,NA,8e+05,NA,"Avenida Professora Cora de Carvalho, 1151 - Central, Macapá - AP","casas","https://www.zapimoveis.com.br/imovel/venda-casa-4-quartos-central-macapa-ap-200m2-id-2626438784/",0.035560014674,-51.059270031312
NA,NA,161,NA,3,300,NA,NA,2582082193,NA,NA,NA,NA,NA,3,NA,NA,NA,1,630000,NA,"Rua Redenção, 971 - Jardim Marco Zero, Macapá - AP","casas","https://www.zapimoveis.com.br/imovel/venda-casa-3-quartos-mobiliado-jardim-marco-zero-macapa-ap-161m2-id-2582082193/",-0.016079989735,-51.076954966912
1,NA,150,1,2,145,0,1,2607591052,NA,1,1,1,1,3,1,0,0,2,660000,0,"Rodovia de Duca Serra, 2821 - Marabaixo, Macapá - AP","casas_de_condominio","https://www.zapimoveis.com.br/imovel/venda-casa-de-condominio-3-quartos-com-piscina-marabaixo-macapa-ap-150m2-id-2607591052/",0.031101000355,-51.104193316548
0,NA,300,1,5,NA,0,0,2631183670,NA,0,0,0,0,3,0,0,0,1,650000,1,"Avenida Teresa Maciel Tavares, 131 - Muca, Macapá - AP","casas","https://www.zapimoveis.com.br/imovel/venda-casa-3-quartos-com-churrasqueira-muca-macapa-ap-300m2-id-2631183670/",0.010526411972,-51.071261597215
0,2,480,0,1,NA,0,0,2651154595,NA,0,0,0,0,2,0,0,0,2,7e+05,1,"Avenida Clodóvio Coelho, 41 - Trem, Macapá - AP","casas","https://www.zapimoveis.com.br/imovel/venda-casa-2-quartos-trem-macapa-ap-480m2-id-2651154595/",0.023808224852,-51.06286365514
0,NA,250,1,2,NA,0,0,2618767317,NA,1,0,0,0,2,0,0,0,2,320000,1,"Avenida Quinta, 1441 - Marabaixo, Macapá - AP","casas","https://www.zapimoveis.com.br/imovel/venda-casa-2-quartos-com-piscina-marabaixo-macapa-ap-250m2-id-2618767317/",-0.045259993079,-51.108485004449
NA,NA,300,NA,NA,NA,NA,NA,2651382364,NA,NA,NA,NA,NA,NA,NA,NA,NA,NA,80000,NA,"Rodovia Juscelino Kubitschek, SN - Universidade, Macapá - AP","terrenos_e_lotes_comerciais","https://www.zapimoveis.com.br/imovel/venda-terreno-lote-comercial-universidade-macapa-ap-300m2-id-2651382364/",-0.017856109787,-51.081620783047
0,NA,158,0,2,NA,0,1,2620608833,NA,1,1,1,1,2,1,0,0,2,650000,0,"Avenida Décima Oitava, 2070 - Marabaixo, Macapá - AP","casas_de_condominio","https://www.zapimoveis.com.br/imovel/venda-casa-de-condominio-2-quartos-com-piscina-marabaixo-macapa-ap-158m2-id-2620608833/",0.046326875692,-51.128214121433
NA,NA,200,NA,4,NA,NA,NA,2618767327,NA,NA,NA,NA,NA,4,NA,NA,NA,1,250000,NA,"Rua Oséas de Oliveira Pimentel, 878 - Renascer, Macapá - AP","casas","https://www.zapimoveis.com.br/imovel/venda-casa-4-quartos-renascer-macapa-ap-200m2-id-2618767327/",0.082090012767,-51.052450011974
0,NA,406,0,3,NA,0,0,2638504677,1,0,0,0,0,3,0,0,0,NA,470000,1,"Avenida Dom José Maritano, 1 - Jardim Marco Zero, Macapá - AP","casas","https://www.zapimoveis.com.br/imovel/venda-casa-3-quartos-mobiliado-jardim-marco-zero-macapa-ap-406m2-id-2638504677/",-0.00226596226,-51.087798616285
0,NA,270,1,4,NA,0,0,2556635877,NA,0,0,0,0,3,0,0,0,2,760000,0,"Avenida Doutor Silas Salgado - Santa Rita, Macapá - AP","casas","https://www.zapimoveis.com.br/imovel/venda-casa-3-quartos-com-churrasqueira-santa-rita-macapa-ap-270m2-id-2556635877/",0.038741239852,-51.079651021628
0,NA,250,0,4,NA,0,0,2528763585,NA,0,0,0,0,4,0,0,0,5,745000,1,"Ramal da Cascalheira, 603 - Muruci Fazendinha, Macapá - AP","casas","https://www.zapimoveis.com.br/imovel/venda-casa-4-quartos-muruci-fazendinha-macapa-ap-250m2-id-2528763585/",-0.04788327862,-51.098565450781
1,1,175,0,3,NA,0,1,2565062576,NA,1,0,1,0,3,0,0,0,1,750000,0,"Avenida França, 10 - São José, Macapá - AP","casas_de_condominio","https://www.zapimoveis.com.br/imovel/venda-casa-de-condominio-3-quartos-com-piscina-sao-jose-macapa-ap-175m2-id-2565062576/",0.023278160126,-51.150022688116
NA,NA,250,NA,3,NA,NA,NA,2560091156,NA,NA,NA,NA,NA,3,NA,NA,NA,2,9e+05,NA,"Avenida Seis de Setembro, 320 - Santa Inês, Macapá - AP","casas","https://www.zapimoveis.com.br/imovel/venda-casa-3-quartos-santa-ines-macapa-ap-250m2-id-2560091156/",0.02253946913,-51.056046232331
0,2,525,0,5,NA,0,0,2630678877,NA,0,0,0,0,3,0,0,0,6,1200000,1,"Avenida Manoel de Souza, 533 - Universidade, Macapá - AP","casas","https://www.zapimoveis.com.br/imovel/venda-casa-3-quartos-universidade-macapa-ap-525m2-id-2630678877/",-0.010329983202,-51.091900026003
0,NA,80,0,1,NA,0,0,2618643436,NA,0,0,1,0,2,0,0,0,NA,85000,0,"Rodovia de Duca Serra, 1 - Marabaixo, Macapá - AP","casas","https://www.zapimoveis.com.br/imovel/venda-casa-2-quartos-marabaixo-macapa-ap-80m2-id-2618643436/",0.031101000355,-51.104193316548
NA,NA,300,NA,2,NA,NA,NA,2573695845,NA,NA,NA,NA,NA,2,NA,NA,NA,6,550000,NA,"Travessa Albino Pena Alves, 1 - Jardim Marco Zero, Macapá - AP","casas","https://www.zapimoveis.com.br/imovel/venda-casa-2-quartos-jardim-marco-zero-macapa-ap-300m2-id-2573695845/",0.002679987812,-51.100900010718
1,NA,203,0,4,NA,0,0,2556635868,NA,0,0,0,0,3,0,0,0,2,1050000,1,"Cabralzinho, Macapá - AP","casas","https://www.zapimoveis.com.br/imovel/venda-casa-3-quartos-mobiliado-cabralzinho-macapa-ap-203m2-id-2556635868/",0.02931,-51.1139
0,NA,192,0,1,NA,0,0,2547555015,NA,1,0,0,0,3,0,0,0,NA,350000,0,"Renascer, Macapá - AP","casas","https://www.zapimoveis.com.br/imovel/venda-casa-3-quartos-com-piscina-renascer-macapa-ap-192m2-id-2547555015/",0.00414878699,-51.062637467
NA,NA,140,NA,2,NA,NA,NA,2617695300,NA,NA,NA,NA,NA,4,NA,NA,NA,NA,120000,NA,"Rua São Francisco de Assis, 10 - Marabaixo, Macapá - AP","casas","https://www.zapimoveis.com.br/imovel/venda-casa-4-quartos-marabaixo-macapa-ap-140m2-id-2617695300/",0.025796134154,-51.175161001244
0,NA,110,0,1,NA,0,0,2618772231,NA,0,0,0,0,2,0,0,0,2,350000,1,"Avenida Vinte e Oito de Julho, 1330 - Cabralzinho, Macapá - AP","casas","https://www.zapimoveis.com.br/imovel/venda-casa-2-quartos-cabralzinho-macapa-ap-110m2-id-2618772231/",0.011932487229,-51.081888392523
0,NA,160,1,1,NA,0,0,2618766823,NA,0,0,0,0,1,0,0,0,1,180000,0,"Avenida José Borges dos Santos, 74 - Fazendinha, Macapá - AP","casas","https://www.zapimoveis.com.br/imovel/venda-casa-1-quarto-com-cozinha-fazendinha-macapa-ap-160m2-id-2618766823/",-0.007477224469,-51.072165902361
0,1,500,0,3,NA,0,0,2649387530,NA,0,0,0,0,3,0,0,0,3,1400000,1,"Avenida Marcílio Dias, 876 - Jesus de Nazare, Macapá - AP","casas","https://www.zapimoveis.com.br/imovel/venda-casa-3-quartos-com-andar-inteiro-jesus-de-nazare-macapa-ap-500m2-id-2649387530/",0.050057589809,-51.050231537548
0,1,250,1,2,NA,0,0,2642044458,200,0,0,0,0,3,0,0,0,2,4e+05,0,"Avenida Esparta, 2929 - Renascer, Macapá - AP","casas","https://www.zapimoveis.com.br/imovel/venda-casa-3-quartos-com-poco-artesiano-renascer-macapa-ap-250m2-id-2642044458/",0.075625261728,-51.047889716288
0,NA,200,1,4,NA,0,0,2608318881,NA,0,0,0,0,3,0,0,0,3,910000,0,"Avenida Raimundo Álvares da Costa, 2754 - Santa Rita, Macapá - AP","sobrados","https://www.zapimoveis.com.br/imovel/venda-sobrados-3-quartos-santa-rita-macapa-ap-200m2-id-2608318881/",0.043670008911,-51.075049969868
0,2,244,1,5,NA,0,0,2556635871,NA,0,0,1,0,4,0,0,0,2,340000,0,"Pedrinhas, Macapá - AP","casas","https://www.zapimoveis.com.br/imovel/venda-casa-4-quartos-pedrinhas-macapa-ap-244m2-id-2556635871/",0.0085,-51.06458
NA,NA,150,NA,5,NA,NA,NA,2634938608,NA,NA,NA,NA,NA,4,NA,NA,NA,NA,250000,NA,"Avenida Aurora Ferreira da Costa, 161 - Novo Buritizal, Macapá - AP","casas","https://www.zapimoveis.com.br/imovel/venda-casa-4-quartos-novo-buritizal-macapa-ap-150m2-id-2634938608/",0.021284081518,-51.079179419118
NA,1,200,NA,2,NA,NA,NA,2617637020,NA,NA,NA,NA,NA,1,NA,NA,NA,NA,120000,NA,"Travessa Marilene Silva Miranda, 1 - Marabaixo, Macapá - AP","casas","https://www.zapimoveis.com.br/imovel/venda-casa-1-quarto-mobiliado-marabaixo-macapa-ap-200m2-id-2617637020/",0.03408,-51.06649
0,NA,290,1,3,NA,0,0,2556635866,NA,0,0,0,0,3,0,0,0,3,1200000,0,"Rua Um - Pedrinhas, Macapá - AP","casas","https://www.zapimoveis.com.br/imovel/venda-casa-3-quartos-com-churrasqueira-pedrinhas-macapa-ap-290m2-id-2556635866/",0.003809419784,-51.067966515866
0,NA,250,1,4,NA,0,0,2559347274,NA,0,0,0,0,3,0,0,0,NA,380000,0,"Rua Santa Inês - Santa Inês, Macapá - AP","casas","https://www.zapimoveis.com.br/imovel/venda-casa-3-quartos-com-area-de-servico-santa-ines-macapa-ap-250m2-id-2559347274/",0.0174,-51.05893
NA,NA,200,NA,4,NA,NA,NA,2564309138,NA,NA,NA,NA,NA,4,NA,NA,NA,NA,380000,NA,"Rua Leopoldo Queirós Teixeira, 2552 - Novo Buritizal, Macapá - AP","casas","https://www.zapimoveis.com.br/imovel/venda-casa-4-quartos-novo-buritizal-macapa-ap-200m2-id-2564309138/",0.021380810077,-51.082807421257
0,2,450,1,6,NA,0,0,2643688561,990,0,0,0,0,4,0,0,0,NA,750000,1,"Avenida dos Goitacazes, 1 - Buritizal, Macapá - AP","casas","https://www.zapimoveis.com.br/imovel/venda-casa-4-quartos-buritizal-macapa-ap-450m2-id-2643688561/",0.01595885276,-51.061582847423
NA,NA,120,NA,2,NA,NA,NA,2639156779,209,NA,NA,NA,NA,3,NA,NA,NA,1,290000,NA,"Avenida Rio Amapá, 1 - Fazendinha, Macapá - AP","casas","https://www.zapimoveis.com.br/imovel/venda-casa-3-quartos-fazendinha-macapa-ap-120m2-id-2639156779/",-0.042743771453,-51.111613510062
0,NA,150,1,3,NA,0,0,2608642221,NA,1,0,0,0,3,0,0,0,4,350000,0,"Rua Socialismo, 70 - Renascer, Macapá - AP","sobrados","https://www.zapimoveis.com.br/imovel/venda-sobrados-3-quartos-com-piscina-renascer-macapa-ap-150m2-id-2608642221/",0.070755820966,-51.05302900509
0,1,250,1,7,NA,0,0,2589140828,NA,0,0,0,0,6,0,0,0,4,8e+05,0,"Avenida Rio Amazonas, 697 - Fazendinha, Macapá - AP","casas","https://www.zapimoveis.com.br/imovel/venda-casa-6-quartos-com-area-de-servico-fazendinha-macapa-ap-250m2-id-2589140828/",-0.043871208066,-51.113403759599
0,1,120,1,3,NA,0,0,2592132219,NA,0,0,0,0,2,0,0,0,NA,3e+05,0,"Rua Raimundo Ramos dos Santos, 1203 - Cidade Nova, Macapá - AP","casas","https://www.zapimoveis.com.br/imovel/venda-casa-2-quartos-com-poco-cidade-nova-macapa-ap-120m2-id-2592132219/",0.052865287546,-51.045249808704
0,NA,360,1,1,NA,0,0,2547558560,NA,0,0,0,0,3,0,0,0,5,270000,0,"Jardim Felicidade, Macapá - AP","casas","https://www.zapimoveis.com.br/imovel/venda-casa-3-quartos-com-interfone-jardim-felicidade-macapa-ap-360m2-id-2547558560/",0.08797,-51.0595
0,NA,250,1,2,NA,0,0,2648215282,NA,1,0,0,0,2,0,0,0,4,4e+05,0,"Avenida Décima Nona, 1145 - Marabaixo, Macapá - AP","casas","https://www.zapimoveis.com.br/imovel/venda-casa-2-quartos-com-piscina-marabaixo-macapa-ap-250m2-id-2648215282/",-0.037513928689,-51.116036736419
0,NA,198,1,4,NA,0,0,2633260048,NA,0,0,0,0,3,0,0,0,NA,460000,0,"Avenida Padre Ângelo Biraghi, 1226 - Congós, Macapá - AP","casas","https://www.zapimoveis.com.br/imovel/venda-casa-3-quartos-congos-macapa-ap-198m2-id-2633260048/",0.011278791782,-51.089683067304
NA,NA,NA,NA,NA,NA,NA,NA,2648799467,NA,NA,NA,NA,NA,NA,NA,NA,NA,NA,65000,NA,"Avenida Euripedes Afonso Rodrigues, SN - Fazendinha, Macapá - AP","terrenos_e_lotes_comerciais","https://www.zapimoveis.com.br/imovel/venda-terreno-lote-comercial-fazendinha-macapa-ap-id-2648799467/",-0.039832512571,-51.112471333255
NA,NA,200,NA,3,260,NA,NA,2619283024,NA,NA,NA,NA,NA,3,NA,NA,NA,NA,650000,NA,"Avenida Itália, 533 - São José, Macapá - AP","casas","https://www.zapimoveis.com.br/imovel/venda-casa-3-quartos-sao-jose-macapa-ap-200m2-id-2619283024/",0.023754454272,-51.148959764544
0,NA,11,1,2,NA,0,0,2648215279,NA,0,0,0,0,2,0,0,0,1,270000,0,"Avenida Vinte e Dois de Julho, 892 - Novo Buritizal, Macapá - AP","casas","https://www.zapimoveis.com.br/imovel/venda-casa-2-quartos-com-cozinha-novo-buritizal-macapa-ap-11m2-id-2648215279/",0.011404298524,-51.076309938675
0,NA,105,1,3,NA,0,0,2556635876,NA,0,0,0,0,3,0,0,0,3,1200000,0,"Avenida Henrique Galúcio, 10 - Santa Rita, Macapá - AP","casas","https://www.zapimoveis.com.br/imovel/venda-casa-3-quartos-com-area-de-servico-santa-rita-macapa-ap-105m2-id-2556635876/",0.032232517297,-51.0741801735
0,1,200,0,3,NA,0,0,2603904991,NA,0,0,0,0,4,0,0,0,3,5e+05,1,"Avenida Almirante Barroso, 3033 - Alvorada, Macapá - AP","casas","https://www.zapimoveis.com.br/imovel/venda-casa-4-quartos-alvorada-macapa-ap-200m2-id-2603904991/",0.038200020808,-51.084529986179
NA,1,200,NA,6,NA,NA,NA,2607771984,NA,NA,NA,NA,NA,6,NA,NA,NA,6,220000,NA,"Avenida Francisco Torquato de Araújo, 1206 - Congós, Macapá - AP","casas","https://www.zapimoveis.com.br/imovel/venda-casa-6-quartos-com-andar-inteiro-congos-macapa-ap-200m2-id-2607771984/",0.012193372255,-51.091093602239
NA,NA,200,NA,2,NA,NA,NA,2556288181,500,NA,NA,NA,NA,3,NA,NA,NA,NA,2e+05,NA,"Rua Luis Azarias Neto, 1000 - Zerão, Macapá - AP","casas","https://www.zapimoveis.com.br/imovel/venda-casa-3-quartos-zerao-macapa-ap-200m2-id-2556288181/",-1.1507888e-05,-51.095657261401
NA,NA,146,NA,3,NA,NA,NA,2651877758,600,NA,NA,NA,NA,2,NA,NA,NA,3,594000,NA,"Alameda Alexandrina, 121 - Jardim Marco Zero, Macapá - AP","casas","https://www.zapimoveis.com.br/imovel/venda-casa-2-quartos-mobiliado-jardim-marco-zero-macapa-ap-146m2-id-2651877758/",0.0024,-51.07889
NA,NA,150,NA,3,NA,NA,NA,2628823660,900,NA,NA,NA,NA,3,NA,NA,NA,2,280000,NA,"Vila Montese, 78 - Central, Macapá - AP","casas","https://www.zapimoveis.com.br/imovel/venda-casa-3-quartos-central-macapa-ap-150m2-id-2628823660/",0.033760000967,-51.065659975198
NA,NA,120,NA,2,NA,NA,NA,2493275309,170,NA,NA,NA,NA,3,NA,NA,NA,6,380000,NA,"Rua Vicente Raimundo Alves, 1270 - Universidade, Macapá - AP","casas","https://www.zapimoveis.com.br/imovel/venda-casa-3-quartos-universidade-macapa-ap-120m2-id-2493275309/",-0.008917221915,-51.102755134096
0,1,150,0,3,NA,0,0,2636728085,2,0,0,0,0,3,0,0,0,NA,3e+05,1,"Avenida Wilson Carvalho, 1323 - Jardim Equatorial, Macapá - AP","casas","https://www.zapimoveis.com.br/imovel/venda-casa-3-quartos-jardim-equatorial-macapa-ap-150m2-id-2636728085/",-0.004149766971,-51.099593274212
0,NA,360,1,2,NA,0,0,2618766457,NA,0,0,0,0,2,0,0,0,1,180000,0,"Avenida Raimundo Caxias de Souza, 1380 - Congós, Macapá - AP","casas","https://www.zapimoveis.com.br/imovel/venda-casa-2-quartos-com-cozinha-congos-macapa-ap-360m2-id-2618766457/",0.008869981397,-51.093059997583
0,NA,140,0,3,NA,0,1,2556116063,NA,1,0,0,0,2,0,0,0,1,250000,1,"Rua Yasmin dos Santos Brito - Infraero, Macapá - AP","casas","https://www.zapimoveis.com.br/imovel/venda-casa-2-quartos-com-piscina-infraero-macapa-ap-140m2-id-2556116063/",0.070940827237,-51.090027580391
0,NA,711,1,2,NA,0,0,2618767336,NA,0,0,0,0,2,0,0,0,2,180000,0,"Avenida Bananal, 1551 - Brasil Novo, Macapá - AP","casas","https://www.zapimoveis.com.br/imovel/venda-casa-2-quartos-com-cozinha-brasil-novo-macapa-ap-711m2-id-2618767336/",0.090769373956,-51.088659471268
0,NA,231,0,1,NA,0,0,2630296357,NA,0,0,0,0,3,0,0,0,2,350000,1,"Jardim Felicidade, Macapá - AP","casas","https://www.zapimoveis.com.br/imovel/venda-casa-3-quartos-jardim-felicidade-macapa-ap-231m2-id-2630296357/",0.08797,-51.0595
NA,1,270,NA,6,NA,NA,NA,2599678162,900,NA,NA,NA,NA,4,NA,NA,NA,3,8e+05,NA,"Avenida dos Xavantes, 1077 - Buritizal, Macapá - AP","casas","https://www.zapimoveis.com.br/imovel/venda-casa-4-quartos-buritizal-macapa-ap-270m2-id-2599678162/",0.0198383523,-51.073242009397
0,NA,105,0,1,NA,0,0,2645252655,NA,0,1,0,1,2,0,0,0,2,3e+05,0,"Rodovia BR-210, 352 - Lagoa Azul, Macapá - AP","casas","https://www.zapimoveis.com.br/imovel/venda-casa-2-quartos-mobiliado-lagoa-azul-macapa-ap-105m2-id-2645252655/",0.066634203606,-51.057313811075
0,NA,260,1,1,NA,0,0,2649413953,NA,0,0,0,0,3,0,0,0,3,170000,0,"Rua Neves da Luz, 1639 - Lagoa Azul, Macapá - AP","casas","https://www.zapimoveis.com.br/imovel/venda-casa-3-quartos-com-cozinha-lagoa-azul-macapa-ap-260m2-id-2649413953/",0.091099729877,-51.116814852843
0,NA,130,0,3,NA,0,0,2625108196,NA,0,0,0,0,3,0,0,0,2,380000,1,"Alameda Araguary, 7 - Cabralzinho, Macapá - AP","casas","https://www.zapimoveis.com.br/imovel/venda-casa-3-quartos-cabralzinho-macapa-ap-130m2-id-2625108196/",0.029513895907,-51.112789853362
NA,NA,300,NA,5,NA,NA,NA,2625509979,NA,NA,NA,NA,NA,4,NA,NA,NA,2,450000,NA,"Alameda Atenas, 1000 - Renascer, Macapá - AP","casas","https://www.zapimoveis.com.br/imovel/venda-casa-4-quartos-renascer-macapa-ap-300m2-id-2625509979/",0.004219484692,-51.062529764706
0,NA,150,0,2,NA,0,1,2620623601,NA,0,0,0,0,2,0,0,0,2,360000,0,"Temporário Reservado, 1 - Cabralzinho, Macapá - AP","casas","https://www.zapimoveis.com.br/imovel/venda-casa-2-quartos-com-churrasqueira-cabralzinho-macapa-ap-150m2-id-2620623601/",0.02931,-51.1139
0,NA,352,1,3,NA,0,0,2649592092,NA,0,0,0,0,3,0,0,0,1,2e+05,0,"Rua Terra, 1435 - Jardim Marco Zero, Macapá - AP","casas","https://www.zapimoveis.com.br/imovel/venda-casa-3-quartos-com-cozinha-jardim-marco-zero-macapa-ap-352m2-id-2649592092/",0.003929119193,-51.086093338086
NA,1,70,NA,1,NA,NA,NA,2597319168,NA,NA,NA,NA,NA,2,NA,NA,NA,1,150000,NA,"Avenida dos Cupuaçus, 711 - Infraero, Macapá - AP","casas","https://www.zapimoveis.com.br/imovel/venda-casa-2-quartos-infraero-macapa-ap-70m2-id-2597319168/",0.079337126189,-51.081571664456
NA,NA,120,NA,2,NA,NA,NA,2564038797,NA,NA,NA,NA,NA,3,NA,NA,NA,NA,180000,NA,"Avenida Carlos Almeida de Souza, 1000 - Jardim Felicidade, Macapá - AP","casas","https://www.zapimoveis.com.br/imovel/venda-casa-3-quartos-jardim-felicidade-macapa-ap-120m2-id-2564038797/",0.087175719468,-51.057170414035
0,NA,150,1,2,NA,0,0,2642047434,200,0,0,0,0,3,0,0,0,NA,150000,0,"Avenida Bananeira, 1381 - Brasil Novo, Macapá - AP","casas","https://www.zapimoveis.com.br/imovel/venda-casa-3-quartos-brasil-novo-macapa-ap-150m2-id-2642047434/",0.101039987104,-51.083479985168
0,NA,150,0,2,NA,0,0,2652125853,NA,0,0,0,0,3,0,0,0,2,580000,1,"Rua Macapá, 001 - Cabralzinho, Macapá - AP","casas","https://www.zapimoveis.com.br/imovel/venda-casa-3-quartos-com-varanda-gourmet-cabralzinho-macapa-ap-150m2-id-2652125853/",0.031538914251,-51.116319884686
0,NA,150,0,3,NA,0,0,2556124779,NA,1,0,0,0,3,0,0,0,NA,220000,0,"Avenida José Araguarino de Mont'Alverne, 1448 - Congós, Macapá - AP","casas","https://www.zapimoveis.com.br/imovel/venda-casa-3-quartos-com-piscina-congos-macapa-ap-150m2-id-2556124779/",0.008915777254,-51.086716677586
0,NA,75,0,1,NA,0,0,2653604084,NA,0,0,0,0,2,0,0,0,1,320000,1,"Temporário Reservado, 007 - Cabralzinho, Macapá - AP","casas","https://www.zapimoveis.com.br/imovel/venda-casa-2-quartos-com-varanda-gourmet-cabralzinho-macapa-ap-75m2-id-2653604084/",0.02931,-51.1139
0,NA,42,1,1,NA,0,0,2618767323,NA,0,0,0,0,2,0,0,0,2,160000,0,"Travessa Cristal, 306 - Pedrinhas, Macapá - AP","casas","https://www.zapimoveis.com.br/imovel/venda-casa-2-quartos-com-cozinha-pedrinhas-macapa-ap-42m2-id-2618767323/",-0.005479783176,-51.074583322667
NA,NA,120,NA,2,NA,NA,NA,2630144165,NA,NA,NA,NA,NA,3,NA,NA,NA,6,250000,NA,"Rua Luis Azarias Neto, 1242 - Zerão, Macapá - AP","casas","https://www.zapimoveis.com.br/imovel/venda-casa-3-quartos-zerao-macapa-ap-120m2-id-2630144165/",-0.002449988389,-51.0956400312
NA,NA,125,NA,3,NA,NA,NA,2618771714,NA,NA,NA,NA,NA,3,NA,NA,NA,2,450000,NA,"Avenida Belas Artes - Universidade, Macapá - AP","casas","https://www.zapimoveis.com.br/imovel/venda-casa-3-quartos-universidade-macapa-ap-125m2-id-2618771714/",0.001982954275,-51.101155162203
NA,NA,50,NA,1,NA,NA,NA,2575521483,NA,NA,NA,NA,NA,2,NA,NA,NA,1,160000,NA,"Boné Azul, Macapá - AP","casas","https://www.zapimoveis.com.br/imovel/venda-casa-2-quartos-bone-azul-macapa-ap-50m2-id-2575521483/",0.08393,-51.07461
0,NA,169,1,4,NA,0,0,2556635863,NA,0,0,0,0,3,0,0,0,2,5e+05,0,"Avenida Alagoas - Pacoval, Macapá - AP","casas","https://www.zapimoveis.com.br/imovel/venda-casa-3-quartos-com-area-de-servico-pacoval-macapa-ap-169m2-id-2556635863/",0.059072106286,-51.055607603364
0,NA,180,0,4,NA,0,1,2434981628,400,1,0,0,0,3,0,0,0,2,6e+05,1,"Rodovia Juscelino Kubitschek, 717 - Jardim Marco Zero, Macapá - AP","sobrados","https://www.zapimoveis.com.br/imovel/venda-sobrados-3-quartos-com-piscina-jardim-marco-zero-macapa-ap-180m2-id-2434981628/",0.006304670218,-51.067814216907
0,NA,150,1,2,NA,0,0,2649862161,500,0,0,0,0,3,0,0,0,2,280000,0,"Rua dos Taperebás, 302 - Infraero, Macapá - AP","casas","https://www.zapimoveis.com.br/imovel/venda-casa-3-quartos-infraero-macapa-ap-150m2-id-2649862161/",0.081383639271,-51.077120229762
0,1,1320,1,3,NA,0,0,2643741256,200,0,0,0,0,3,0,0,0,2,190000,0,"Passagem Quatorze Bis, 70 - Infraero, Macapá - AP","casas","https://www.zapimoveis.com.br/imovel/venda-casa-3-quartos-com-poco-artesiano-infraero-macapa-ap-1320m2-id-2643741256/",0.07536001507,-51.064530010831
NA,NA,140,NA,2,NA,NA,NA,2618647996,NA,NA,NA,NA,NA,2,NA,NA,NA,3,160000,NA,"Avenida Ipê, 657 - Boné Azul, Macapá - AP","casas","https://www.zapimoveis.com.br/imovel/venda-casa-2-quartos-bone-azul-macapa-ap-140m2-id-2618647996/",0.08393,-51.07461
NA,1,150,NA,3,NA,NA,NA,2648021851,200,NA,NA,NA,NA,2,NA,NA,NA,2,4e+05,NA,"Ramal do Rurap, 737 - Universidade, Macapá - AP","casas","https://www.zapimoveis.com.br/imovel/venda-casa-2-quartos-com-poco-artesiano-universidade-macapa-ap-150m2-id-2648021851/",-0.0135,-51.09718
NA,NA,140,NA,2,NA,NA,NA,2632159465,NA,NA,NA,NA,NA,4,NA,NA,NA,2,3e+05,NA,"Rua dos Jenipapos, 33 - Loteamento Açaí, Macapá - AP","casas","https://www.zapimoveis.com.br/imovel/venda-casa-4-quartos-loteamento-acai-macapa-ap-140m2-id-2632159465/",0.076563240147,-51.078350925818
NA,NA,243,NA,1,NA,NA,NA,2653398824,NA,NA,NA,NA,NA,2,NA,NA,NA,NA,229500,NA,"Avenida Francisco Torquato de Araújo - Congós, Macapá - AP","casas","https://www.zapimoveis.com.br/imovel/venda-casa-2-quartos-congos-macapa-ap-243m2-id-2653398824/",0.007694166346,-51.089980883217
NA,1,100,NA,3,NA,NA,NA,2580664404,NA,NA,NA,NA,NA,3,NA,NA,NA,3,290000,NA,"Rua dos Maracujás, 542 - Loteamento Açaí, Macapá - AP","casas","https://www.zapimoveis.com.br/imovel/venda-casa-3-quartos-loteamento-acai-macapa-ap-100m2-id-2580664404/",0.077890008724,-51.081200023685
NA,NA,219,NA,4,NA,NA,NA,2558546277,NA,NA,NA,NA,NA,3,NA,NA,NA,3,360000,NA,"Rodovia Juscelino Kubitschek, 2840 - Universidade, Macapá - AP","casas","https://www.zapimoveis.com.br/imovel/venda-casa-3-quartos-universidade-macapa-ap-219m2-id-2558546277/",-0.017809993596,-51.081449972038
NA,NA,120,NA,2,NA,NA,NA,2626604061,NA,NA,NA,NA,NA,3,NA,NA,NA,2,180000,NA,"Rua Redenção, 231 - Jardim Marco Zero, Macapá - AP","casas","https://www.zapimoveis.com.br/imovel/venda-casa-3-quartos-jardim-marco-zero-macapa-ap-120m2-id-2626604061/",-0.016079989735,-51.076954966912
NA,NA,180,NA,1,NA,NA,NA,2575269259,NA,NA,NA,NA,NA,2,NA,NA,NA,4,2e+05,NA,"Rua Josefa Pelaes da Silva, 153 - Cidade Nova, Macapá - AP","casas","https://www.zapimoveis.com.br/imovel/venda-casa-2-quartos-cidade-nova-macapa-ap-180m2-id-2575269259/",0.091209181698,-51.059180600486
NA,NA,200,NA,1,NA,NA,NA,2563726176,NA,NA,NA,NA,NA,2,NA,NA,NA,2,250000,NA,"Avenida Brigadeiro Farias Lima, 85 - Infraero, Macapá - AP","casas","https://www.zapimoveis.com.br/imovel/venda-casa-2-quartos-infraero-macapa-ap-200m2-id-2563726176/",0.073740002734,-51.063440028142
NA,NA,120,NA,4,1,NA,NA,2647207799,300,NA,NA,NA,NA,3,NA,NA,NA,1,199650,NA,"Rua dos Mamões, 100 - Infraero, Macapá - AP","casas","https://www.zapimoveis.com.br/imovel/venda-casa-3-quartos-infraero-macapa-ap-120m2-id-2647207799/",0.078845588125,-51.080568673598
NA,1,200,NA,4,NA,NA,NA,2592372194,900,NA,NA,NA,NA,4,NA,NA,NA,4,170000,NA,"Avenida Mogno, 55 - Boné Azul, Macapá - AP","casas","https://www.zapimoveis.com.br/imovel/venda-casa-4-quartos-bone-azul-macapa-ap-200m2-id-2592372194/",0.098950001457,-51.059719971875
NA,NA,180,NA,1,NA,NA,NA,2645281172,NA,NA,NA,NA,NA,1,NA,NA,NA,4,250000,NA,"Avenida Principal, 25 - Boné Azul, Macapá - AP","casas","https://www.zapimoveis.com.br/imovel/venda-casa-1-quarto-bone-azul-macapa-ap-180m2-id-2645281172/",0.081003853297,-51.070774126925
NA,NA,200,NA,3,180,NA,NA,2433833788,190,NA,NA,NA,NA,3,NA,NA,NA,1,380000,NA,"Avenida Petrópolis - Brasil Novo, Macapá - AP","casas","https://www.zapimoveis.com.br/imovel/venda-casa-3-quartos-mobiliado-brasil-novo-macapa-ap-200m2-id-2433833788/",0.086699623919,-51.102973704897
NA,NA,200,NA,2,NA,NA,NA,2645046548,NA,NA,NA,NA,NA,3,NA,NA,NA,4,250000,NA,"Rua da Biriba, 383 - Infraero, Macapá - AP","casas","https://www.zapimoveis.com.br/imovel/venda-casa-3-quartos-infraero-macapa-ap-200m2-id-2645046548/",0.07112,-51.06604
0,1,120,1,2,NA,0,0,2643254514,2,0,0,0,0,3,0,0,0,2,220000,0,"Avenida do Açai, 594 - Infraero, Macapá - AP","casas","https://www.zapimoveis.com.br/imovel/venda-casa-3-quartos-infraero-macapa-ap-120m2-id-2643254514/",0.08771414123,-51.086057554254
0,1,100,1,2,NA,0,0,2653941857,200,0,0,0,0,2,0,0,0,NA,180000,0,"Passagem Guajará, 193 - Jardim Equatorial, Macapá - AP","casas","https://www.zapimoveis.com.br/imovel/venda-casa-2-quartos-jardim-equatorial-macapa-ap-100m2-id-2653941857/",0.00976,-51.06897
NA,NA,200,NA,2,NA,NA,NA,2654219710,NA,NA,NA,NA,NA,2,NA,NA,NA,NA,184100,NA,"Avenida Caramuru, 313 - Beirol, Macapá - AP","casas","https://www.zapimoveis.com.br/imovel/venda-casa-2-quartos-beirol-macapa-ap-200m2-id-2654219710/",0.019823114154,-51.061320234206
NA,NA,200,NA,2,NA,NA,NA,2651468153,NA,NA,NA,NA,NA,3,NA,NA,NA,2,7e+05,NA,"Avenida Professora Cora de Carvalho, 2399 - Central, Macapá - AP","casas","https://www.zapimoveis.com.br/imovel/venda-casa-3-quartos-central-macapa-ap-200m2-id-2651468153/",0.036210907736,-51.066131690523
NA,NA,240,NA,2,NA,NA,NA,2608642087,NA,NA,NA,NA,NA,6,NA,NA,NA,2,660000,NA,"Avenida Pedro Lazarino, 2114 - Buritizal, Macapá - AP","sobrados","https://www.zapimoveis.com.br/imovel/venda-sobrados-6-quartos-buritizal-macapa-ap-240m2-id-2608642087/",0.021197098712,-51.059035069585
NA,NA,300,NA,3,NA,NA,NA,2570953631,NA,NA,NA,NA,NA,6,NA,NA,NA,NA,780000,NA,"Avenida Almirante Barroso, 610 - Central, Macapá - AP","casas","https://www.zapimoveis.com.br/imovel/venda-casa-6-quartos-central-macapa-ap-300m2-id-2570953631/",0.036413927474,-51.058540575248
0,NA,11,1,6,NA,0,0,2618766458,NA,1,0,0,0,4,0,0,0,4,1500000,1,"Avenida Reinaldo Damasceno, 3034 - Santa Rita, Macapá - AP","casas","https://www.zapimoveis.com.br/imovel/venda-casa-4-quartos-com-piscina-santa-rita-macapa-ap-11m2-id-2618766458/",0.039570000972,-51.07684000911
NA,NA,450,NA,3,NA,NA,NA,2618767006,NA,NA,NA,NA,NA,2,NA,NA,NA,NA,1500000,NA,"Avenida Machado de Assis - Central, Macapá - AP","casas","https://www.zapimoveis.com.br/imovel/venda-casa-2-quartos-central-macapa-ap-450m2-id-2618767006/",0.040060336298,-51.061912930373
1,NA,225,1,4,145,0,1,2608646810,NA,1,1,1,1,3,1,0,0,2,1e+06,0,"Rodovia de Duca Serra, 2128 - Marabaixo, Macapá - AP","casas_de_condominio","https://www.zapimoveis.com.br/imovel/venda-casa-de-condominio-3-quartos-com-piscina-marabaixo-macapa-ap-225m2-id-2608646810/",0.036283257027,-51.091293030324
NA,NA,800,NA,4,NA,NA,NA,2618767010,NA,NA,NA,NA,NA,2,NA,NA,NA,NA,2e+06,NA,"Rua Maria Marola Gato - Jardim Marco Zero, Macapá - AP","casas","https://www.zapimoveis.com.br/imovel/venda-casa-2-quartos-jardim-marco-zero-macapa-ap-800m2-id-2618767010/",0.001463249598,-51.073235923867
0,2,220,0,5,NA,0,1,2600126798,NA,1,0,0,0,4,0,0,0,NA,750000,1,"Avenida Doutor Silas Salgado, 3323 - Santa Rita, Macapá - AP","casas","https://www.zapimoveis.com.br/imovel/venda-casa-4-quartos-com-piscina-santa-rita-macapa-ap-220m2-id-2600126798/",0.038907816253,-51.08269215019
NA,NA,325,NA,4,NA,NA,NA,2637206456,NA,NA,NA,NA,NA,2,NA,NA,NA,2,1200000,NA,"Avenida FAB, 3091 - Santa Rita, Macapá - AP","casas","https://www.zapimoveis.com.br/imovel/venda-casa-2-quartos-santa-rita-macapa-ap-325m2-id-2637206456/",0.041049909046,-51.063781814939
0,NA,487,1,2,NA,0,0,2619865535,NA,0,0,0,0,2,0,0,0,2,1200000,0,"Avenida Coaracy Nunes, 721 - Central, Macapá - AP","casas","https://www.zapimoveis.com.br/imovel/venda-casa-2-quartos-com-cozinha-central-macapa-ap-487m2-id-2619865535/",0.032620020226,-51.057419977643
0,NA,450,1,1,NA,0,0,2630521375,NA,0,0,0,0,1,0,0,0,2,8e+05,0,"Avenida Maria Quitéria, 266 - Santa Rita, Macapá - AP","casas","https://www.zapimoveis.com.br/imovel/venda-casa-1-quarto-com-cozinha-santa-rita-macapa-ap-450m2-id-2630521375/",0.028768171131,-51.077851167032
0,NA,332,1,1,NA,0,0,2642744015,NA,1,0,0,0,1,0,0,0,12,695000,1,"Avenida Stephan Houat, 340 - Jardim Marco Zero, Macapá - AP","casas","https://www.zapimoveis.com.br/imovel/venda-casa-1-quarto-com-piscina-jardim-marco-zero-macapa-ap-332m2-id-2642744015/",0.005218941403,-51.077384402022
NA,NA,300,NA,4,NA,NA,NA,2627728621,NA,NA,NA,NA,NA,6,NA,NA,NA,NA,7e+05,NA,"Avenida Francisco Soares, 101 - Jardim Marco Zero, Macapá - AP","casas","https://www.zapimoveis.com.br/imovel/venda-casa-6-quartos-jardim-marco-zero-macapa-ap-300m2-id-2627728621/",0.002729985864,-51.080689984877
0,NA,200,1,1,NA,0,0,2638746170,NA,1,0,0,0,1,0,0,0,4,1400000,1,"Avenida José Antônio Siqueira, 1227 - Jesus de Nazare, Macapá - AP","casas","https://www.zapimoveis.com.br/imovel/venda-casa-1-quarto-com-piscina-jesus-de-nazare-macapa-ap-200m2-id-2638746170/",0.044787067119,-51.057417754534
NA,2,300,NA,4,NA,NA,NA,2574466221,NA,NA,NA,NA,NA,3,NA,NA,NA,2,9e+05,NA,"Cabralzinho, Macapá - AP","casas","https://www.zapimoveis.com.br/imovel/venda-casa-3-quartos-cabralzinho-macapa-ap-300m2-id-2574466221/",0.02931,-51.1139
NA,NA,450,NA,5,NA,NA,NA,2545976890,NA,NA,NA,NA,NA,4,NA,NA,NA,2,1450000,NA,"Travessa Primeiro de Maio - Santa Inês, Macapá - AP","sobrados","https://www.zapimoveis.com.br/imovel/venda-sobrados-4-quartos-santa-ines-macapa-ap-450m2-id-2545976890/",0.024285427581,-51.057884089563
0,NA,300,1,5,NA,0,0,2556635875,NA,0,0,0,0,5,0,0,0,3,8e+05,0,"Avenida Ernestino Borges, 1969 - Juliao Ramos, Macapá - AP","casas","https://www.zapimoveis.com.br/imovel/venda-casa-5-quartos-com-churrasqueira-juliao-ramos-macapa-ap-300m2-id-2556635875/",0.042917739125,-51.052847050563
0,NA,144,0,3,NA,0,1,2544249214,NA,1,1,1,1,2,1,0,0,2,8e+05,0,"Rodovia de Duca Serra - Marabaixo, Macapá - AP","casas_de_condominio","https://www.zapimoveis.com.br/imovel/venda-casa-de-condominio-2-quartos-com-piscina-marabaixo-macapa-ap-144m2-id-2544249214/",0.031101000355,-51.104193316548
0,NA,224,1,2,NA,0,0,2618766460,NA,0,0,0,0,3,0,0,0,2,8e+05,1,"Alameda Oiapoque, 151 - Cabralzinho, Macapá - AP","casas","https://www.zapimoveis.com.br/imovel/venda-casa-3-quartos-com-cozinha-cabralzinho-macapa-ap-224m2-id-2618766460/",0.03006849476,-51.115394908465
NA,NA,250,NA,1,NA,NA,NA,2618766456,NA,NA,NA,NA,NA,2,NA,NA,NA,NA,80000,NA,"Rua Inspetor Miguel Amorim, 1738 - Zerão, Macapá - AP","casas","https://www.zapimoveis.com.br/imovel/venda-casa-2-quartos-com-cozinha-zerao-macapa-ap-250m2-id-2618766456/",-0.007330016236,-51.099829976959
0,NA,88,0,2,NA,0,1,2620611196,NA,0,1,1,1,1,1,0,0,1,380000,0,"Avenida Décima Oitava, 2070 - Marabaixo, Macapá - AP","casas_de_condominio","https://www.zapimoveis.com.br/imovel/venda-casa-de-condominio-1-quarto-com-churrasqueira-marabaixo-macapa-ap-88m2-id-2620611196/",0.046326875692,-51.128214121433
1,NA,145,0,2,NA,0,1,2615745525,NA,1,1,1,1,3,1,0,0,2,7e+05,0,"Rodovia de Duca Serra, 25 - São José, Macapá - AP","casas","https://www.zapimoveis.com.br/imovel/venda-casa-3-quartos-com-piscina-sao-jose-macapa-ap-145m2-id-2615745525/",0.031101000355,-51.104193316548
0,NA,180,1,2,280,0,0,2608320140,NA,0,1,1,1,3,0,0,0,2,6e+05,0,"Avenida Abu Dhabi, 1 - Marabaixo, Macapá - AP","casas_de_condominio","https://www.zapimoveis.com.br/imovel/venda-casa-de-condominio-3-quartos-com-area-de-lazer-marabaixo-macapa-ap-180m2-id-2608320140/",0.030864295871,-51.131531794135
0,NA,286,1,1,NA,0,0,2618765882,NA,0,0,0,0,4,0,0,0,2,8e+05,1,"Rua Maria Marola Gato, 531 - Jardim Marco Zero, Macapá - AP","casas","https://www.zapimoveis.com.br/imovel/venda-casa-4-quartos-com-cozinha-jardim-marco-zero-macapa-ap-286m2-id-2618765882/",0.001508051305,-51.073292459781
NA,NA,300,NA,4,NA,NA,NA,2651614325,600,NA,NA,NA,NA,3,NA,NA,NA,2,960000,NA,"Avenida Seis de Setembro, 320 - Santa Inês, Macapá - AP","casas","https://www.zapimoveis.com.br/imovel/venda-casa-3-quartos-mobiliado-santa-ines-macapa-ap-300m2-id-2651614325/",0.02253946913,-51.056046232331
0,NA,480,1,2,NA,0,0,2646550108,NA,0,0,0,0,4,0,0,0,2,6e+05,0,"Avenida Raimundo Álvares da Costa, 1882 - Central, Macapá - AP","casas","https://www.zapimoveis.com.br/imovel/venda-casa-4-quartos-com-cozinha-central-macapa-ap-480m2-id-2646550108/",0.043119988424,-51.066660020066
0,NA,360,1,2,NA,0,0,2618767320,NA,0,0,0,0,4,0,0,0,3,1800000,1,"Avenida Francisco Soares, 238 - Jardim Marco Zero, Macapá - AP","casas","https://www.zapimoveis.com.br/imovel/venda-casa-4-quartos-com-cozinha-jardim-marco-zero-macapa-ap-360m2-id-2618767320/",0.002882215651,-51.08141365421
NA,1,600,NA,1,NA,NA,NA,2586012838,NA,NA,NA,NA,NA,3,NA,NA,NA,NA,1200000,NA,"Rua Guanabara, 312 - Pacoval, Macapá - AP","casas","https://www.zapimoveis.com.br/imovel/venda-casa-3-quartos-com-andar-inteiro-pacoval-macapa-ap-600m2-id-2586012838/",0.055119982015,-51.054120022363
0,NA,162,1,3,NA,0,1,2617738742,NA,0,1,1,0,3,0,0,0,2,8e+05,0,"Avenida Itália, 35 - São José, Macapá - AP","casas_de_condominio","https://www.zapimoveis.com.br/imovel/venda-casa-de-condominio-3-quartos-com-churrasqueira-sao-jose-macapa-ap-162m2-id-2617738742/",0.023754454272,-51.148959764544
1,NA,166,0,2,154,0,1,2605630502,NA,1,1,1,1,3,1,0,0,2,670000,0,"Rodovia de Duca Serra - Marabaixo, Macapá - AP","casas_de_condominio","https://www.zapimoveis.com.br/imovel/venda-casa-de-condominio-3-quartos-com-piscina-marabaixo-macapa-ap-166m2-id-2605630502/",0.031101000355,-51.104193316548
0,NA,115,1,1,NA,0,0,2618761546,NA,0,0,0,0,2,0,0,0,2,4e+05,0,"Avenida Paris, s/n - Brasil Novo, Macapá - AP","casas","https://www.zapimoveis.com.br/imovel/venda-casa-2-quartos-com-cozinha-brasil-novo-macapa-ap-115m2-id-2618761546/",0.085245840971,-51.104647321843
NA,1,200,NA,2,2,NA,NA,2640870879,NA,NA,NA,NA,NA,3,NA,NA,NA,4,1200000,NA,"Avenida Euclides da Cunha, 36 - Central, Macapá - AP","casas","https://www.zapimoveis.com.br/imovel/venda-casa-3-quartos-central-macapa-ap-200m2-id-2640870879/",0.04058999477,-51.066409987894
0,NA,219,1,1,NA,0,0,2630521374,NA,1,0,0,0,1,0,0,0,1,320000,0,"Avenida Lacônia, 240 - Renascer, Macapá - AP","casas","https://www.zapimoveis.com.br/imovel/venda-casa-1-quarto-com-piscina-renascer-macapa-ap-219m2-id-2630521374/",0.078241918497,-51.053126510585
0,NA,11,1,1,NA,0,0,2654109912,NA,0,0,0,0,1,0,0,0,1,250000,0,"Avenida Petrópolis, 567 - Brasil Novo, Macapá - AP","casas","https://www.zapimoveis.com.br/imovel/venda-casa-1-quarto-com-cozinha-brasil-novo-macapa-ap-11m2-id-2654109912/",0.086699623919,-51.102973704897
0,NA,306,1,2,NA,0,0,2618766614,NA,0,0,0,0,2,0,0,0,2,320000,0,"Avenida Ana Maria Gomes da Costa, 1918 - Novo Horizonte, Macapá - AP","casas","https://www.zapimoveis.com.br/imovel/venda-casa-2-quartos-com-cozinha-novo-horizonte-macapa-ap-306m2-id-2618766614/",0.094439992725,-51.045739963206
0,NA,145,1,2,250,0,1,2608640084,NA,0,1,1,0,3,0,0,0,2,550000,0,"Avenida Portugal, 655 - Marabaixo, Macapá - AP","casas_de_condominio","https://www.zapimoveis.com.br/imovel/venda-casa-de-condominio-3-quartos-com-churrasqueira-marabaixo-macapa-ap-145m2-id-2608640084/",0.023677024357,-51.149538731657
0,NA,300,1,2,NA,0,0,2636503011,NA,1,0,0,0,3,0,0,0,6,550000,0,"Travessa Albino Pena Alves, 1026 - Zerão, Macapá - AP","casas","https://www.zapimoveis.com.br/imovel/venda-casa-3-quartos-com-piscina-zerao-macapa-ap-300m2-id-2636503011/",0.002790000291,-51.100689960225
0,NA,115,0,3,NA,0,1,2620617914,NA,1,1,1,1,1,1,0,0,2,450000,0,"Avenida Décima Oitava, 2070 - Marabaixo, Macapá - AP","casas_de_condominio","https://www.zapimoveis.com.br/imovel/venda-casa-de-condominio-1-quarto-com-piscina-marabaixo-macapa-ap-115m2-id-2620617914/",0.046326875692,-51.128214121433
NA,NA,300,NA,1,NA,NA,NA,2653145256,NA,NA,NA,NA,NA,1,NA,NA,NA,1,180000,NA,"Rua Mar Adriático, 1304 - Renascer, Macapá - AP","casas","https://www.zapimoveis.com.br/imovel/venda-casa-1-quarto-com-cozinha-renascer-macapa-ap-300m2-id-2653145256/",0.080651575313,-51.049993049398
NA,NA,200,NA,2,NA,NA,NA,2628153714,NA,NA,NA,NA,NA,2,NA,NA,NA,2,4e+05,NA,"Avenida Professora Cora de Carvalho, 1325 - Central, Macapá - AP","casas","https://www.zapimoveis.com.br/imovel/venda-casa-2-quartos-central-macapa-ap-200m2-id-2628153714/",0.035680001618,-51.060859994525
0,NA,201,1,5,300,0,0,2648605925,NA,0,1,1,1,3,0,0,0,2,1050000,0,"Avenida China, 340 - Cabralzinho, Macapá - AP","casas_de_condominio","https://www.zapimoveis.com.br/imovel/venda-casa-de-condominio-3-quartos-cabralzinho-macapa-ap-201m2-id-2648605925/",0.02931,-51.1139
0,NA,191,1,1,NA,0,0,2618764428,NA,1,0,0,0,1,0,0,0,NA,950000,0,"Rodovia Juscelino Kubitschek, 377 - Universidade, Macapá - AP","casas_de_condominio","https://www.zapimoveis.com.br/imovel/venda-casa-de-condominio-1-quarto-com-piscina-universidade-macapa-ap-191m2-id-2618764428/",0.006071519668,-51.068134281371
1,NA,200,1,4,200,0,1,2650708346,600,1,1,1,1,3,1,0,0,2,870000,0,"Rodovia de Duca Serra, 10 - Marabaixo, Macapá - AP","casas_de_condominio","https://www.zapimoveis.com.br/imovel/venda-casa-de-condominio-3-quartos-com-piscina-marabaixo-macapa-ap-200m2-id-2650708346/",0.031973193919,-51.102155194774
NA,NA,360,NA,3,NA,NA,NA,2544116327,NA,NA,NA,NA,NA,4,NA,NA,NA,2,1e+06,NA,"Ramal dos Promotores - Universidade, Macapá - AP","casas_de_condominio","https://www.zapimoveis.com.br/imovel/venda-casa-de-condominio-4-quartos-universidade-macapa-ap-360m2-id-2544116327/",-0.02007052536,-51.077993125444
0,NA,320,1,4,NA,0,0,2650955056,NA,0,0,1,0,4,0,0,0,2,850000,0,"Alameda B, 12 - Cabralzinho, Macapá - AP","casas_de_condominio","https://www.zapimoveis.com.br/imovel/venda-casa-de-condominio-4-quartos-cabralzinho-macapa-ap-320m2-id-2650955056/",0.02931,-51.1139
0,2,190,0,4,300,0,0,2594599081,NA,0,1,1,1,4,1,0,0,NA,650000,0,"Rodovia Juscelino Kubitschek, 11 - Universidade, Macapá - AP","casas_de_condominio","https://www.zapimoveis.com.br/imovel/venda-casa-de-condominio-4-quartos-mobiliado-universidade-macapa-ap-190m2-id-2594599081/",-0.017856109787,-51.081620783047
1,NA,320,1,4,200,0,1,2650709799,600,1,1,1,1,3,1,0,0,2,1500000,1,"Rodovia de Duca Serra, 10 - Marabaixo, Macapá - AP","casas_de_condominio","https://www.zapimoveis.com.br/imovel/venda-casa-de-condominio-3-quartos-com-piscina-marabaixo-macapa-ap-320m2-id-2650709799/",0.031973193919,-51.102155194774
0,NA,170,1,4,NA,0,0,2631182188,NA,0,0,0,0,3,0,0,0,2,880000,0,"Rodovia de Duca Serra, 2821 - Marabaixo, Macapá - AP","casas_de_condominio","https://www.zapimoveis.com.br/imovel/venda-casa-de-condominio-3-quartos-com-cozinha-marabaixo-macapa-ap-170m2-id-2631182188/",0.031101000355,-51.104193316548
1,1,470,0,5,NA,0,1,2562404125,NA,1,0,1,0,4,0,0,0,3,1600000,0,"Rodovia de Duca Serra, 13 - Marabaixo, Macapá - AP","casas_de_condominio","https://www.zapimoveis.com.br/imovel/venda-casa-de-condominio-4-quartos-mobiliado-marabaixo-macapa-ap-470m2-id-2562404125/",0.031101000355,-51.104193316548
0,NA,180,0,1,250,0,0,2647734781,NA,0,0,1,1,2,0,0,0,1,650000,1,"Rua Redenção, 971 - Jardim Marco Zero, Macapá - AP","casas_de_condominio","https://www.zapimoveis.com.br/imovel/venda-casa-de-condominio-2-quartos-com-jardim-jardim-marco-zero-macapa-ap-180m2-id-2647734781/",-0.016079989735,-51.076954966912
0,NA,221,1,1,NA,0,0,2619865632,NA,0,0,0,0,2,0,0,0,2,830000,0,"Rua Alemanha, s/n - Cabralzinho, Macapá - AP","casas_de_condominio","https://www.zapimoveis.com.br/imovel/venda-casa-de-condominio-2-quartos-com-cozinha-cabralzinho-macapa-ap-221m2-id-2619865632/",0.02931,-51.1139
0,NA,225,1,5,NA,0,0,2637606759,NA,1,0,0,0,4,0,0,0,2,1400000,0,"Alameda Esperanca - Universidade, Macapá - AP","casas_de_condominio","https://www.zapimoveis.com.br/imovel/venda-casa-de-condominio-4-quartos-com-piscina-universidade-macapa-ap-225m2-id-2637606759/",-0.0135,-51.09718
0,NA,150,0,2,NA,0,0,2556664926,NA,1,0,0,0,3,1,0,0,NA,650000,0,"Marabaixo, Macapá - AP","casas_de_condominio","https://www.zapimoveis.com.br/imovel/venda-casa-de-condominio-3-quartos-com-piscina-marabaixo-macapa-ap-150m2-id-2556664926/",0.086689329109,-51.054244863087
0,1,150,0,4,NA,0,0,2569579756,NA,1,1,1,1,3,0,0,0,2,490000,0,"Rodovia de Duca Serra, 10 - Cabralzinho, Macapá - AP","casas_de_condominio","https://www.zapimoveis.com.br/imovel/venda-casa-de-condominio-3-quartos-com-piscina-cabralzinho-macapa-ap-150m2-id-2569579756/",0.031101000355,-51.104193316548
0,NA,140,1,2,270,0,0,2648799087,600,1,1,1,1,3,1,0,0,1,480000,0,"Avenida Ásia, 21 - Renascer, Macapá - AP","casas_de_condominio","https://www.zapimoveis.com.br/imovel/venda-casa-de-condominio-3-quartos-com-piscina-renascer-macapa-ap-140m2-id-2648799087/",0.004137544502,-51.063061887641
0,NA,175,1,3,NA,0,0,2618767007,NA,1,0,0,0,3,0,0,0,2,750000,0,"Avenida França, 396 - São José, Macapá - AP","casas_de_condominio","https://www.zapimoveis.com.br/imovel/venda-casa-de-condominio-3-quartos-com-piscina-sao-jose-macapa-ap-175m2-id-2618767007/",0.023278160126,-51.150022688116
NA,NA,215,NA,3,NA,NA,NA,2556524735,NA,NA,NA,NA,NA,3,NA,NA,NA,2,890000,NA,"Infraero, Macapá - AP","casas_de_condominio","https://www.zapimoveis.com.br/imovel/venda-casa-de-condominio-3-quartos-infraero-macapa-ap-215m2-id-2556524735/",0.07112,-51.06604
1,NA,135,0,3,NA,0,1,2615744902,NA,1,1,1,1,3,1,0,0,3,650000,0,"Rodovia de Duca Serra, 25 - São José, Macapá - AP","casas_de_condominio","https://www.zapimoveis.com.br/imovel/venda-casa-de-condominio-3-quartos-com-piscina-sao-jose-macapa-ap-135m2-id-2615744902/",0.031101000355,-51.104193316548
NA,NA,450,NA,6,300,NA,NA,2653464897,2071,NA,NA,NA,NA,5,NA,NA,NA,8,1500000,NA,"Avenida Sexta, 121 - Cabralzinho, Macapá - AP","casas_de_condominio","https://www.zapimoveis.com.br/imovel/venda-casa-de-condominio-5-quartos-cabralzinho-macapa-ap-450m2-id-2653464897/",0.003750091674,-51.061160849213
0,NA,93,0,2,180,0,0,2577188251,NA,0,1,1,1,3,0,0,0,2,340000,0,"Avenida Jardin, 1 - Marabaixo, Macapá - AP","casas_de_condominio","https://www.zapimoveis.com.br/imovel/venda-casa-de-condominio-3-quartos-com-churrasqueira-marabaixo-macapa-ap-93m2-id-2577188251/",0.007768318098,-51.061644607804
0,NA,11,1,1,NA,0,0,2618767011,NA,0,0,0,0,2,0,0,0,1,298000,0,"Rodovia Juscelino Kubitschek, 3200 - Universidade, Macapá - AP","apartamentos","https://www.zapimoveis.com.br/imovel/venda-apartamento-2-quartos-com-cozinha-universidade-macapa-ap-11m2-id-2618767011/",-0.017856109787,-51.081620783047
0,NA,180,1,4,NA,0,0,2637471468,NA,0,0,0,0,3,0,0,0,2,1e+06,1,"Rua São José, 1524 - Central, Macapá - AP","apartamentos","https://www.zapimoveis.com.br/imovel/venda-apartamento-3-quartos-com-cozinha-central-macapa-ap-180m2-id-2637471468/",0.039659980703,-51.051709973743
1,2,100,1,3,838,1,1,2620907528,800,1,1,1,0,3,1,1,0,NA,520000,1,"Avenida Caramuru, 1015 - Buritizal, Macapá - AP","apartamentos","https://www.zapimoveis.com.br/imovel/venda-apartamento-3-quartos-com-piscina-buritizal-macapa-ap-100m2-id-2620907528/",0.020413981593,-51.06883209863
0,NA,100,1,4,NA,0,0,2631184659,NA,0,0,0,0,4,0,0,0,2,1e+06,1,"Avenida Mendonça Furtado, 1910 - Santa Rita, Macapá - AP","apartamentos","https://www.zapimoveis.com.br/imovel/venda-apartamento-4-quartos-com-cozinha-santa-rita-macapa-ap-100m2-id-2631184659/",0.03832215847,-51.073911208689
0,NA,221,1,3,NA,0,0,2637606102,NA,0,0,0,0,3,0,0,0,2,1450000,1,"Avenida Presidente Getúlio Vargas, 479 - Central, Macapá - AP","apartamentos","https://www.zapimoveis.com.br/imovel/venda-apartamento-3-quartos-com-cozinha-central-macapa-ap-221m2-id-2637606102/",0.037700036048,-51.053166634812
0,NA,50,1,1,NA,0,0,2648215281,NA,0,0,0,0,1,0,0,0,1,240000,0,"Avenida Jose Tupinamba de Almeida, 739 - Jesus de Nazare, Macapá - AP","apartamentos","https://www.zapimoveis.com.br/imovel/venda-apartamento-1-quarto-com-cozinha-jesus-de-nazare-macapa-ap-50m2-id-2648215281/",0.047000511009,-51.061521409745
0,NA,65,1,1,316,0,0,2636503012,NA,0,0,0,0,1,0,0,0,1,530000,0,"Avenida Doutor Acelino de Leão, 2007 - Trem, Macapá - AP","apartamentos","https://www.zapimoveis.com.br/imovel/venda-apartamento-1-quarto-com-cozinha-trem-macapa-ap-65m2-id-2636503012/",0.025831700551,-51.057202511837
NA,NA,140,NA,5,NA,NA,NA,2628659271,600,NA,NA,NA,NA,4,NA,NA,NA,NA,2e+05,NA,"Rua Roma, 220 - Renascer, Macapá - AP","casas","https://www.zapimoveis.com.br/imovel/venda-casa-4-quartos-renascer-macapa-ap-140m2-id-2628659271/",0.071560494244,-51.049896670201
NA,2,280,NA,5,NA,NA,NA,2631432085,NA,NA,NA,NA,NA,3,NA,NA,NA,2,650000,NA,"Avenida Professora Cora de Carvalho, 1900 - Central, Macapá - AP","casas_comerciais","https://www.zapimoveis.com.br/imovel/venda-casa-3-quartos-central-macapa-ap-280m2-id-2631432085/",0.036182812975,-51.065743968703
NA,NA,300,NA,NA,NA,NA,NA,2576587033,100,NA,NA,NA,NA,NA,NA,NA,NA,NA,40000,NA,"Avenida Seringal, 462 - Brasil Novo, Macapá - AP","terrenos_lotes_e_condominios","https://www.zapimoveis.com.br/imovel/venda-terreno-lote-condominio-brasil-novo-macapa-ap-300m2-id-2576587033/",0.092150014868,-51.08731998647
NA,NA,720,NA,NA,NA,NA,NA,2564691876,150,NA,NA,NA,NA,NA,NA,NA,NA,NA,2e+05,NA,"Travessa Benjamim Constant., 1 - Universidade, Macapá - AP","terrenos_lotes_e_condominios","https://www.zapimoveis.com.br/imovel/venda-terreno-lote-condominio-universidade-macapa-ap-720m2-id-2564691876/",-0.011841524838,-51.094083440425
NA,NA,1500,NA,NA,NA,NA,NA,2618766621,NA,NA,NA,NA,NA,NA,NA,NA,NA,NA,2e+05,NA,"Ramal da Cascalheira, 700 - Muruci Fazendinha, Macapá - AP","terrenos_lotes_e_condominios","https://www.zapimoveis.com.br/imovel/venda-terreno-lote-condominio-muruci-fazendinha-macapa-ap-1500m2-id-2618766621/",-0.043546555419,-51.099986577631
NA,NA,250,NA,NA,NA,NA,NA,2632196616,NA,NA,NA,NA,NA,NA,NA,NA,NA,NA,120000,NA,"Rua das Pupunhas, S/N - Infraero, Macapá - AP","terrenos_lotes_e_condominios","https://www.zapimoveis.com.br/imovel/venda-terreno-lote-condominio-infraero-macapa-ap-250m2-id-2632196616/",0.081412823909,-51.078351710012
0,NA,200,0,NA,NA,0,1,2652560431,NA,1,1,1,1,NA,0,0,0,NA,140000,0,"Avenida da Fazendinha, SN - Fazendinha, Macapá - AP","terrenos_lotes_e_condominios","https://www.zapimoveis.com.br/imovel/venda-terreno-lote-condominio-com-piscina-fazendinha-macapa-ap-200m2-id-2652560431/",-0.04629,-51.11138
1,NA,200,0,NA,NA,0,1,2615407004,NA,1,1,1,0,NA,0,0,0,NA,145000,0,"Rodovia Juscelino Kubitschek, 3200 - Universidade, Macapá - AP","terrenos_lotes_e_condominios","https://www.zapimoveis.com.br/imovel/venda-terreno-lote-condominio-com-piscina-universidade-macapa-ap-200m2-id-2615407004/",-0.017856109787,-51.081620783047
1,NA,250,0,NA,NA,0,1,2615411120,NA,1,1,1,1,NA,1,0,0,NA,190000,0,"Rodovia Juscelino Kubitschek, 3200 - Universidade, Macapá - AP","terrenos_lotes_e_condominios","https://www.zapimoveis.com.br/imovel/venda-terreno-lote-condominio-com-piscina-universidade-macapa-ap-250m2-id-2615411120/",-0.017856109787,-51.081620783047
NA,NA,40000,NA,NA,NA,NA,NA,2557612234,NA,NA,NA,NA,NA,NA,NA,NA,NA,NA,7e+05,NA,"Avenida Francisco Felipe de Miranda, 100 - Infraero, Macapá - AP","terrenos_lotes_e_condominios","https://www.zapimoveis.com.br/imovel/venda-terreno-lote-condominio-infraero-macapa-ap-40000m2-id-2557612234/",0.07112,-51.06604
NA,NA,319,NA,NA,NA,NA,NA,2653759570,NA,NA,NA,NA,NA,NA,NA,NA,NA,NA,91000,NA,"Avenida Tenente Amaral, 2020 - Zerão, Macapá - AP","terrenos_lotes_e_condominios","https://www.zapimoveis.com.br/imovel/venda-terreno-lote-condominio-zerao-macapa-ap-319m2-id-2653759570/",-0.001471321816,-51.093750486708
1,NA,NA,0,NA,NA,0,1,2641036076,NA,1,1,1,0,NA,1,0,0,NA,190000,0,"Rua Manoel Francisco de Souza, SN - Renascer, Macapá - AP","terrenos_lotes_e_condominios","https://www.zapimoveis.com.br/imovel/venda-terreno-lote-condominio-com-piscina-renascer-macapa-ap-id-2641036076/",0.009361633557,-51.066976233656
NA,NA,450,NA,NA,NA,NA,NA,2618764425,NA,NA,NA,NA,NA,NA,NA,NA,NA,NA,3e+05,NA,"Avenida Creuza Maria Mendes Holanda, 730 - Muca, Macapá - AP","terrenos_lotes_e_condominios","https://www.zapimoveis.com.br/imovel/venda-terreno-lote-condominio-muca-macapa-ap-450m2-id-2618764425/",0.03408,-51.06649
0,NA,150,0,NA,NA,0,0,2588420640,NA,0,0,1,0,NA,0,0,0,NA,150000,0,"Marabaixo, Macapá - AP","terrenos_lotes_e_condominios","https://www.zapimoveis.com.br/imovel/venda-terreno-lote-condominio-marabaixo-macapa-ap-150m2-id-2588420640/",0.086689329109,-51.054244863087
1,NA,300,0,NA,NA,0,1,2617745688,NA,1,1,1,1,NA,1,0,1,NA,273236,0,"Rua Sem Denominação Treze, 1 - Lagoa Azul, Macapá - AP","terrenos_lotes_e_condominios","https://www.zapimoveis.com.br/imovel/venda-terreno-lote-condominio-com-piscina-lagoa-azul-macapa-ap-300m2-id-2617745688/",0.087596739484,-51.116604982185
0,NA,1200,0,NA,NA,0,0,2556636772,NA,1,0,0,0,NA,0,0,0,NA,350000,0,"Avenida Benedito Costa - Marabaixo, Macapá - AP","terrenos_lotes_e_condominios","https://www.zapimoveis.com.br/imovel/venda-terreno-lote-condominio-com-piscina-marabaixo-macapa-ap-1200m2-id-2556636772/",0.03408,-51.06649
NA,NA,NA,NA,NA,NA,NA,NA,2558756900,NA,NA,NA,NA,NA,NA,NA,NA,NA,NA,9e+05,NA,"Avenida Professora Cora de Carvalho, 100 - Santa Rita, Macapá - AP","terrenos_lotes_e_condominios","https://www.zapimoveis.com.br/imovel/venda-terreno-lote-condominio-santa-rita-macapa-ap-id-2558756900/",0.036081469151,-51.064345372961
NA,NA,NA,NA,NA,NA,NA,NA,2618765879,NA,NA,NA,NA,NA,NA,NA,NA,NA,NA,6e+05,NA,"Avenida Carlos Gomes, s/n - Santa Rita, Macapá - AP","terrenos_lotes_e_condominios","https://www.zapimoveis.com.br/imovel/venda-terreno-lote-condominio-santa-rita-macapa-ap-id-2618765879/",0.044436045921,-51.0763608089
NA,NA,2,NA,NA,NA,NA,NA,2642029448,NA,NA,NA,NA,NA,NA,NA,NA,NA,NA,7e+05,NA,"Sao Joaquim do Pacui, Macapá - AP","terrenos_lotes_e_condominios","https://www.zapimoveis.com.br/imovel/venda-terreno-lote-condominio-sao-joaquim-do-pacui-macapa-ap-2m2-id-2642029448/",0.80862,-50.75239
NA,NA,300,NA,NA,NA,NA,NA,2638396462,NA,NA,NA,NA,NA,NA,NA,NA,NA,NA,70000,NA,"Rua Carmelita Lobo Siqueira, 15 - Fazendinha, Macapá - AP","terrenos_lotes_e_condominios","https://www.zapimoveis.com.br/imovel/venda-terreno-lote-condominio-fazendinha-macapa-ap-300m2-id-2638396462/",-0.04629,-51.11138
NA,NA,260,NA,NA,NA,NA,NA,2646550107,NA,NA,NA,NA,NA,NA,NA,NA,NA,NA,350000,NA,"Avenida Seis de Setembro, 160 - Santa Inês, Macapá - AP","terrenos_lotes_e_condominios","https://www.zapimoveis.com.br/imovel/venda-terreno-lote-condominio-santa-ines-macapa-ap-260m2-id-2646550107/",0.022716381485,-51.057676491115
NA,NA,1200,NA,NA,NA,NA,NA,2618765881,NA,NA,NA,NA,NA,NA,NA,NA,NA,NA,1100000,NA,"Avenida General Osório, 1184 - Juliao Ramos, Macapá - AP","terrenos_lotes_e_condominios","https://www.zapimoveis.com.br/imovel/venda-terreno-lote-condominio-juliao-ramos-macapa-ap-1200m2-id-2618765881/",0.048419991531,-51.060599987889
NA,NA,1300,NA,NA,NA,NA,NA,2618767325,NA,NA,NA,NA,NA,NA,NA,NA,NA,NA,350000,NA,"Avenida Reserva 2 - Cabralzinho, Macapá - AP","terrenos_lotes_e_condominios","https://www.zapimoveis.com.br/imovel/venda-terreno-lote-condominio-cabralzinho-macapa-ap-1300m2-id-2618767325/",0.02931,-51.1139
NA,NA,35,NA,NA,NA,NA,NA,2649413564,NA,NA,NA,NA,NA,NA,NA,NA,NA,NA,80000,NA,"Rua Bacaba, 17 - Cabralzinho, Macapá - AP","terrenos_lotes_e_condominios","https://www.zapimoveis.com.br/imovel/venda-terreno-lote-condominio-cabralzinho-macapa-ap-35m2-id-2649413564/",0.02931,-51.1139
NA,NA,1397,NA,NA,NA,NA,NA,2649413567,NA,NA,NA,NA,NA,NA,NA,NA,NA,NA,2400000,NA,"Rua Leopoldo Machado, 275 - Jesus de Nazare, Macapá - AP","terrenos_lotes_e_condominios","https://www.zapimoveis.com.br/imovel/venda-terreno-lote-condominio-jesus-de-nazare-macapa-ap-1397m2-id-2649413567/",0.053700003798,-51.060995026986
NA,NA,2057959,NA,NA,NA,NA,NA,2618767334,NA,NA,NA,NA,NA,NA,NA,NA,NA,NA,1500000,NA,"Avenida Carlos Gomes, 02 - Santa Rita, Macapá - AP","terrenos_lotes_e_condominios","https://www.zapimoveis.com.br/imovel/venda-terreno-lote-condominio-santa-rita-macapa-ap-2057959m2-id-2618767334/",0.044438302588,-51.077107486093
NA,NA,560,NA,NA,NA,NA,NA,2646557008,NA,NA,NA,NA,NA,NA,NA,NA,NA,NA,4e+05,NA,"Rua Terceira do Seringal, 548 - Jardim Marco Zero, Macapá - AP","terrenos_lotes_e_condominios","https://www.zapimoveis.com.br/imovel/venda-terreno-lote-condominio-jardim-marco-zero-macapa-ap-560m2-id-2646557008/",-0.001330227813,-51.078110425345
NA,NA,360,NA,NA,NA,NA,NA,2618761543,NA,NA,NA,NA,NA,NA,NA,NA,NA,NA,260000,NA,"Rua Doutor Walter da Silva Pacheco, S/n - Jardim Marco Zero, Macapá - AP","terrenos_lotes_e_condominios","https://www.zapimoveis.com.br/imovel/venda-terreno-lote-condominio-jardim-marco-zero-macapa-ap-360m2-id-2618761543/",0.001344909925,-51.074603543952
NA,NA,340,NA,NA,NA,NA,NA,2638085876,NA,NA,NA,NA,NA,NA,NA,NA,NA,NA,270000,NA,"Avenida Almirante Barroso, 2519 - Santa Rita, Macapá - AP","terrenos_lotes_e_condominios","https://www.zapimoveis.com.br/imovel/venda-terreno-lote-condominio-santa-rita-macapa-ap-340m2-id-2638085876/",0.03786998337,-51.079769987184
NA,1,100,NA,NA,NA,NA,NA,2591337001,NA,NA,NA,NA,NA,NA,NA,NA,NA,NA,95000,NA,"Alameda Décima Nona, 142 - Boné Azul, Macapá - AP","terrenos_lotes_e_condominios","https://www.zapimoveis.com.br/imovel/venda-terreno-lote-condominio-com-campo-de-futebol-bone-azul-macapa-ap-100m2-id-2591337001/",0.085538031415,-51.072037131675
NA,NA,250,NA,NA,NA,NA,NA,2651908163,NA,NA,NA,NA,NA,NA,NA,NA,NA,NA,180000,NA,"Rua Eloy Monteiro Nunes, 190 - Novo Buritizal, Macapá - AP","terrenos_lotes_e_condominios","https://www.zapimoveis.com.br/imovel/venda-terreno-lote-condominio-novo-buritizal-macapa-ap-250m2-id-2651908163/",0.024619996559,-51.087559960358
NA,NA,600,NA,NA,NA,NA,NA,2620381502,NA,NA,NA,NA,NA,NA,NA,NA,NA,NA,1e+06,NA,"Avenida Anhangüera, 137 e 138 - Beirol, Macapá - AP","terrenos_lotes_e_condominios","https://www.zapimoveis.com.br/imovel/venda-terreno-lote-condominio-beirol-macapa-ap-600m2-id-2620381502/",0.020444047906,-51.05917169652
NA,NA,5200,NA,1,NA,NA,NA,2581455444,NA,NA,NA,NA,NA,1,NA,NA,NA,4,1500000,NA,"Avenida Antônio Coelho de Carvalho - Central, Macapá - AP","terrenos_lotes_e_condominios","https://www.zapimoveis.com.br/imovel/venda-terreno-lote-condominio-1-quarto-central-macapa-ap-5200m2-id-2581455444/",0.032497097286,-51.066594836655
NA,NA,464,NA,NA,NA,NA,NA,2596650773,NA,NA,NA,NA,NA,NA,NA,NA,NA,NA,1200000,NA,"Avenida Presidente Getúlio Vargas, 2701 - Santa Rita, Macapá - AP","terrenos_lotes_e_condominios","https://www.zapimoveis.com.br/imovel/venda-terreno-lote-condominio-santa-rita-macapa-ap-464m2-id-2596650773/",0.039099985752,-51.073950012715
1,NA,880,0,NA,NA,0,1,2644747653,NA,1,1,1,1,NA,1,0,0,NA,250000,0,"Rodovia de Duca Serra, 9 - Marabaixo, Macapá - AP","terrenos_lotes_e_condominios","https://www.zapimoveis.com.br/imovel/venda-terreno-lote-condominio-com-piscina-marabaixo-macapa-ap-880m2-id-2644747653/",0.031101000355,-51.104193316548
NA,NA,1995,NA,NA,NA,NA,NA,2637471466,NA,NA,NA,NA,NA,NA,NA,NA,NA,NA,3e+05,NA,"Rodovia AP-20, s/n - Marabaixo, Macapá - AP","terrenos_lotes_e_condominios","https://www.zapimoveis.com.br/imovel/venda-terreno-lote-condominio-marabaixo-macapa-ap-1995m2-id-2637471466/",0.102813750659,-51.129239830076
NA,NA,918,NA,NA,NA,NA,NA,2645557771,NA,NA,NA,NA,NA,NA,NA,NA,NA,NA,55000,NA,"Ramal do Mini Polo, 1 - Fazendinha, Macapá - AP","terrenos_lotes_e_condominios","https://www.zapimoveis.com.br/imovel/venda-terreno-lote-condominio-fazendinha-macapa-ap-918m2-id-2645557771/",-0.05229410285,-51.112260004092
NA,NA,510,NA,NA,NA,NA,NA,2618766617,NA,NA,NA,NA,NA,NA,NA,NA,NA,NA,250000,NA,"Rua Goiás, 80 - Pacoval, Macapá - AP","terrenos_lotes_e_condominios","https://www.zapimoveis.com.br/imovel/venda-terreno-lote-condominio-pacoval-macapa-ap-510m2-id-2618766617/",0.05274883664,-51.057448791331
NA,NA,250,NA,NA,NA,NA,NA,2591849009,NA,NA,NA,NA,NA,NA,NA,NA,NA,NA,60000,NA,"Lagoa Azul, Macapá - AP","terrenos_lotes_e_condominios","https://www.zapimoveis.com.br/imovel/venda-terreno-lote-condominio-lagoa-azul-macapa-ap-250m2-id-2591849009/",-29.667119993673,-51.195515017582
NA,NA,528,NA,NA,NA,NA,NA,2618767331,NA,NA,NA,NA,NA,NA,NA,NA,NA,NA,606000,NA,"Rodovia BR-210, SN - Lagoa Azul, Macapá - AP","terrenos_lotes_e_condominios","https://www.zapimoveis.com.br/imovel/venda-terreno-lote-condominio-lagoa-azul-macapa-ap-528m2-id-2618767331/",0.07749000335,-51.061030021431
1,NA,300,0,NA,NA,0,1,2635520989,NA,1,1,1,1,NA,1,1,1,NA,270000,0,"Rodovia BR-210, 8 - Lagoa Azul, Macapá - AP","terrenos_lotes_e_condominios","https://www.zapimoveis.com.br/imovel/venda-terreno-lote-condominio-com-piscina-lagoa-azul-macapa-ap-300m2-id-2635520989/",0.061798010198,-51.056886275122
NA,NA,949,NA,NA,NA,NA,NA,2631478436,NA,NA,NA,NA,NA,NA,NA,NA,NA,NA,270000,NA,"Rodovia de Duca Serra, 1000 - Marabaixo, Macapá - AP","terrenos_lotes_e_condominios","https://www.zapimoveis.com.br/imovel/venda-terreno-lote-condominio-marabaixo-macapa-ap-949m2-id-2631478436/",0.033351091812,-51.09864160704
NA,NA,250,NA,1,NA,NA,NA,2653739887,NA,NA,NA,NA,NA,1,NA,NA,NA,1,130000,NA,"Avenida Uruguai, sn - São José, Macapá - AP","terrenos_lotes_e_condominios","https://www.zapimoveis.com.br/imovel/venda-terreno-lote-condominio-1-quarto-sao-jose-macapa-ap-250m2-id-2653739887/",0.026051748681,-51.148847642959
