"academia","andar","area","area_servico","banheiro","condominio","elevador","espaco_gourmet","id","iptu","piscina","playground","portaria_24_horas","quadra_de_esporte","quarto","salao_de_festa","sauna","spa","vaga","valor","varanda_gourmet","endereco","tipo","url","latitude","longitude"
0,4,45,0,1,NA,0,1,2613799141,NA,1,1,1,1,2,1,0,0,1,140000,0,"Rua Miguel de Cervante, 117 - Aeroclub, Porto Velho - RO","apartamentos","https://www.zapimoveis.com.br/imovel/venda-apartamento-2-quartos-com-piscina-aeroclub-porto-velho-ro-45m2-id-2613799141/",-8.802058766097,-63.850264854619
1,9,75,0,1,1,0,0,2600500308,1,1,1,1,1,2,1,0,0,1,140000,0,"Rua Miguel de Cervante, 407 - Aeroclub, Porto Velho - RO","apartamentos","https://www.zapimoveis.com.br/imovel/venda-apartamento-2-quartos-com-piscina-aeroclub-porto-velho-ro-75m2-id-2600500308/",-8.800902505885,-63.84963799747
0,NA,48,1,1,210,0,0,2605185878,NA,1,1,0,1,3,0,0,0,1,240000,1,"Planalto, Porto Velho - RO","apartamentos","https://www.zapimoveis.com.br/imovel/venda-apartamento-3-quartos-com-piscina-planalto-porto-velho-ro-48m2-id-2605185878/",-8.74058,-63.84822
1,NA,67,0,2,NA,0,1,2575869950,NA,1,1,1,0,3,1,0,0,2,320000,0,"Rua Ernandes Indio, 6521 - Planalto, Porto Velho - RO","casas","https://www.zapimoveis.com.br/imovel/venda-casa-3-quartos-com-piscina-planalto-porto-velho-ro-67m2-id-2575869950/",-8.735914268318,-63.837604494163
NA,NA,68,NA,2,NA,NA,NA,2647388503,NA,NA,NA,NA,NA,2,NA,NA,NA,1,355000,NA,"Rua Maria Naymaier - Flodoaldo Pontes Pinto, Porto Velho - RO","casas","https://www.zapimoveis.com.br/imovel/venda-casa-2-quartos-flodoaldo-pontes-pinto-porto-velho-ro-68m2-id-2647388503/",-8.749398304415,-63.870681547897
0,NA,78,0,2,300,0,1,2654583069,NA,0,1,0,0,3,0,0,0,2,407000,1,"Novo Horizonte, Porto Velho - RO","casas","https://www.zapimoveis.com.br/imovel/venda-casa-3-quartos-com-churrasqueira-novo-horizonte-porto-velho-ro-78m2-id-2654583069/",-8.80156,-63.8946
0,NA,51,1,1,NA,0,0,2625737817,NA,0,0,0,0,2,0,0,0,2,160000,0,"Rua Alto do Bronze, 25 - Socialista, Porto Velho - RO","casas","https://www.zapimoveis.com.br/imovel/venda-casa-2-quartos-com-quintal-socialista-porto-velho-ro-51m2-id-2625737817/",-8.759811029365,-63.825830965671
NA,NA,100,NA,1,NA,NA,NA,2650033457,NA,NA,NA,NA,NA,2,NA,NA,NA,2,2e+05,NA,"Rua da Emoção, 4644 - Escola De Policia, Porto Velho - RO","casas","https://www.zapimoveis.com.br/imovel/venda-casa-2-quartos-escola-de-policia-porto-velho-ro-100m2-id-2650033457/",-8.753379987904,-63.845109959992
NA,NA,200,NA,3,NA,NA,NA,2644268308,NA,NA,NA,NA,NA,4,NA,NA,NA,2,249990,NA,"Três Marias, Porto Velho - RO","casas","https://www.zapimoveis.com.br/imovel/venda-casa-4-quartos-com-varanda-tres-marias-porto-velho-ro-200m2-id-2644268308/",-8.77958,-63.85694
0,NA,100,1,2,NA,0,0,2605184122,NA,0,0,0,0,3,0,0,0,3,280000,0,"Nova Esperança, Porto Velho - RO","casas","https://www.zapimoveis.com.br/imovel/venda-casa-3-quartos-com-cozinha-nova-esperanca-porto-velho-ro-100m2-id-2605184122/",-8.72702,-63.89266
0,NA,250,1,2,NA,0,0,2645940087,NA,0,0,0,0,4,0,0,0,4,550000,0,"Eldorado, Porto Velho - RO","casas","https://www.zapimoveis.com.br/imovel/venda-casa-4-quartos-com-cozinha-eldorado-porto-velho-ro-250m2-id-2645940087/",-8.78092,-63.86663
0,NA,90,1,2,NA,0,0,2642657776,NA,0,0,0,0,2,0,0,0,1,250000,0,"Aponiã, Porto Velho - RO","casas","https://www.zapimoveis.com.br/imovel/venda-casa-2-quartos-com-cozinha-aponia-porto-velho-ro-90m2-id-2642657776/",-8.74344,-63.86143
NA,NA,100,NA,3,NA,NA,NA,2566744792,NA,NA,NA,NA,NA,2,NA,NA,NA,2,330000,NA,"Avenida Engº Anysio da Rocha Compasso, 4366 - Flodoaldo Pontes Pinto, Porto Velho - RO","casas","https://www.zapimoveis.com.br/imovel/venda-casa-2-quartos-flodoaldo-pontes-pinto-porto-velho-ro-100m2-id-2566744792/",-8.74561,-63.87146
0,NA,72,0,2,NA,0,1,2646834255,NA,1,1,0,1,3,1,0,0,NA,275000,0,"Aeroclub, Porto Velho - RO","casas","https://www.zapimoveis.com.br/imovel/venda-casa-3-quartos-com-piscina-aeroclub-porto-velho-ro-72m2-id-2646834255/",-8.80489,-63.86494
0,NA,240,1,1,NA,0,0,2605185583,NA,0,0,0,0,3,0,0,0,2,250000,1,"Aponiã, Porto Velho - RO","casas","https://www.zapimoveis.com.br/imovel/venda-casa-3-quartos-com-varanda-gourmet-aponia-porto-velho-ro-240m2-id-2605185583/",-8.74344,-63.86143
NA,NA,200,NA,2,NA,NA,NA,2570147838,150,NA,NA,NA,NA,2,NA,NA,NA,1,450000,NA,"Rua Marlos Nobre - Flodoaldo Pontes Pinto, Porto Velho - RO","casas","https://www.zapimoveis.com.br/imovel/venda-casa-2-quartos-com-cozinha-flodoaldo-pontes-pinto-porto-velho-ro-200m2-id-2570147838/",-8.741750107962,-63.867054939729
0,NA,96,1,2,NA,0,0,2599676065,NA,0,0,0,0,2,0,0,0,2,420000,0,"Avenida Engº Anysio da Rocha Compasso, 647 - Aponiã, Porto Velho - RO","casas","https://www.zapimoveis.com.br/imovel/venda-casa-2-quartos-aponia-porto-velho-ro-96m2-id-2599676065/",-8.73416334075,-63.864059002895
NA,NA,90,NA,1,NA,NA,NA,2621767062,NA,NA,NA,NA,NA,1,NA,NA,NA,3,3e+05,NA,"Rua Transamazônica - Cuniã, Porto Velho - RO","casas","https://www.zapimoveis.com.br/imovel/venda-casa-1-quarto-cunia-porto-velho-ro-90m2-id-2621767062/",-8.755476927323,-63.857099557293
0,NA,230,1,2,NA,0,0,2549916418,320,0,0,0,0,4,0,0,0,5,350000,0,"Rua Juventus, 5117 - Nova Floresta, Porto Velho - RO","casas","https://www.zapimoveis.com.br/imovel/venda-casa-4-quartos-com-area-de-servico-nova-floresta-porto-velho-ro-230m2-id-2549916418/",-8.782780016206,-63.876049995365
0,NA,200,1,4,NA,0,0,2653894523,NA,0,0,0,0,3,0,0,0,3,4e+05,0,"Panair, Porto Velho - RO","casas","https://www.zapimoveis.com.br/imovel/venda-casa-3-quartos-com-cozinha-panair-porto-velho-ro-200m2-id-2653894523/",-8.74546,-63.91241
NA,NA,800,NA,2,NA,NA,NA,2605187074,NA,NA,NA,NA,NA,3,NA,NA,NA,2,450000,NA,"Esperança da Comunidade, Porto Velho - RO","casas","https://www.zapimoveis.com.br/imovel/venda-casa-3-quartos-com-churrasqueira-esperanca-da-comunidade-porto-velho-ro-800m2-id-2605187074/",-8.74753,-63.84727
NA,NA,160,NA,3,NA,NA,NA,2571063729,NA,NA,NA,NA,NA,4,NA,NA,NA,3,460000,NA,"Rua Paraguai, 4156 - Embratel, Porto Velho - RO","casas","https://www.zapimoveis.com.br/imovel/venda-casa-4-quartos-embratel-porto-velho-ro-160m2-id-2571063729/",-8.752990019858,-63.877090021911
NA,NA,300,NA,1,NA,NA,NA,2643932957,NA,NA,NA,NA,NA,2,NA,NA,NA,NA,120000,NA,"Rua Inácio Mendes, 8062 - Juscelino Kubitschek, Porto Velho - RO","casas","https://www.zapimoveis.com.br/imovel/venda-casa-2-quartos-juscelino-kubitschek-porto-velho-ro-300m2-id-2643932957/",-8.769559994698,-63.836859987973
0,NA,44,0,1,NA,0,1,2637854708,NA,0,1,1,1,2,0,0,0,2,150000,0,"Rua Jardins, 1918 - Bairro Novo, Porto Velho - RO","casas_de_condominio","https://www.zapimoveis.com.br/imovel/venda-casa-de-condominio-2-quartos-com-churrasqueira-bairro-novo-porto-velho-ro-44m2-id-2637854708/",-8.811402920515,-63.807932522254
0,NA,200,1,2,NA,0,0,2643633500,NA,0,0,0,0,3,0,0,0,1,215000,0,"Triângulo, Porto Velho - RO","casas","https://www.zapimoveis.com.br/imovel/venda-casa-3-quartos-com-cozinha-triangulo-porto-velho-ro-200m2-id-2643633500/",-8.77767,-63.9122
1,NA,180,0,5,NA,0,1,2652798161,NA,1,0,1,1,4,1,0,0,2,5e+05,0,"Avenida Engenheiro Anysio da Rocha Compasso, 2020 - Aponiã, Porto Velho - RO","casas_de_condominio","https://www.zapimoveis.com.br/imovel/venda-casa-de-condominio-4-quartos-com-piscina-aponia-porto-velho-ro-180m2-id-2652798161/",-8.74344,-63.86143
0,NA,280,1,3,NA,0,0,2644005470,NA,1,0,0,0,4,0,0,0,11,195000,0,"KM 1, Porto Velho - RO","casas","https://www.zapimoveis.com.br/imovel/venda-casa-4-quartos-com-piscina-km-1-porto-velho-ro-280m2-id-2644005470/",-8.76336,-63.89646
NA,NA,58,NA,1,NA,NA,NA,2653899358,NA,NA,NA,NA,NA,2,NA,NA,NA,4,155000,NA,"Teixeirao, Porto Velho - RO","casas","https://www.zapimoveis.com.br/imovel/venda-casa-2-quartos-teixeirao-porto-velho-ro-58m2-id-2653899358/",-8.74464,-63.83752
NA,NA,196,NA,2,NA,NA,NA,2558755024,NA,NA,NA,NA,NA,3,NA,NA,NA,2,270000,NA,"Rua Afonso Pena - Centro, Porto Velho - RO","casas","https://www.zapimoveis.com.br/imovel/venda-casa-3-quartos-centro-porto-velho-ro-196m2-id-2558755024/",-8.762114644907,-63.896623953655
NA,NA,185,NA,2,NA,NA,NA,2635583621,NA,NA,NA,NA,NA,3,NA,NA,NA,2,680000,NA,"Rua José Bonifácio - Pedrinhas, Porto Velho - RO","casas","https://www.zapimoveis.com.br/imovel/venda-casa-3-quartos-pedrinhas-porto-velho-ro-185m2-id-2635583621/",-8.746444497598,-63.907866365983
NA,NA,90,NA,2,NA,NA,NA,2562242960,NA,NA,NA,NA,NA,2,NA,NA,NA,4,330000,NA,"Rua Ananias Ferreira de Andrade, 1234 - Tiradentes, Porto Velho - RO","casas","https://www.zapimoveis.com.br/imovel/venda-casa-2-quartos-com-cozinha-grande-tiradentes-porto-velho-ro-90m2-id-2562242960/",-8.760475017484,-63.858295028963
NA,NA,240,NA,3,400,NA,NA,2606877494,NA,NA,NA,NA,NA,3,NA,NA,NA,3,1200000,NA,"Alameda Quero-Quero, 1500 - Aeroclub, Porto Velho - RO","casas","https://www.zapimoveis.com.br/imovel/venda-casa-3-quartos-aeroclub-porto-velho-ro-240m2-id-2606877494/",-8.740520854636,-63.81881616192
NA,NA,220,NA,4,NA,NA,NA,2617266915,NA,NA,NA,NA,NA,4,NA,NA,NA,2,6e+05,NA,"Rua Davi Canabarro, 3069 - Costa E Silva, Porto Velho - RO","casas","https://www.zapimoveis.com.br/imovel/venda-casa-4-quartos-costa-e-silva-porto-velho-ro-220m2-id-2617266915/",-8.73911998176,-63.89541998687
0,NA,150,1,5,NA,0,0,2605177432,NA,0,0,0,0,5,0,0,0,4,210000,0,"Tancredo Neves, Porto Velho - RO","casas","https://www.zapimoveis.com.br/imovel/venda-casa-5-quartos-com-ar-condicionado-tancredo-neves-porto-velho-ro-150m2-id-2605177432/",-8.76255,-63.84388
NA,NA,157,NA,1,NA,NA,NA,2651509140,NA,NA,NA,NA,NA,3,NA,NA,NA,5,230000,NA,"Conceição, Porto Velho - RO","casas","https://www.zapimoveis.com.br/imovel/venda-casa-3-quartos-com-cozinha-conceicao-porto-velho-ro-157m2-id-2651509140/",-8.79296,-63.89158
NA,NA,320,NA,1,NA,NA,NA,2570149532,150,NA,NA,NA,NA,2,NA,NA,NA,1,185000,NA,"Rua Ivan Marrocos - Caladinho, Porto Velho - RO","casas","https://www.zapimoveis.com.br/imovel/venda-casa-2-quartos-com-quintal-caladinho-porto-velho-ro-320m2-id-2570149532/",-8.806467340742,-63.877957017963
NA,NA,120,NA,2,NA,NA,NA,2463494865,NA,NA,NA,NA,NA,3,NA,NA,NA,2,490000,NA,"Rua Salgado Filho, 2535 - São Cristóvão, Porto Velho - RO","casas","https://www.zapimoveis.com.br/imovel/venda-casa-3-quartos-sao-cristovao-porto-velho-ro-120m2-id-2463494865/",-8.755629984082,-63.895150005769
0,NA,162,1,2,NA,0,0,2568360694,1093,0,0,0,0,3,0,0,0,2,330000,0,"Rua Equador, 2551 - Embratel, Porto Velho - RO","casas","https://www.zapimoveis.com.br/imovel/venda-casa-3-quartos-com-cozinha-embratel-porto-velho-ro-162m2-id-2568360694/",-8.754279994757,-63.877929972428
0,NA,80,0,1,150,0,0,2643853518,NA,0,1,0,1,2,1,0,0,2,290000,0,"Novo Horizonte, Porto Velho - RO","casas","https://www.zapimoveis.com.br/imovel/venda-casa-2-quartos-com-varanda-novo-horizonte-porto-velho-ro-80m2-id-2643853518/",-8.80156,-63.8946
NA,NA,110,NA,3,450,NA,NA,2643766073,NA,NA,NA,NA,NA,3,NA,NA,NA,2,585000,NA,"Rua Thales Benevides - Rio Madeira, Porto Velho - RO","casas","https://www.zapimoveis.com.br/imovel/venda-casa-3-quartos-com-cozinha-rio-madeira-porto-velho-ro-110m2-id-2643766073/",-8.737235028803,-63.873485092463
NA,NA,58,NA,1,NA,NA,NA,2646299430,NA,NA,NA,NA,NA,2,NA,NA,NA,2,180000,NA,"Rua Rosário, 1961 - Aeroclub, Porto Velho - RO","casas","https://www.zapimoveis.com.br/imovel/venda-casa-2-quartos-aeroclub-porto-velho-ro-58m2-id-2646299430/",-8.803580002302,-63.861549973423
NA,NA,220,NA,2,400,NA,NA,2586641367,150,NA,NA,NA,NA,3,NA,NA,NA,NA,750000,NA,"Avenida Amazonas - Tiradentes, Porto Velho - RO","casas","https://www.zapimoveis.com.br/imovel/venda-casa-3-quartos-tiradentes-porto-velho-ro-220m2-id-2586641367/",-8.758594998512,-63.855599995635
NA,NA,77,NA,2,NA,NA,NA,2624550416,NA,NA,NA,NA,NA,2,NA,NA,NA,NA,295000,NA,"Avenida Engº Anysio da Rocha Compasso - Aponiã, Porto Velho - RO","casas","https://www.zapimoveis.com.br/imovel/venda-casa-2-quartos-aponia-porto-velho-ro-77m2-id-2624550416/",-8.73416334075,-63.864059002895
0,NA,250,1,2,NA,0,0,2643634668,NA,1,0,0,0,3,0,0,0,3,2e+05,0,"Cuniã, Porto Velho - RO","casas","https://www.zapimoveis.com.br/imovel/venda-casa-3-quartos-com-piscina-cunia-porto-velho-ro-250m2-id-2643634668/",-8.75162,-63.84755
NA,NA,230,NA,3,NA,NA,NA,2583567456,150,NA,NA,NA,NA,4,NA,NA,NA,NA,410000,NA,"Rua Columbita - Flodoaldo Pontes Pinto, Porto Velho - RO","casas","https://www.zapimoveis.com.br/imovel/venda-casa-4-quartos-flodoaldo-pontes-pinto-porto-velho-ro-230m2-id-2583567456/",-8.740869997414,-63.873660021403
NA,NA,100,NA,1,NA,NA,NA,2619936856,NA,NA,NA,NA,NA,2,NA,NA,NA,1,230000,NA,"Rua dos Buritis, SN - Nova Floresta, Porto Velho - RO","casas","https://www.zapimoveis.com.br/imovel/venda-casa-2-quartos-nova-floresta-porto-velho-ro-100m2-id-2619936856/",-8.790521093678,-63.889182325311
NA,NA,100,NA,2,NA,NA,NA,2643045889,NA,NA,NA,NA,NA,2,NA,NA,NA,2,260000,NA,"Conceição, Porto Velho - RO","casas","https://www.zapimoveis.com.br/imovel/venda-casa-2-quartos-conceicao-porto-velho-ro-100m2-id-2643045889/",-8.79296,-63.89158
0,NA,150,0,2,NA,0,0,2575870054,NA,0,0,0,0,3,0,0,0,2,550000,1,"Avenida Engº Anysio da Rocha Compasso, 7000 - Aponiã, Porto Velho - RO","casas","https://www.zapimoveis.com.br/imovel/venda-casa-3-quartos-aponia-porto-velho-ro-150m2-id-2575870054/",-8.73416334075,-63.864059002895
NA,NA,173,NA,1,NA,NA,NA,2650720954,1738,NA,NA,NA,NA,2,NA,NA,NA,NA,510000,NA,"Rua Padre Ângelo Cerri - São João Bosco, Porto Velho - RO","casas","https://www.zapimoveis.com.br/imovel/venda-casa-2-quartos-com-cozinha-sao-joao-bosco-porto-velho-ro-173m2-id-2650720954/",-8.746390551516,-63.896684836972
0,NA,185,1,1,NA,0,0,2631975345,NA,0,0,0,0,3,0,0,0,4,220000,0,"Teixeirao, Porto Velho - RO","casas","https://www.zapimoveis.com.br/imovel/venda-casa-3-quartos-com-cozinha-teixeirao-porto-velho-ro-185m2-id-2631975345/",-8.74464,-63.83752
0,NA,72,1,1,NA,0,1,2638723100,NA,0,1,0,1,3,1,0,0,2,169990,0,"Bairro Novo, Porto Velho - RO","casas","https://www.zapimoveis.com.br/imovel/venda-casa-3-quartos-bairro-novo-porto-velho-ro-72m2-id-2638723100/",-8.80696,-63.80542
0,1,110,1,2,NA,1,1,2648898497,NA,1,1,0,1,3,1,0,0,2,595000,0,"Industrial, Porto Velho - RO","apartamentos","https://www.zapimoveis.com.br/imovel/venda-apartamento-3-quartos-com-piscina-industrial-porto-velho-ro-110m2-id-2648898497/",-8.73905,-63.88666
1,NA,96,1,2,NA,1,0,2557198727,NA,1,0,1,0,3,1,0,0,2,580000,0,"Rua Cipriano Gurgel - Industrial, Porto Velho - RO","apartamentos","https://www.zapimoveis.com.br/imovel/venda-apartamento-3-quartos-mobiliado-industrial-porto-velho-ro-96m2-id-2557198727/",-8.741150608493,-63.88441271723
NA,NA,74,NA,2,NA,NA,NA,2638531002,NA,NA,NA,NA,NA,3,NA,NA,NA,1,410000,NA,"Avenida Prefeito Chiquilito Erse, 4089 - Rio Madeira, Porto Velho - RO","apartamentos","https://www.zapimoveis.com.br/imovel/venda-apartamento-3-quartos-rio-madeira-porto-velho-ro-74m2-id-2638531002/",-8.740290011624,-63.878304978776
NA,11,125,NA,3,900,NA,NA,2605179936,NA,NA,NA,NA,NA,4,NA,NA,NA,2,6e+05,NA,"Olaria, Porto Velho - RO","apartamentos","https://www.zapimoveis.com.br/imovel/venda-apartamento-4-quartos-olaria-porto-velho-ro-125m2-id-2605179936/",-8.75634,-63.90316
NA,NA,127,NA,4,NA,NA,NA,2634185973,NA,NA,NA,NA,NA,3,NA,NA,NA,2,1300000,NA,"Rio Madeira, Porto Velho - RO","apartamentos","https://www.zapimoveis.com.br/imovel/venda-apartamento-3-quartos-com-churrasqueira-rio-madeira-porto-velho-ro-127m2-id-2634185973/",-8.7368,-63.87546
0,NA,44,0,1,NA,0,0,2630200004,150,1,0,0,1,2,0,0,0,1,145000,1,"Rua Tefé - Aeroclub, Porto Velho - RO","apartamentos","https://www.zapimoveis.com.br/imovel/venda-apartamento-2-quartos-com-piscina-aeroclub-porto-velho-ro-44m2-id-2630200004/",-8.80489,-63.86494
0,NA,49,0,1,420,0,1,2651542657,NA,1,1,0,1,2,0,0,0,1,3e+05,0,"Igarape, Porto Velho - RO","apartamentos","https://www.zapimoveis.com.br/imovel/venda-apartamento-2-quartos-com-piscina-igarape-porto-velho-ro-49m2-id-2651542657/",-8.74577,-63.85075
1,NA,152,0,3,900,1,0,2616407024,NA,1,1,0,1,3,1,0,0,2,1150000,0,"Nova Porto Velho, Porto Velho - RO","apartamentos","https://www.zapimoveis.com.br/imovel/venda-apartamento-3-quartos-com-piscina-nova-porto-velho-porto-velho-ro-152m2-id-2616407024/",-8.76762,-63.88404
0,NA,285,1,4,NA,1,0,2624387864,NA,1,0,0,0,3,0,0,0,3,1450000,1,"Olaria, Porto Velho - RO","apartamentos","https://www.zapimoveis.com.br/imovel/venda-apartamento-3-quartos-mobiliado-olaria-porto-velho-ro-285m2-id-2624387864/",-8.75634,-63.90316
0,NA,140,0,3,NA,1,1,2628301869,NA,1,1,1,1,4,1,0,0,2,660000,0,"Avenida Presidente Dutra, 4150 - Olaria, Porto Velho - RO","apartamentos","https://www.zapimoveis.com.br/imovel/venda-apartamento-4-quartos-com-piscina-olaria-porto-velho-ro-140m2-id-2628301869/",-8.752624582546,-63.908491490256
NA,NA,48,NA,1,230,NA,NA,2643850875,NA,NA,NA,NA,NA,2,NA,NA,NA,1,240000,NA,"Planalto, Porto Velho - RO","apartamentos","https://www.zapimoveis.com.br/imovel/venda-apartamento-2-quartos-planalto-porto-velho-ro-48m2-id-2643850875/",-8.74058,-63.84822
0,NA,72,0,1,600,1,0,2650793365,76,0,0,0,0,3,0,0,0,2,339000,0,"Avenida dos Imigrantes - Rio Madeira, Porto Velho - RO","apartamentos","https://www.zapimoveis.com.br/imovel/venda-apartamento-3-quartos-com-elevador-rio-madeira-porto-velho-ro-72m2-id-2650793365/",-8.737026812496,-63.876521841304
0,1,120,0,2,1150,0,0,2645003961,NA,1,1,1,0,3,1,0,0,1,4e+05,0,"Rua Getúlio Vargas, 2614 - São Cristóvão, Porto Velho - RO","apartamentos","https://www.zapimoveis.com.br/imovel/venda-apartamento-3-quartos-com-piscina-sao-cristovao-porto-velho-ro-120m2-id-2645003961/",-8.75636000594,-63.896209981244
0,NA,44,0,1,NA,0,1,2625705701,NA,1,0,1,1,2,1,0,0,1,195000,0,"Estrada Treze de Setembro, 117 - Aeroclub, Porto Velho - RO","apartamentos","https://www.zapimoveis.com.br/imovel/venda-apartamento-2-quartos-mobiliado-aeroclub-porto-velho-ro-44m2-id-2625705701/",-8.790045150034,-63.861064568018
0,7,180,1,2,1000,0,0,2639431012,NA,0,0,0,0,3,0,0,0,2,780000,0,"Embratel, Porto Velho - RO","apartamentos","https://www.zapimoveis.com.br/imovel/venda-apartamento-3-quartos-embratel-porto-velho-ro-180m2-id-2639431012/",-8.74858,-63.88798
NA,NA,117,NA,3,NA,NA,NA,2646390726,NA,NA,NA,NA,NA,3,NA,NA,NA,2,735000,NA,"Avenida Lauro Sodré, 2300 - Olaria, Porto Velho - RO","apartamentos","https://www.zapimoveis.com.br/imovel/venda-apartamento-3-quartos-olaria-porto-velho-ro-117m2-id-2646390726/",-8.744715330697,-63.902991606934
0,1,41,0,1,NA,0,0,2605315803,NA,1,1,1,0,2,1,0,0,1,220000,0,"Avenida Mamoré, 7461 - Planalto, Porto Velho - RO","apartamentos","https://www.zapimoveis.com.br/imovel/venda-apartamento-2-quartos-mobiliado-planalto-porto-velho-ro-41m2-id-2605315803/",-8.738744996366,-63.84927496959
0,4,80,1,2,200,0,0,2639430920,NA,0,0,0,0,2,0,0,0,1,260000,0,"Nova Porto Velho, Porto Velho - RO","apartamentos","https://www.zapimoveis.com.br/imovel/venda-apartamento-2-quartos-com-ar-condicionado-nova-porto-velho-porto-velho-ro-80m2-id-2639430920/",-8.76762,-63.88404
NA,NA,91,NA,2,350,NA,NA,2640719527,NA,NA,NA,NA,NA,3,NA,NA,NA,3,450000,NA,"Estrada Santo Antônio - Triângulo, Porto Velho - RO","apartamentos","https://www.zapimoveis.com.br/imovel/venda-apartamento-3-quartos-triangulo-porto-velho-ro-91m2-id-2640719527/",-8.806222342781,-63.931733277336
0,4,84,0,2,500,1,0,2628047669,NA,1,0,0,0,3,0,0,0,2,450000,0,"Rio Madeira, Porto Velho - RO","apartamentos","https://www.zapimoveis.com.br/imovel/venda-apartamento-3-quartos-com-piscina-rio-madeira-porto-velho-ro-84m2-id-2628047669/",-8.7368,-63.87546
NA,7,170,NA,5,NA,NA,NA,2633519993,NA,NA,NA,NA,NA,3,NA,NA,NA,4,1500000,NA,"Rua João Pedro da Rocha, 2378 - Embratel, Porto Velho - RO","apartamentos","https://www.zapimoveis.com.br/imovel/venda-apartamento-3-quartos-embratel-porto-velho-ro-170m2-id-2633519993/",-8.74768344002,-63.886330752187
NA,3,154,NA,4,NA,NA,NA,2616186706,NA,NA,NA,NA,NA,3,NA,NA,NA,2,650000,NA,"Avenida Prefeito Chiquilito Erse, 5286 - Nova Esperança, Porto Velho - RO","apartamentos","https://www.zapimoveis.com.br/imovel/venda-apartamento-3-quartos-nova-esperanca-porto-velho-ro-154m2-id-2616186706/",-8.688517222904,-63.876505693018
0,NA,149,1,2,350,1,0,2641930682,NA,1,0,0,1,3,0,0,0,2,430000,0,"Triângulo, Porto Velho - RO","apartamentos","https://www.zapimoveis.com.br/imovel/venda-apartamento-3-quartos-com-piscina-triangulo-porto-velho-ro-149m2-id-2641930682/",-8.77767,-63.9122
0,1,160,0,3,500,0,1,2653891298,NA,1,0,0,0,3,0,0,0,2,550000,0,"Floresta, Porto Velho - RO","apartamentos","https://www.zapimoveis.com.br/imovel/venda-apartamento-3-quartos-com-piscina-floresta-porto-velho-ro-160m2-id-2653891298/",-8.77191,-63.88269
0,NA,60,0,1,NA,1,0,2603825694,NA,1,1,0,1,2,0,0,0,1,305000,0,"Rua Vaticano - Igarape, Porto Velho - RO","apartamentos","https://www.zapimoveis.com.br/imovel/venda-apartamento-2-quartos-com-piscina-igarape-porto-velho-ro-60m2-id-2603825694/",-8.750222698691,-63.862672569868
0,4,46,0,1,NA,0,1,2612913629,NA,1,1,0,0,2,0,0,0,1,204000,0,"Esperança da Comunidade, Porto Velho - RO","apartamentos","https://www.zapimoveis.com.br/imovel/venda-apartamento-2-quartos-com-piscina-esperanca-da-comunidade-porto-velho-ro-46m2-id-2612913629/",-8.74753,-63.84727
0,NA,46,0,1,NA,0,0,2628399933,NA,1,0,0,1,2,0,0,0,1,190000,0,"Aeroclub, Porto Velho - RO","apartamentos","https://www.zapimoveis.com.br/imovel/venda-apartamento-2-quartos-com-piscina-aeroclub-porto-velho-ro-46m2-id-2628399933/",-8.80489,-63.86494
0,4,83,0,2,NA,1,0,2628416492,NA,0,0,0,0,3,0,0,0,2,450000,0,"Avenida Guaporé - Rio Madeira, Porto Velho - RO","apartamentos","https://www.zapimoveis.com.br/imovel/venda-apartamento-3-quartos-com-cozinha-rio-madeira-porto-velho-ro-83m2-id-2628416492/",-8.736163493744,-63.866477536337
NA,NA,136,NA,2,NA,NA,NA,2647389090,NA,NA,NA,NA,NA,3,NA,NA,NA,2,807920,NA,"Avenida Calama - Embratel, Porto Velho - RO","apartamentos","https://www.zapimoveis.com.br/imovel/venda-apartamento-3-quartos-embratel-porto-velho-ro-136m2-id-2647389090/",-8.749194987467,-63.888035027258
1,NA,155,1,4,1100,1,0,2568360696,1160,1,0,0,1,3,0,0,0,2,750000,1,"Rua Thales Benevides, 5355 - Rio Madeira, Porto Velho - RO","apartamentos","https://www.zapimoveis.com.br/imovel/venda-apartamento-3-quartos-com-piscina-rio-madeira-porto-velho-ro-155m2-id-2568360696/",-8.737409989693,-63.874960012676
1,NA,160,1,5,NA,1,0,2557198722,NA,1,0,1,0,4,1,0,0,4,1300000,0,"Travessa Aimoré - Pedrinhas, Porto Velho - RO","apartamentos","https://www.zapimoveis.com.br/imovel/venda-apartamento-4-quartos-com-piscina-pedrinhas-porto-velho-ro-160m2-id-2557198722/",-8.749540007557,-63.908269989262
0,4,76,1,2,600,0,0,2644005469,NA,0,0,0,0,3,0,0,0,1,350000,0,"Liberdade, Porto Velho - RO","apartamentos","https://www.zapimoveis.com.br/imovel/venda-apartamento-3-quartos-liberdade-porto-velho-ro-76m2-id-2644005469/",-8.74865,-63.88833
0,3,141,0,2,758,0,0,2635911576,NA,1,0,0,0,3,0,0,0,2,370000,1,"Alameda Mourão, 1658 - São João Bosco, Porto Velho - RO","apartamentos","https://www.zapimoveis.com.br/imovel/venda-apartamento-3-quartos-com-piscina-sao-joao-bosco-porto-velho-ro-141m2-id-2635911576/",-8.747113613287,-63.902199133613
NA,NA,237,NA,4,NA,NA,NA,2623418953,NA,NA,NA,NA,NA,3,NA,NA,NA,2,1200000,NA,"Rodovia BR-364, 9 - Cidade Jardim, Porto Velho - RO","apartamentos","https://www.zapimoveis.com.br/imovel/venda-apartamento-3-quartos-cidade-jardim-porto-velho-ro-237m2-id-2623418953/",-8.804074032083,-63.796949782477
0,3,46,0,1,256,0,0,2644978681,NA,1,1,0,0,2,0,0,0,1,190000,0,"Rua Principal, n°5871 - Novo Horizonte, Porto Velho - RO","apartamentos","https://www.zapimoveis.com.br/imovel/venda-apartamento-2-quartos-com-piscina-novo-horizonte-porto-velho-ro-46m2-id-2644978681/",-8.809214029945,-63.895441134448
0,NA,56,1,1,600,1,0,2557198795,NA,1,0,1,0,2,1,0,0,1,260000,0,"Rua Padre Chiquinho, 2835 - Centro, Porto Velho - RO","apartamentos","https://www.zapimoveis.com.br/imovel/venda-apartamento-2-quartos-com-piscina-centro-porto-velho-ro-56m2-id-2557198795/",-8.743714652409,-63.889621257344
0,NA,75,1,2,NA,0,0,2652134512,NA,1,0,0,0,3,0,0,0,1,260000,0,"Liberdade, Porto Velho - RO","apartamentos","https://www.zapimoveis.com.br/imovel/venda-apartamento-3-quartos-com-piscina-liberdade-porto-velho-ro-75m2-id-2652134512/",-8.74865,-63.88833
NA,NA,84,NA,2,450,NA,NA,2621686621,NA,NA,NA,NA,NA,3,NA,NA,NA,2,685000,NA,"Rua Surubim - Lagoa, Porto Velho - RO","apartamentos","https://www.zapimoveis.com.br/imovel/venda-apartamento-3-quartos-lagoa-porto-velho-ro-84m2-id-2621686621/",-8.775929502387,-63.867959251067
0,NA,108,0,1,NA,0,1,2641747166,NA,1,1,0,1,2,0,0,0,1,453000,0,"Industrial, Porto Velho - RO","apartamentos","https://www.zapimoveis.com.br/imovel/venda-apartamento-2-quartos-com-piscina-industrial-porto-velho-ro-108m2-id-2641747166/",-8.73905,-63.88666
0,NA,74,0,2,550,1,0,2641005792,1050,1,0,0,1,3,0,0,0,1,460000,1,"Rua Monet - Pedrinhas, Porto Velho - RO","apartamentos","https://www.zapimoveis.com.br/imovel/venda-apartamento-3-quartos-com-piscina-pedrinhas-porto-velho-ro-74m2-id-2641005792/",-8.744360297157,-63.911106380032
NA,NA,120,NA,2,600,NA,NA,2621683074,NA,NA,NA,NA,NA,3,NA,NA,NA,1,550000,NA,"Avenida Engº Anysio da Rocha Compasso - Rio Madeira, Porto Velho - RO","apartamentos","https://www.zapimoveis.com.br/imovel/venda-apartamento-3-quartos-rio-madeira-porto-velho-ro-120m2-id-2621683074/",-8.7368,-63.87546
0,NA,71,1,1,NA,0,1,2647445745,NA,1,1,0,1,2,1,0,0,1,70000,0,"Aeroclub, Porto Velho - RO","apartamentos","https://www.zapimoveis.com.br/imovel/venda-apartamento-2-quartos-com-piscina-aeroclub-porto-velho-ro-71m2-id-2647445745/",-8.80489,-63.86494
1,NA,70,1,3,1,1,0,2556656790,5e+05,1,0,1,0,3,1,0,0,1,360000,0,"Rua Pastor Eurico Alfredo Nelson - Agenor de Carvalho, Porto Velho - RO","apartamentos","https://www.zapimoveis.com.br/imovel/venda-apartamento-3-quartos-com-piscina-agenor-de-carvalho-porto-velho-ro-70m2-id-2556656790/",-8.762156647811,-63.871976833939
0,NA,75,0,1,598,0,0,2643633499,NA,1,0,0,1,3,0,0,0,1,4e+05,1,"Nova Porto Velho, Porto Velho - RO","apartamentos","https://www.zapimoveis.com.br/imovel/venda-apartamento-3-quartos-com-piscina-nova-porto-velho-porto-velho-ro-75m2-id-2643633499/",-8.76762,-63.88404
0,6,75,0,2,600,1,1,2639743673,NA,1,1,1,0,1,1,0,0,2,360000,0,"Avenida dos Imigrantes, 5857 - Rio Madeira, Porto Velho - RO","apartamentos","https://www.zapimoveis.com.br/imovel/venda-apartamento-1-quarto-com-piscina-rio-madeira-porto-velho-ro-75m2-id-2639743673/",-8.735129986301,-63.865860031855
1,NA,154,1,5,NA,1,0,2557198734,NA,1,0,1,0,3,1,0,0,2,780000,0,"Avenida José Vieira Caúla - Agenor de Carvalho, Porto Velho - RO","apartamentos","https://www.zapimoveis.com.br/imovel/venda-apartamento-3-quartos-mobiliado-agenor-de-carvalho-porto-velho-ro-154m2-id-2557198734/",-8.754285519196,-63.86781782764
NA,NA,45,NA,1,NA,NA,NA,2643853842,NA,NA,NA,NA,NA,2,NA,NA,NA,1,140000,NA,"Rua Miguel de Cervante - Aeroclub, Porto Velho - RO","apartamentos","https://www.zapimoveis.com.br/imovel/venda-apartamento-2-quartos-aeroclub-porto-velho-ro-45m2-id-2643853842/",-8.800902505885,-63.84963799747
NA,NA,58,NA,1,NA,NA,NA,2647389092,NA,NA,NA,NA,NA,2,NA,NA,NA,2,412685,NA,"Avenida Engenheiro Anysio da Rocha Compasso - Rio Madeira, Porto Velho - RO","apartamentos","https://www.zapimoveis.com.br/imovel/venda-apartamento-2-quartos-rio-madeira-porto-velho-ro-58m2-id-2647389092/",-8.7368,-63.87546
0,NA,110,1,2,NA,0,0,2557198747,NA,0,0,0,0,3,0,0,0,2,320000,0,"Rua Costa Rica, 3167 - Embratel, Porto Velho - RO","apartamentos","https://www.zapimoveis.com.br/imovel/venda-apartamento-3-quartos-com-area-de-servico-embratel-porto-velho-ro-110m2-id-2557198747/",-8.749009998864,-63.877539962473
0,3,72,0,2,NA,0,1,2563277252,NA,1,1,0,0,3,1,0,0,1,370000,0,"Nova Porto Velho, Porto Velho - RO","apartamentos","https://www.zapimoveis.com.br/imovel/venda-apartamento-3-quartos-mobiliado-nova-porto-velho-porto-velho-ro-72m2-id-2563277252/",-8.76762,-63.88404
0,6,91,1,2,350,1,0,2624495235,150,1,0,0,1,3,0,0,0,3,450000,0,"Estrada Santo Antônio - Triângulo, Porto Velho - RO","apartamentos","https://www.zapimoveis.com.br/imovel/venda-apartamento-3-quartos-mobiliado-triangulo-porto-velho-ro-91m2-id-2624495235/",-8.806222342781,-63.931733277336
NA,NA,327,NA,4,2700,NA,NA,2646955859,NA,NA,NA,NA,NA,4,NA,NA,NA,NA,1350000,NA,"Rua Tabajara - Olaria, Porto Velho - RO","apartamentos","https://www.zapimoveis.com.br/imovel/venda-apartamento-4-quartos-olaria-porto-velho-ro-327m2-id-2646955859/",-8.751684999443,-63.909924996044
0,3,120,0,2,400,1,0,2589673420,150,1,0,0,1,3,0,0,0,2,430000,0,"Estrada Santo Antônio - Triângulo, Porto Velho - RO","apartamentos","https://www.zapimoveis.com.br/imovel/venda-apartamento-3-quartos-com-piscina-triangulo-porto-velho-ro-120m2-id-2589673420/",-8.806222342781,-63.931733277336
0,NA,107,0,3,NA,0,0,2642653507,NA,1,0,0,1,2,0,0,0,2,650000,0,"São João Bosco, Porto Velho - RO","apartamentos","https://www.zapimoveis.com.br/imovel/venda-apartamento-2-quartos-com-piscina-sao-joao-bosco-porto-velho-ro-107m2-id-2642653507/",-8.75109,-63.8968
1,NA,100,1,2,NA,1,0,2557198776,NA,1,0,1,0,3,1,0,0,3,550000,0,"Rua Barbados - Embratel, Porto Velho - RO","apartamentos","https://www.zapimoveis.com.br/imovel/venda-apartamento-3-quartos-com-piscina-embratel-porto-velho-ro-100m2-id-2557198776/",-8.749784989632,-63.877700014914
NA,NA,150000,NA,2,NA,NA,NA,2559145211,NA,NA,NA,NA,NA,3,NA,NA,NA,2,160000,NA,"Floresta, Porto Velho - RO","casas","https://www.zapimoveis.com.br/imovel/venda-casa-3-quartos-floresta-porto-velho-ro-150000m2-id-2559145211/",-8.77191,-63.88269
0,NA,130,0,2,NA,0,0,2640940175,NA,1,0,0,0,2,0,0,0,2,2e+05,0,"Costa E Silva, Porto Velho - RO","casas","https://www.zapimoveis.com.br/imovel/venda-casa-2-quartos-com-piscina-costa-e-silva-porto-velho-ro-130m2-id-2640940175/",-8.73994,-63.90206
NA,NA,90,NA,2,NA,NA,NA,2561261197,NA,NA,NA,NA,NA,3,NA,NA,NA,2,180000,NA,"Tancredo Neves, Porto Velho - RO","casas","https://www.zapimoveis.com.br/imovel/venda-casa-3-quartos-com-varanda-tancredo-neves-porto-velho-ro-90m2-id-2561261197/",-8.76255,-63.84388
0,NA,117,1,4,NA,0,0,2624490478,670,1,0,0,0,3,0,0,0,3,5e+05,0,"Rua Clea Merces - Agenor M de Carvalho, Porto Velho - RO","casas","https://www.zapimoveis.com.br/imovel/venda-casa-3-quartos-com-piscina-agenor-m-de-carvalho-porto-velho-ro-117m2-id-2624490478/",-8.757425970713,-63.86641974647
NA,NA,90,NA,2,NA,NA,NA,2570361052,NA,NA,NA,NA,NA,3,NA,NA,NA,1,4e+05,NA,"Flodoaldo Pontes Pinto, Porto Velho - RO","casas","https://www.zapimoveis.com.br/imovel/venda-casa-3-quartos-flodoaldo-pontes-pinto-porto-velho-ro-90m2-id-2570361052/",-8.74561,-63.87146
0,NA,230,0,4,NA,0,0,2561260448,NA,1,0,0,0,3,0,0,0,4,850000,0,"Panair, Porto Velho - RO","casas","https://www.zapimoveis.com.br/imovel/venda-casa-3-quartos-com-piscina-panair-porto-velho-ro-230m2-id-2561260448/",-8.74546,-63.91241
NA,NA,300,NA,2,NA,NA,NA,2625205168,NA,NA,NA,NA,NA,4,NA,NA,NA,4,590000,NA,"Rua Joaquim Nabuco, 1349 - Areal, Porto Velho - RO","casas","https://www.zapimoveis.com.br/imovel/venda-casa-4-quartos-areal-porto-velho-ro-300m2-id-2625205168/",-8.769969995492,-63.896469987881
1,1,108,0,3,350,0,0,2649814931,1000,1,0,1,1,3,1,0,0,2,590000,0,"Rua Jardins, 52 - Rio Madeira, Porto Velho - RO","casas_de_condominio","https://www.zapimoveis.com.br/imovel/venda-casa-de-condominio-3-quartos-com-piscina-rio-madeira-porto-velho-ro-108m2-id-2649814931/",-8.736885149675,-63.892359586369
0,NA,600,1,1,NA,0,0,2653899156,NA,1,0,0,0,3,0,0,0,5,690000,0,"Agenor de Carvalho, Porto Velho - RO","casas","https://www.zapimoveis.com.br/imovel/venda-casa-3-quartos-com-piscina-agenor-de-carvalho-porto-velho-ro-600m2-id-2653899156/",-8.75794,-63.87141
NA,NA,10,NA,2,NA,NA,NA,2646729331,NA,NA,NA,NA,NA,1,NA,NA,NA,2,450000,NA,"São João Bosco, Porto Velho - RO","casas","https://www.zapimoveis.com.br/imovel/venda-casa-1-quarto-sao-joao-bosco-porto-velho-ro-10m2-id-2646729331/",-8.75109,-63.8968
NA,NA,150,NA,2,NA,NA,NA,2605186874,NA,NA,NA,NA,NA,2,NA,NA,NA,3,2e+05,NA,"Esperança da Comunidade, Porto Velho - RO","casas","https://www.zapimoveis.com.br/imovel/venda-casa-2-quartos-com-cozinha-esperanca-da-comunidade-porto-velho-ro-150m2-id-2605186874/",-8.74753,-63.84727
0,NA,250,1,3,NA,0,0,2557198948,NA,0,0,0,0,3,0,0,0,4,495000,0,"São Cristóvão, Porto Velho - RO","casas","https://www.zapimoveis.com.br/imovel/venda-casa-3-quartos-com-area-de-servico-sao-cristovao-porto-velho-ro-250m2-id-2557198948/",-8.75596,-63.88674
1,NA,302,0,4,NA,0,1,2595394886,1,1,1,1,1,3,1,0,0,2,1300000,0,"Estrada Santo Antônio, 3701 - Triângulo, Porto Velho - RO","casas","https://www.zapimoveis.com.br/imovel/venda-casa-3-quartos-com-piscina-triangulo-porto-velho-ro-302m2-id-2595394886/",-8.785183293217,-63.911774251126
0,1,255,1,3,NA,0,0,2563742977,1200,0,0,0,0,3,0,0,0,1,650000,0,"Rua Raimundo Cantuária, 4318 - Nova Porto Velho, Porto Velho - RO","casas","https://www.zapimoveis.com.br/imovel/venda-casa-3-quartos-com-varanda-nova-porto-velho-porto-velho-ro-255m2-id-2563742977/",-8.764903410843,-63.872410741747
1,NA,230,0,4,390,1,1,2609717174,NA,1,1,1,1,3,1,0,0,4,995000,0,"Avenida Engº Anysio da Rocha Compasso, 4510 - Aponiã, Porto Velho - RO","casas","https://www.zapimoveis.com.br/imovel/venda-casa-3-quartos-com-piscina-aponia-porto-velho-ro-230m2-id-2609717174/",-8.73416334075,-63.864059002895
0,NA,172,1,1,NA,0,0,2624385496,NA,0,0,0,0,2,0,0,0,1,395000,0,"Lagoinha, Porto Velho - RO","casas","https://www.zapimoveis.com.br/imovel/venda-casa-2-quartos-com-cozinha-lagoinha-porto-velho-ro-172m2-id-2624385496/",-8.76507,-63.85304
0,NA,135,1,2,NA,0,0,2605183596,NA,0,0,0,0,3,0,0,0,2,250000,0,"Lagoinha, Porto Velho - RO","casas","https://www.zapimoveis.com.br/imovel/venda-casa-3-quartos-com-cozinha-lagoinha-porto-velho-ro-135m2-id-2605183596/",-8.76507,-63.85304
0,NA,350,1,4,NA,0,0,2653897067,NA,1,0,0,0,4,0,0,0,5,5e+05,0,"Nova Floresta, Porto Velho - RO","casas","https://www.zapimoveis.com.br/imovel/venda-casa-4-quartos-mobiliado-nova-floresta-porto-velho-ro-350m2-id-2653897067/",-8.78881,-63.89608
NA,NA,90,NA,1,NA,NA,NA,2650243699,NA,NA,NA,NA,NA,1,NA,NA,NA,2,380000,NA,"Rua Rui Barbosa, 1261 - Arigolândia, Porto Velho - RO","casas","https://www.zapimoveis.com.br/imovel/venda-casa-1-quarto-arigolandia-porto-velho-ro-90m2-id-2650243699/",-8.75500000024,-63.911829993088
0,NA,175,1,1,NA,0,0,2624388179,NA,0,0,0,0,3,0,0,0,2,390000,0,"Costa E Silva, Porto Velho - RO","casas","https://www.zapimoveis.com.br/imovel/venda-casa-3-quartos-com-cozinha-costa-e-silva-porto-velho-ro-175m2-id-2624388179/",-8.73994,-63.90206
0,NA,60,0,2,182,0,0,2614562167,1,0,0,1,0,3,0,0,0,2,230000,0,"Rua Jardins, 53 - Bairro Novo, Porto Velho - RO","casas","https://www.zapimoveis.com.br/imovel/venda-casa-3-quartos-bairro-novo-porto-velho-ro-60m2-id-2614562167/",-8.811402920515,-63.807932522254
NA,NA,210,NA,3,NA,NA,NA,2628660007,NA,NA,NA,NA,NA,4,NA,NA,NA,5,390000,NA,"Rua Padre Chiquinho, 1791 - São João Bosco, Porto Velho - RO","casas","https://www.zapimoveis.com.br/imovel/venda-casa-4-quartos-sao-joao-bosco-porto-velho-ro-210m2-id-2628660007/",-8.745988023906,-63.900287857239
0,NA,350,0,3,NA,0,0,2618434322,NA,1,0,0,0,4,0,0,0,1,580000,1,"Rua Genipapo, 2464 - Cohab, Porto Velho - RO","casas","https://www.zapimoveis.com.br/imovel/venda-casa-4-quartos-com-piscina-cohab-porto-velho-ro-350m2-id-2618434322/",-8.789300005319,-63.877940030712
0,NA,84,1,2,NA,0,0,2638046454,NA,0,0,0,0,2,0,0,0,1,110000,0,"Mariana, Porto Velho - RO","casas","https://www.zapimoveis.com.br/imovel/venda-casa-2-quartos-com-area-de-servico-mariana-porto-velho-ro-84m2-id-2638046454/",-8.7737,-63.81873
0,NA,160,1,1,NA,0,0,2640041188,NA,0,0,0,0,3,0,0,0,1,145000,0,"Caladinho, Porto Velho - RO","casas","https://www.zapimoveis.com.br/imovel/venda-casa-3-quartos-com-deposito-privativo-caladinho-porto-velho-ro-160m2-id-2640041188/",-8.7965,-63.88158
0,NA,120,1,2,NA,0,0,2605186798,NA,0,0,0,0,5,0,0,0,4,220000,0,"Esperança da Comunidade, Porto Velho - RO","casas","https://www.zapimoveis.com.br/imovel/venda-casa-5-quartos-com-cozinha-esperanca-da-comunidade-porto-velho-ro-120m2-id-2605186798/",-8.74753,-63.84727
NA,NA,250,NA,5,NA,NA,NA,2621686618,NA,NA,NA,NA,NA,7,NA,NA,NA,4,450000,NA,"Rua Clara Nunes - Aponiã, Porto Velho - RO","sobrados","https://www.zapimoveis.com.br/imovel/venda-sobrados-7-quartos-aponia-porto-velho-ro-250m2-id-2621686618/",-8.741400377822,-63.85493359678
NA,NA,540,NA,3,NA,NA,NA,2653505062,NA,NA,NA,NA,NA,2,NA,NA,NA,4,750000,NA,"Rua Eduardo Lima e Silva - Agenor de Carvalho, Porto Velho - RO","casas","https://www.zapimoveis.com.br/imovel/venda-casa-2-quartos-agenor-de-carvalho-porto-velho-ro-540m2-id-2653505062/",-8.765733929699,-63.872301629571
0,NA,70,1,2,NA,0,0,2653899254,NA,0,0,0,0,2,0,0,0,4,450000,0,"Igarape, Porto Velho - RO","casas","https://www.zapimoveis.com.br/imovel/venda-casa-2-quartos-com-cozinha-igarape-porto-velho-ro-70m2-id-2653899254/",-8.74577,-63.85075
0,NA,240,0,2,NA,0,0,2624387212,NA,0,0,0,0,3,0,0,0,9,465000,1,"Cuniã, Porto Velho - RO","casas","https://www.zapimoveis.com.br/imovel/venda-casa-3-quartos-com-churrasqueira-cunia-porto-velho-ro-240m2-id-2624387212/",-8.75162,-63.84755
NA,NA,200,NA,4,NA,NA,NA,2637238173,NA,NA,NA,NA,NA,4,NA,NA,NA,NA,380000,NA,"Rua Ataulfo Alves, n°10017 - Mariana, Porto Velho - RO","casas","https://www.zapimoveis.com.br/imovel/venda-casa-4-quartos-com-varanda-mariana-porto-velho-ro-200m2-id-2637238173/",-8.768186850959,-63.817228528143
NA,NA,140,NA,1,NA,NA,NA,2625719259,NA,NA,NA,NA,NA,3,NA,NA,NA,4,450000,NA,"Rua Veleiro, 7011 - Aponiã, Porto Velho - RO","casas","https://www.zapimoveis.com.br/imovel/venda-casa-3-quartos-aponia-porto-velho-ro-140m2-id-2625719259/",-8.734129983342,-63.853430004722
0,NA,130,1,2,NA,0,0,2640041190,NA,0,0,0,0,3,0,0,0,3,7e+05,0,"Juscelino Kubitschek, Porto Velho - RO","casas","https://www.zapimoveis.com.br/imovel/venda-casa-3-quartos-com-cozinha-juscelino-kubitschek-porto-velho-ro-130m2-id-2640041190/",-8.76975,-63.84226
NA,NA,400,NA,2,NA,NA,NA,2650776755,NA,NA,NA,NA,NA,3,NA,NA,NA,5,6e+05,NA,"Avenida Pinheiro Machado - Igarape, Porto Velho - RO","casas","https://www.zapimoveis.com.br/imovel/venda-casa-3-quartos-igarape-porto-velho-ro-400m2-id-2650776755/",-8.747600173069,-63.849502716331
0,NA,80,1,1,NA,0,0,2638275426,NA,0,0,0,0,2,0,0,0,5,203000,0,"Castanheira, Porto Velho - RO","casas","https://www.zapimoveis.com.br/imovel/venda-casa-2-quartos-com-cozinha-castanheira-porto-velho-ro-80m2-id-2638275426/",-8.79224,-63.86964
0,NA,55,1,1,270,0,0,2639264136,350,0,1,1,1,2,1,0,0,1,190000,0,"Rua Jardins, 113 - Bairro Novo, Porto Velho - RO","casas_de_condominio","https://www.zapimoveis.com.br/imovel/venda-casa-de-condominio-2-quartos-com-churrasqueira-bairro-novo-porto-velho-ro-55m2-id-2639264136/",-8.811402920515,-63.807932522254
0,NA,249,1,3,NA,0,0,2653899058,NA,0,0,0,0,3,0,0,0,3,750000,0,"Aponiã, Porto Velho - RO","casas","https://www.zapimoveis.com.br/imovel/venda-casa-3-quartos-com-ar-condicionado-aponia-porto-velho-ro-249m2-id-2653899058/",-8.74344,-63.86143
NA,NA,480,NA,2,NA,NA,NA,2645747338,NA,NA,NA,NA,NA,3,NA,NA,NA,7,690000,NA,"Rua Antônio Vivaldi - Aponiã, Porto Velho - RO","sobrados","https://www.zapimoveis.com.br/imovel/venda-sobrados-3-quartos-aponia-porto-velho-ro-480m2-id-2645747338/",-8.736293765043,-63.857855346741
0,NA,100,0,2,NA,0,0,2637375884,NA,0,1,0,1,3,1,0,0,2,2e+05,0,"Novo Horizonte, Porto Velho - RO","casas","https://www.zapimoveis.com.br/imovel/venda-casa-3-quartos-com-varanda-novo-horizonte-porto-velho-ro-100m2-id-2637375884/",-8.80156,-63.8946
0,NA,290,1,1,NA,0,0,2605186794,NA,0,0,0,0,3,0,0,0,3,220000,0,"Esperança da Comunidade, Porto Velho - RO","casas","https://www.zapimoveis.com.br/imovel/venda-casa-3-quartos-com-cozinha-esperanca-da-comunidade-porto-velho-ro-290m2-id-2605186794/",-8.74753,-63.84727
0,NA,250,1,2,NA,0,0,2605184413,NA,0,0,0,0,3,0,0,0,5,325000,0,"Tiradentes, Porto Velho - RO","casas","https://www.zapimoveis.com.br/imovel/venda-casa-3-quartos-com-ar-condicionado-tiradentes-porto-velho-ro-250m2-id-2605184413/",-8.75716,-63.84513
0,NA,180,0,2,NA,0,0,2605185399,NA,0,0,0,0,3,0,0,0,2,2e+05,1,"Tancredo Neves, Porto Velho - RO","casas","https://www.zapimoveis.com.br/imovel/venda-casa-3-quartos-com-cozinha-tancredo-neves-porto-velho-ro-180m2-id-2605185399/",-8.76255,-63.84388
NA,NA,220,NA,1,NA,NA,NA,2630284155,NA,NA,NA,NA,NA,2,NA,NA,NA,NA,285000,NA,"Avenida Engº Anysio da Rocha Compasso - Flodoaldo Pontes Pinto, Porto Velho - RO","casas","https://www.zapimoveis.com.br/imovel/venda-casa-2-quartos-com-cozinha-flodoaldo-pontes-pinto-porto-velho-ro-220m2-id-2630284155/",-8.74561,-63.87146
NA,NA,70,NA,1,160,NA,NA,2629192524,NA,NA,NA,NA,NA,2,NA,NA,NA,3,199000,NA,"Esperança da Comunidade, Porto Velho - RO","casas","https://www.zapimoveis.com.br/imovel/venda-casa-2-quartos-com-varanda-esperanca-da-comunidade-porto-velho-ro-70m2-id-2629192524/",-8.74753,-63.84727
1,NA,130,0,4,NA,0,1,2585718645,NA,1,1,1,0,3,1,0,0,2,680000,0,"Pedrinhas, Porto Velho - RO","casas","https://www.zapimoveis.com.br/imovel/venda-casa-3-quartos-com-piscina-pedrinhas-porto-velho-ro-130m2-id-2585718645/",-8.7429,-63.90728
NA,NA,250,NA,2,NA,NA,NA,2561261589,NA,NA,NA,NA,NA,3,NA,NA,NA,NA,330000,NA,"Conceição, Porto Velho - RO","casas","https://www.zapimoveis.com.br/imovel/venda-casa-3-quartos-com-varanda-conceicao-porto-velho-ro-250m2-id-2561261589/",-8.79296,-63.89158
NA,NA,102,NA,2,NA,NA,NA,2605186675,NA,NA,NA,NA,NA,3,NA,NA,NA,3,260000,NA,"Cuniã, Porto Velho - RO","casas","https://www.zapimoveis.com.br/imovel/venda-casa-3-quartos-com-cozinha-cunia-porto-velho-ro-102m2-id-2605186675/",-8.75162,-63.84755
0,NA,250,1,2,NA,0,0,2646231481,NA,1,0,0,0,3,0,0,0,2,320000,1,"Aponiã, Porto Velho - RO","casas","https://www.zapimoveis.com.br/imovel/venda-casa-3-quartos-com-piscina-aponia-porto-velho-ro-250m2-id-2646231481/",-8.74344,-63.86143
NA,NA,120,NA,3,NA,NA,NA,2646435886,NA,NA,NA,NA,NA,3,NA,NA,NA,NA,180000,NA,"Cohab, Porto Velho - RO","casas","https://www.zapimoveis.com.br/imovel/venda-casa-3-quartos-com-cozinha-cohab-porto-velho-ro-120m2-id-2646435886/",-8.78705,-63.8773
NA,NA,150,NA,2,NA,NA,NA,2613122218,NA,NA,NA,NA,NA,3,NA,NA,NA,3,520000,NA,"Eletronorte, Porto Velho - RO","casas","https://www.zapimoveis.com.br/imovel/venda-casa-3-quartos-com-varanda-eletronorte-porto-velho-ro-150m2-id-2613122218/",-8.79129,-63.89555
0,NA,360,1,2,NA,0,0,2605183325,NA,0,0,0,0,4,0,0,0,2,610000,0,"Costa E Silva, Porto Velho - RO","casas","https://www.zapimoveis.com.br/imovel/venda-casa-4-quartos-com-cozinha-costa-e-silva-porto-velho-ro-360m2-id-2605183325/",-8.73994,-63.90206
NA,NA,135,NA,3,500,NA,NA,2621678374,NA,NA,NA,NA,NA,3,NA,NA,NA,2,750000,NA,"Estrada Santo Antônio - Triângulo, Porto Velho - RO","sobrados","https://www.zapimoveis.com.br/imovel/venda-sobrados-3-quartos-triangulo-porto-velho-ro-135m2-id-2621678374/",-8.806222342781,-63.931733277336
0,NA,250,1,1,NA,0,0,2625728820,150,0,0,0,0,2,0,0,0,2,190000,0,"Rua do Clarinete - Cohab, Porto Velho - RO","casas","https://www.zapimoveis.com.br/imovel/venda-casa-2-quartos-com-deposito-privativo-cohab-porto-velho-ro-250m2-id-2625728820/",-8.795168245868,-63.87289306172
NA,NA,210,NA,3,180,NA,NA,2653681056,NA,NA,NA,NA,NA,3,NA,NA,NA,2,650000,NA,"Avenida Engenheiro Anysio da Rocha Compasso - Rio Madeira, Porto Velho - RO","casas","https://www.zapimoveis.com.br/imovel/venda-casa-3-quartos-com-churrasqueira-rio-madeira-porto-velho-ro-210m2-id-2653681056/",-8.7368,-63.87546
0,NA,120,0,2,NA,0,0,2652135360,NA,1,0,0,0,2,0,0,0,2,260000,0,"Caladinho, Porto Velho - RO","casas","https://www.zapimoveis.com.br/imovel/venda-casa-2-quartos-com-piscina-caladinho-porto-velho-ro-120m2-id-2652135360/",-8.7965,-63.88158
0,NA,60,1,1,NA,0,0,2605184203,NA,0,0,0,0,3,0,0,0,4,150000,0,"Nova Floresta, Porto Velho - RO","casas","https://www.zapimoveis.com.br/imovel/venda-casa-3-quartos-com-cozinha-nova-floresta-porto-velho-ro-60m2-id-2605184203/",-8.78881,-63.89608
NA,NA,74,NA,2,NA,NA,NA,2622397442,NA,NA,NA,NA,NA,2,NA,NA,NA,2,230000,NA,"Flodoaldo Pontes Pinto, Porto Velho - RO","casas","https://www.zapimoveis.com.br/imovel/venda-casa-2-quartos-com-varanda-flodoaldo-pontes-pinto-porto-velho-ro-74m2-id-2622397442/",-8.74561,-63.87146
NA,NA,75,NA,1,NA,NA,NA,2611592578,NA,NA,NA,NA,NA,2,NA,NA,NA,2,180000,NA,"São Francisco, Porto Velho - RO","casas","https://www.zapimoveis.com.br/imovel/venda-casa-2-quartos-com-varanda-sao-francisco-porto-velho-ro-75m2-id-2611592578/",-8.77249,-63.82889
0,NA,180,1,1,NA,0,0,2605186676,NA,0,0,0,0,4,0,0,0,3,220000,0,"Igarape, Porto Velho - RO","casas","https://www.zapimoveis.com.br/imovel/venda-casa-4-quartos-com-cozinha-igarape-porto-velho-ro-180m2-id-2605186676/",-8.74577,-63.85075
NA,NA,300,NA,3,NA,NA,NA,2652715257,NA,NA,NA,NA,NA,3,NA,NA,NA,3,390000,NA,"Cuniã, Porto Velho - RO","casas","https://www.zapimoveis.com.br/imovel/venda-casa-3-quartos-com-varanda-cunia-porto-velho-ro-300m2-id-2652715257/",-8.75162,-63.84755
NA,NA,137,NA,2,NA,NA,NA,2610095896,NA,NA,NA,NA,NA,2,NA,NA,NA,NA,170000,NA,"Rua Rio Preto - Nova Esperança, Porto Velho - RO","casas","https://www.zapimoveis.com.br/imovel/venda-casa-2-quartos-nova-esperanca-porto-velho-ro-137m2-id-2610095896/",-8.718634264818,-63.880952763058
NA,NA,80,NA,1,NA,NA,NA,2571161264,NA,NA,NA,NA,NA,2,NA,NA,NA,2,135000,NA,"Socialista, Porto Velho - RO","casas","https://www.zapimoveis.com.br/imovel/venda-casa-2-quartos-com-varanda-socialista-porto-velho-ro-80m2-id-2571161264/",-8.76078,-63.82748
0,NA,300,1,1,NA,0,0,2653899455,NA,0,0,0,0,2,0,0,0,2,2e+05,0,"Tiradentes, Porto Velho - RO","casas","https://www.zapimoveis.com.br/imovel/venda-casa-2-quartos-com-cozinha-tiradentes-porto-velho-ro-300m2-id-2653899455/",-8.75716,-63.84513
1,NA,200,0,3,NA,0,1,2637897909,NA,1,1,1,1,3,0,0,0,3,950000,1,"Avenida Engenheiro Anysio da Rocha Compasso, 2356 - Aponiã, Porto Velho - RO","casas","https://www.zapimoveis.com.br/imovel/venda-casa-3-quartos-com-piscina-aponia-porto-velho-ro-200m2-id-2637897909/",-8.74344,-63.86143
1,NA,133,0,4,NA,0,1,2638570659,NA,1,1,1,1,3,1,0,0,2,670000,0,"Rua Jamary, 4540 - Pedrinhas, Porto Velho - RO","casas_de_condominio","https://www.zapimoveis.com.br/imovel/venda-casa-de-condominio-3-quartos-com-piscina-pedrinhas-porto-velho-ro-133m2-id-2638570659/",-8.746294262154,-63.906725873733
NA,NA,140,NA,2,NA,NA,NA,2640295754,NA,NA,NA,NA,NA,2,NA,NA,NA,2,150000,NA,"Nova Floresta, Porto Velho - RO","casas","https://www.zapimoveis.com.br/imovel/venda-casa-2-quartos-nova-floresta-porto-velho-ro-140m2-id-2640295754/",-8.78881,-63.89608
0,NA,240,0,2,180,0,0,2648223915,NA,1,0,0,0,3,0,0,0,2,5e+05,0,"Avenida Engenheiro Anysio da Rocha Compasso - Rio Madeira, Porto Velho - RO","casas","https://www.zapimoveis.com.br/imovel/venda-casa-3-quartos-com-piscina-rio-madeira-porto-velho-ro-240m2-id-2648223915/",-8.7368,-63.87546
0,NA,550,0,4,1000,0,1,2639326185,NA,1,0,1,1,4,1,0,0,3,1500000,1,"Avenida Farquar, 3991 - Pedrinhas, Porto Velho - RO","casas","https://www.zapimoveis.com.br/imovel/venda-casa-4-quartos-com-piscina-pedrinhas-porto-velho-ro-550m2-id-2639326185/",-8.744125048993,-63.912768247696
0,NA,140,0,3,NA,0,0,2636134371,NA,0,0,0,0,2,0,0,0,2,375000,1,"Rua Osvaldo Calistro, 6931 - Cuniã, Porto Velho - RO","casas","https://www.zapimoveis.com.br/imovel/venda-casa-2-quartos-cunia-porto-velho-ro-140m2-id-2636134371/",-8.756599979827,-63.850410005008
0,NA,265,0,3,NA,0,0,2649905859,NA,1,0,0,0,4,0,0,0,3,450000,0,"Avenida Guaporé - Lagoinha, Porto Velho - RO","casas","https://www.zapimoveis.com.br/imovel/venda-casa-4-quartos-com-piscina-lagoinha-porto-velho-ro-265m2-id-2649905859/",-8.770640002922,-63.858904980057
NA,NA,176,NA,2,NA,NA,NA,2608057821,1,NA,NA,NA,NA,2,NA,NA,NA,3,390000,NA,"Rua Enredo, 3408 - Cuniã, Porto Velho - RO","casas","https://www.zapimoveis.com.br/imovel/venda-casa-2-quartos-cunia-porto-velho-ro-176m2-id-2608057821/",-8.755044338227,-63.848580292327
NA,NA,130,NA,1,NA,NA,NA,2653893286,NA,NA,NA,NA,NA,1,NA,NA,NA,NA,150000,NA,"Jardim Santana, Porto Velho - RO","casas","https://www.zapimoveis.com.br/imovel/venda-casa-1-quarto-com-cozinha-jardim-santana-porto-velho-ro-130m2-id-2653893286/",-8.75379,-63.8232
NA,NA,180,NA,3,NA,NA,NA,2652269710,NA,NA,NA,NA,NA,2,NA,NA,NA,2,6e+05,NA,"Rua Daniela, 1120 - Aponiã, Porto Velho - RO","casas","https://www.zapimoveis.com.br/imovel/venda-casa-2-quartos-aponia-porto-velho-ro-180m2-id-2652269710/",-8.739652519915,-63.853408374564
NA,NA,540,NA,4,NA,NA,NA,2653899157,NA,NA,NA,NA,NA,7,NA,NA,NA,NA,240000,NA,"Lagoinha, Porto Velho - RO","casas","https://www.zapimoveis.com.br/imovel/venda-casa-7-quartos-lagoinha-porto-velho-ro-540m2-id-2653899157/",-8.76507,-63.85304
NA,NA,107,NA,1,NA,NA,NA,2627274155,NA,NA,NA,NA,NA,3,NA,NA,NA,2,395000,NA,"Avenida dos Imigrantes - Rio Madeira, Porto Velho - RO","casas","https://www.zapimoveis.com.br/imovel/venda-casa-3-quartos-rio-madeira-porto-velho-ro-107m2-id-2627274155/",-8.737026812496,-63.876521841304
0,NA,300,1,2,NA,0,0,2605186282,NA,0,0,0,0,2,0,0,0,2,195000,0,"Cidade Nova, Porto Velho - RO","casas","https://www.zapimoveis.com.br/imovel/venda-casa-2-quartos-com-cozinha-cidade-nova-porto-velho-ro-300m2-id-2605186282/",-8.8101,-63.88007
0,NA,126,1,2,NA,0,0,2605184409,NA,0,0,0,0,3,0,0,0,2,260000,0,"Aponiã, Porto Velho - RO","casas","https://www.zapimoveis.com.br/imovel/venda-casa-3-quartos-com-cozinha-aponia-porto-velho-ro-126m2-id-2605184409/",-8.74344,-63.86143
0,NA,360,1,2,NA,0,0,2557197049,NA,0,0,0,0,2,0,0,0,4,440000,0,"Avenida Calama - Flodoaldo Pontes Pinto, Porto Velho - RO","casas","https://www.zapimoveis.com.br/imovel/venda-casa-2-quartos-com-area-de-servico-flodoaldo-pontes-pinto-porto-velho-ro-360m2-id-2557197049/",-8.744867998087,-63.868060496562
NA,NA,60,NA,2,NA,NA,NA,2605187082,NA,NA,NA,NA,NA,2,NA,NA,NA,2,185000,NA,"Aeroclub, Porto Velho - RO","casas","https://www.zapimoveis.com.br/imovel/venda-casa-2-quartos-com-cozinha-aeroclub-porto-velho-ro-60m2-id-2605187082/",-8.80489,-63.86494
NA,NA,180,NA,2,NA,NA,NA,2621244248,NA,NA,NA,NA,NA,4,NA,NA,NA,3,190000,NA,"Castanheira, Porto Velho - RO","casas","https://www.zapimoveis.com.br/imovel/venda-casa-4-quartos-com-quintal-castanheira-porto-velho-ro-180m2-id-2621244248/",-8.79224,-63.86964
NA,NA,110,NA,3,NA,NA,NA,2640545592,NA,NA,NA,NA,NA,3,NA,NA,NA,2,680000,NA,"Rua Patápio Silva - Flodoaldo Pontes Pinto, Porto Velho - RO","sobrados","https://www.zapimoveis.com.br/imovel/venda-sobrados-3-quartos-flodoaldo-pontes-pinto-porto-velho-ro-110m2-id-2640545592/",-8.74296217795,-63.867430654863
0,NA,300,0,2,NA,0,0,2643273313,697,0,1,0,1,3,0,0,0,2,380000,1,"Rua Petrópolis, n°2930 - Eletronorte, Porto Velho - RO","casas","https://www.zapimoveis.com.br/imovel/venda-casa-3-quartos-com-churrasqueira-eletronorte-porto-velho-ro-300m2-id-2643273313/",-8.800124338219,-63.897966257035
NA,NA,174,NA,1,NA,NA,NA,2621684952,NA,NA,NA,NA,NA,2,NA,NA,NA,2,370000,NA,"Rua Morada Nova - Lagoinha, Porto Velho - RO","casas","https://www.zapimoveis.com.br/imovel/venda-casa-2-quartos-lagoinha-porto-velho-ro-174m2-id-2621684952/",-8.763926455423,-63.85424279901
NA,NA,120,NA,3,NA,NA,NA,2637375482,NA,NA,NA,NA,NA,3,NA,NA,NA,5,250000,NA,"Tancredo Neves, Porto Velho - RO","casas","https://www.zapimoveis.com.br/imovel/venda-casa-3-quartos-tancredo-neves-porto-velho-ro-120m2-id-2637375482/",-8.76255,-63.84388
NA,NA,140,NA,2,NA,NA,NA,2580380528,NA,NA,NA,NA,NA,3,NA,NA,NA,3,280000,NA,"Floresta, Porto Velho - RO","casas","https://www.zapimoveis.com.br/imovel/venda-casa-3-quartos-floresta-porto-velho-ro-140m2-id-2580380528/",-8.77191,-63.88269
0,NA,300,0,3,NA,0,0,2643273318,NA,1,0,0,0,3,0,0,0,3,565000,1,"Avenida dos Imigrantes, n°5047 - Rio Madeira, Porto Velho - RO","casas","https://www.zapimoveis.com.br/imovel/venda-casa-3-quartos-com-piscina-rio-madeira-porto-velho-ro-300m2-id-2643273318/",-8.737110001378,-63.877810027393
0,NA,380,0,3,NA,0,0,2645436458,NA,0,0,0,1,3,0,0,0,2,520000,1,"Rua Dom Basílio, n°85 - Nova Floresta, Porto Velho - RO","casas","https://www.zapimoveis.com.br/imovel/venda-casa-3-quartos-nova-floresta-porto-velho-ro-380m2-id-2645436458/",-8.783700013898,-63.895180012982
NA,NA,280,NA,3,NA,NA,NA,2653502011,NA,NA,NA,NA,NA,4,NA,NA,NA,4,550000,NA,"Rua Beatriz - Maringa, Porto Velho - RO","casas","https://www.zapimoveis.com.br/imovel/venda-casa-4-quartos-maringa-porto-velho-ro-280m2-id-2653502011/",-8.7419899886,-63.835030009413
NA,NA,200,NA,4,NA,NA,NA,2580837525,NA,NA,NA,NA,NA,2,NA,NA,NA,2,390000,NA,"Rua Padre Chiquinho - São João Bosco, Porto Velho - RO","casas","https://www.zapimoveis.com.br/imovel/venda-casa-2-quartos-com-armario-embutido-sao-joao-bosco-porto-velho-ro-200m2-id-2580837525/",-8.745629740407,-63.897948081114
NA,NA,345,NA,3,NA,NA,NA,2585542594,NA,NA,NA,NA,NA,4,NA,NA,NA,2,750000,NA,"Rua Norton Carpes, 5182 - Agenor de Carvalho, Porto Velho - RO","casas","https://www.zapimoveis.com.br/imovel/venda-casa-4-quartos-agenor-de-carvalho-porto-velho-ro-345m2-id-2585542594/",-8.754770000817,-63.866920007331
1,NA,230,0,4,400,0,1,2575385182,NA,1,1,1,1,3,1,0,0,4,1150000,0,"Avenida Alphaville - Alphaville, Porto Velho - RO","casas","https://www.zapimoveis.com.br/imovel/venda-casa-3-quartos-com-piscina-alphaville-porto-velho-ro-230m2-id-2575385182/",-23.492786949133,-46.852396937353
NA,NA,170,NA,2,NA,NA,NA,2582334792,NA,NA,NA,NA,NA,3,NA,NA,NA,3,315000,NA,"Rua Eudóxia Barros, 6050 - Aponiã, Porto Velho - RO","casas","https://www.zapimoveis.com.br/imovel/venda-casa-3-quartos-aponia-porto-velho-ro-170m2-id-2582334792/",-8.739620004194,-63.861950041662
NA,NA,800,NA,3,NA,NA,NA,2639328511,NA,NA,NA,NA,NA,4,NA,NA,NA,5,1100000,NA,"Rua Joaquim Nabuco, 1773 - São Cristóvão, Porto Velho - RO","sobrados","https://www.zapimoveis.com.br/imovel/venda-sobrados-4-quartos-sao-cristovao-porto-velho-ro-800m2-id-2639328511/",-8.76612999419,-63.897270040539
NA,2,300,NA,5,NA,NA,NA,2633592514,NA,NA,NA,NA,NA,4,NA,NA,NA,2,480000,NA,"Rua Marechal Deodoro, 1569 - Santa Barbara, Porto Velho - RO","casas","https://www.zapimoveis.com.br/imovel/venda-casa-4-quartos-santa-barbara-porto-velho-ro-300m2-id-2633592514/",-8.767668811165,-63.898080852261
1,NA,163,0,3,NA,0,1,2649155603,NA,1,1,1,1,3,1,0,0,2,790000,0,"Avenida Prefeito Chiquilito Erse, 3230 - Rio Madeira, Porto Velho - RO","casas_de_condominio","https://www.zapimoveis.com.br/imovel/venda-casa-de-condominio-3-quartos-com-piscina-rio-madeira-porto-velho-ro-163m2-id-2649155603/",-8.740290011624,-63.878304978776
NA,NA,80,NA,1,NA,NA,NA,2644427478,NA,NA,NA,NA,NA,3,NA,NA,NA,2,80000,NA,"São Francisco, Porto Velho - RO","casas","https://www.zapimoveis.com.br/imovel/venda-casa-3-quartos-com-quintal-sao-francisco-porto-velho-ro-80m2-id-2644427478/",-8.77249,-63.82889
NA,NA,150,NA,1,NA,NA,NA,2619032858,NA,NA,NA,NA,NA,3,NA,NA,NA,1,270000,NA,"Rua Litorânea, 2471 - Flodoaldo Pontes Pinto, Porto Velho - RO","casas","https://www.zapimoveis.com.br/imovel/venda-casa-3-quartos-flodoaldo-pontes-pinto-porto-velho-ro-150m2-id-2619032858/",-8.750589987613,-63.866120038492
0,NA,360,1,1,NA,0,0,2652690797,NA,0,0,0,0,3,0,0,0,5,490000,0,"Flodoaldo Pontes Pinto, Porto Velho - RO","casas","https://www.zapimoveis.com.br/imovel/venda-casa-3-quartos-com-churrasqueira-flodoaldo-pontes-pinto-porto-velho-ro-360m2-id-2652690797/",-8.74561,-63.87146
0,NA,126,0,2,210,0,0,2644990620,NA,0,1,1,1,3,1,0,0,2,235000,0,"Rua Principal, 850 - Novo Horizonte, Porto Velho - RO","casas_de_condominio","https://www.zapimoveis.com.br/imovel/venda-casa-de-condominio-3-quartos-com-churrasqueira-novo-horizonte-porto-velho-ro-126m2-id-2644990620/",-8.803288904303,-63.896336783806
0,NA,110,0,1,NA,0,1,2638535676,NA,1,1,1,1,3,1,0,0,2,580000,0,"Rua Thales Benevides, 4705 - Rio Madeira, Porto Velho - RO","casas_de_condominio","https://www.zapimoveis.com.br/imovel/venda-casa-de-condominio-3-quartos-com-piscina-rio-madeira-porto-velho-ro-110m2-id-2638535676/",-8.737235028803,-63.873485092463
NA,NA,3780,NA,3,NA,NA,NA,2653502294,NA,NA,NA,NA,NA,4,NA,NA,NA,3,5e+05,NA,"Rua Ana Oliveira - Cascalheira, Porto Velho - RO","casas","https://www.zapimoveis.com.br/imovel/venda-casa-4-quartos-cascalheira-porto-velho-ro-3780m2-id-2653502294/",-8.773196556521,-63.832914787627
1,NA,72,0,2,190,0,0,2652293161,NA,0,1,0,1,3,1,0,0,NA,54990,0,"Bairro Novo, Porto Velho - RO","casas","https://www.zapimoveis.com.br/imovel/venda-casa-3-quartos-com-academia-bairro-novo-porto-velho-ro-72m2-id-2652293161/",-8.80696,-63.80542
0,NA,280,1,4,NA,0,0,2592923527,1,0,0,0,0,4,0,0,0,3,5e+05,0,"Rua Valdemar Estrela, 5391 - Rio Madeira, Porto Velho - RO","casas","https://www.zapimoveis.com.br/imovel/venda-casa-4-quartos-com-cerca-rio-madeira-porto-velho-ro-280m2-id-2592923527/",-8.73794001934,-63.874119978339
NA,NA,150,NA,2,NA,NA,NA,2609580491,NA,NA,NA,NA,NA,3,NA,NA,NA,3,360000,NA,"Nova Esperança, Porto Velho - RO","casas","https://www.zapimoveis.com.br/imovel/venda-casa-3-quartos-com-varanda-nova-esperanca-porto-velho-ro-150m2-id-2609580491/",-8.72702,-63.89266
0,NA,74,1,1,NA,0,0,2642657192,NA,1,0,0,1,3,0,0,0,2,310000,1,"Nova Esperança, Porto Velho - RO","casas","https://www.zapimoveis.com.br/imovel/venda-casa-3-quartos-com-piscina-nova-esperanca-porto-velho-ro-74m2-id-2642657192/",-8.72702,-63.89266
0,NA,480,1,2,NA,0,0,2629208700,150,1,0,0,0,4,0,0,0,4,5e+05,0,"Avenida Engº Anysio da Rocha Compasso - Rio Madeira, Porto Velho - RO","casas","https://www.zapimoveis.com.br/imovel/venda-casa-4-quartos-com-piscina-rio-madeira-porto-velho-ro-480m2-id-2629208700/",-8.7368,-63.87546
0,NA,187,1,3,NA,0,0,2601624671,450,0,0,0,0,3,0,0,0,3,280000,0,"Flodoaldo Pontes Pinto, Porto Velho - RO","casas","https://www.zapimoveis.com.br/imovel/venda-casa-3-quartos-com-varanda-flodoaldo-pontes-pinto-porto-velho-ro-187m2-id-2601624671/",-8.74561,-63.87146
0,NA,235,1,3,NA,0,0,2529359899,650,0,0,0,0,4,0,0,0,4,650000,0,"Rua Afonso Pena, 1032 - Nossa Sra. das Graças, Porto Velho - RO","casas","https://www.zapimoveis.com.br/imovel/venda-casa-4-quartos-mobiliado-nossa-sra-das-gracas-porto-velho-ro-235m2-id-2529359899/",-8.761669983511,-63.894039990331
NA,NA,250,NA,2,NA,NA,NA,2561261959,NA,NA,NA,NA,NA,4,NA,NA,NA,5,269999,NA,"Juscelino Kubitschek, Porto Velho - RO","casas","https://www.zapimoveis.com.br/imovel/venda-casa-4-quartos-com-varanda-juscelino-kubitschek-porto-velho-ro-250m2-id-2561261959/",-8.76975,-63.84226
NA,NA,275,NA,2,NA,NA,NA,2646169157,NA,NA,NA,NA,NA,3,NA,NA,NA,2,465000,NA,"Rua Paulo Fortes - Aponiã, Porto Velho - RO","casas","https://www.zapimoveis.com.br/imovel/venda-casa-3-quartos-aponia-porto-velho-ro-275m2-id-2646169157/",-8.739385317397,-63.858919999322
0,NA,142,1,3,NA,0,0,2627399763,NA,0,0,0,0,4,0,0,0,4,420000,0,"Rua Major Amarante - Centro, Porto Velho - RO","casas","https://www.zapimoveis.com.br/imovel/venda-casa-4-quartos-centro-porto-velho-ro-142m2-id-2627399763/",-8.762419385137,-63.910741356128
0,NA,400,1,2,NA,0,0,2557198758,NA,0,0,0,0,2,0,0,0,2,270000,0,"Avenida José Vieira Caúla, 1781 - Agenor de Carvalho, Porto Velho - RO","casas","https://www.zapimoveis.com.br/imovel/venda-casa-2-quartos-com-varanda-agenor-de-carvalho-porto-velho-ro-400m2-id-2557198758/",-8.754285519196,-63.86781782764
0,NA,131,1,2,NA,0,0,2605186191,NA,0,0,0,0,3,0,0,0,1,350000,0,"Flodoaldo Pontes Pinto, Porto Velho - RO","sobrados","https://www.zapimoveis.com.br/imovel/venda-sobrados-3-quartos-com-cozinha-flodoaldo-pontes-pinto-porto-velho-ro-131m2-id-2605186191/",-8.74561,-63.87146
0,NA,232,1,3,NA,0,0,2653899061,NA,0,0,0,0,4,0,0,0,4,550000,0,"Flodoaldo Pontes Pinto, Porto Velho - RO","casas","https://www.zapimoveis.com.br/imovel/venda-casa-4-quartos-com-cozinha-flodoaldo-pontes-pinto-porto-velho-ro-232m2-id-2653899061/",-8.74561,-63.87146
NA,NA,250,NA,2,NA,NA,NA,2571045950,580,NA,NA,NA,NA,5,NA,NA,NA,2,3e+05,NA,"Rua Aroeira, 5587 - Cohab, Porto Velho - RO","casas","https://www.zapimoveis.com.br/imovel/venda-casa-5-quartos-cohab-porto-velho-ro-250m2-id-2571045950/",-8.792229983393,-63.876609990316
0,NA,150,1,1,NA,0,0,2624496822,NA,0,0,0,0,3,0,0,0,2,450000,0,"Avenida Rio de Janeiro - Areal, Porto Velho - RO","casas","https://www.zapimoveis.com.br/imovel/venda-casa-3-quartos-com-cozinha-areal-porto-velho-ro-150m2-id-2624496822/",-8.774624202341,-63.896361880977
0,NA,70,1,2,NA,0,0,2646241659,NA,0,0,0,0,3,0,0,0,1,330000,0,"Juscelino Kubitschek, Porto Velho - RO","casas","https://www.zapimoveis.com.br/imovel/venda-casa-3-quartos-com-cozinha-juscelino-kubitschek-porto-velho-ro-70m2-id-2646241659/",-8.76975,-63.84226
NA,NA,250,NA,1,NA,NA,NA,2651799819,NA,NA,NA,NA,NA,3,NA,NA,NA,3,190000,NA,"Nova Esperança, Porto Velho - RO","casas","https://www.zapimoveis.com.br/imovel/venda-casa-3-quartos-com-churrasqueira-nova-esperanca-porto-velho-ro-250m2-id-2651799819/",-8.72702,-63.89266
NA,NA,200,NA,1,NA,NA,NA,2584544911,NA,NA,NA,NA,NA,3,NA,NA,NA,4,5e+05,NA,"Rua Dom Pedro II, 1868 - Nossa Sra. das Graças, Porto Velho - RO","casas","https://www.zapimoveis.com.br/imovel/venda-casa-3-quartos-com-cerca-nossa-sra-das-gracas-porto-velho-ro-200m2-id-2584544911/",-8.760690013301,-63.894490014713
0,NA,75,0,1,NA,0,1,2613814213,NA,0,1,0,1,2,0,0,0,2,210000,0,"Bairro Novo, Porto Velho - RO","casas","https://www.zapimoveis.com.br/imovel/venda-casa-2-quartos-com-churrasqueira-bairro-novo-porto-velho-ro-75m2-id-2613814213/",-8.80696,-63.80542
NA,NA,200,NA,2,NA,NA,NA,2646155541,NA,NA,NA,NA,NA,4,NA,NA,NA,2,490000,NA,"Rua Portuguesa, 22 - Três Marias, Porto Velho - RO","casas","https://www.zapimoveis.com.br/imovel/venda-casa-4-quartos-tres-marias-porto-velho-ro-200m2-id-2646155541/",-8.772464241901,-63.852193665945
NA,NA,134,NA,3,NA,NA,NA,2636727218,NA,NA,NA,NA,NA,3,NA,NA,NA,2,730000,NA,"Rua Aparício Moraes - Industrial, Porto Velho - RO","sobrados","https://www.zapimoveis.com.br/imovel/venda-sobrados-3-quartos-industrial-porto-velho-ro-134m2-id-2636727218/",-8.735559998888,-63.891010016152
0,NA,270,0,3,NA,0,0,2651264858,NA,1,0,0,0,2,0,0,0,3,260000,0,"Rua Raimundo Nonato da Silva, n°643 - Baixa União, Porto Velho - RO","casas","https://www.zapimoveis.com.br/imovel/venda-casa-2-quartos-com-piscina-baixa-uniao-porto-velho-ro-270m2-id-2651264858/",-8.772977810591,-63.904272487905
NA,NA,150,NA,2,NA,NA,NA,2549916423,550,NA,NA,NA,NA,3,NA,NA,NA,3,560000,NA,"Rua Duque de Caxias, 170 - Centro, Porto Velho - RO","casas","https://www.zapimoveis.com.br/imovel/venda-casa-3-quartos-centro-porto-velho-ro-150m2-id-2549916423/",-8.758523524843,-63.895027599163
0,NA,118,1,4,NA,0,0,2653898957,NA,1,0,0,0,3,0,0,0,6,5e+05,0,"Agenor de Carvalho, Porto Velho - RO","casas","https://www.zapimoveis.com.br/imovel/venda-casa-3-quartos-com-piscina-agenor-de-carvalho-porto-velho-ro-118m2-id-2653898957/",-8.75794,-63.87141
0,NA,110,1,1,130,0,0,2648802723,NA,1,0,0,0,2,0,0,0,2,280000,0,"Novo Horizonte, Porto Velho - RO","casas","https://www.zapimoveis.com.br/imovel/venda-casa-2-quartos-com-piscina-novo-horizonte-porto-velho-ro-110m2-id-2648802723/",-8.80156,-63.8946
0,NA,120,0,2,300,0,0,2648564527,370,1,0,0,0,3,0,0,0,2,407000,0,"Rua Secundária - Novo Horizonte, Porto Velho - RO","casas","https://www.zapimoveis.com.br/imovel/venda-casa-3-quartos-com-piscina-novo-horizonte-porto-velho-ro-120m2-id-2648564527/",-8.806140806726,-63.898009801347
0,NA,205,0,3,600,0,0,2647293192,NA,0,1,1,1,3,1,0,0,2,1380000,0,"Avenida dos Imigrantes, 1 - Rio Madeira, Porto Velho - RO","casas","https://www.zapimoveis.com.br/imovel/venda-casa-3-quartos-com-churrasqueira-rio-madeira-porto-velho-ro-205m2-id-2647293192/",-8.737026812496,-63.876521841304
0,NA,100,1,2,NA,0,0,2605185880,NA,0,0,0,0,3,0,0,0,6,250000,0,"Rio Madeira, Porto Velho - RO","casas","https://www.zapimoveis.com.br/imovel/venda-casa-3-quartos-com-cozinha-rio-madeira-porto-velho-ro-100m2-id-2605185880/",-8.7368,-63.87546
0,NA,180,1,2,NA,0,0,2646175182,NA,0,0,0,0,2,0,0,0,2,220000,0,"Rua Perci Holder, 3453 - Cidade Nova, Porto Velho - RO","casas","https://www.zapimoveis.com.br/imovel/venda-casa-2-quartos-com-lavanderia-coletiva-cidade-nova-porto-velho-ro-180m2-id-2646175182/",-8.807547794828,-63.886381035913
0,NA,133,1,4,NA,0,0,2654360349,NA,1,0,0,0,3,0,0,0,2,660000,0,"Rua Aparício Moraes, 4709 - Industrial, Porto Velho - RO","sobrados","https://www.zapimoveis.com.br/imovel/venda-sobrados-3-quartos-com-piscina-industrial-porto-velho-ro-133m2-id-2654360349/",-8.735559998888,-63.891010016152
NA,NA,98,NA,2,NA,NA,NA,2631989740,550,NA,NA,NA,NA,1,NA,NA,NA,2,420000,NA,"Avenida Engº Anysio da Rocha Compasso, 215 - Aponiã, Porto Velho - RO","casas","https://www.zapimoveis.com.br/imovel/venda-casa-1-quarto-aponia-porto-velho-ro-98m2-id-2631989740/",-8.73416334075,-63.864059002895
NA,NA,90,NA,1,NA,NA,NA,2562905510,NA,NA,NA,NA,NA,3,NA,NA,NA,4,3e+05,NA,"Rua Padre Ângelo Cerri, 2446 - Liberdade, Porto Velho - RO","casas","https://www.zapimoveis.com.br/imovel/venda-casa-3-quartos-liberdade-porto-velho-ro-90m2-id-2562905510/",-8.745589373722,-63.892547277782
NA,NA,100,NA,2,NA,NA,NA,2651656561,NA,NA,NA,NA,NA,3,NA,NA,NA,2,430000,NA,"Rua Elvira Jonhson - Flodoaldo Pontes Pinto, Porto Velho - RO","casas","https://www.zapimoveis.com.br/imovel/venda-casa-3-quartos-flodoaldo-pontes-pinto-porto-velho-ro-100m2-id-2651656561/",-8.748831679302,-63.870767614185
NA,NA,150,NA,2,NA,NA,NA,2643854187,NA,NA,NA,NA,NA,3,NA,NA,NA,2,250000,NA,"Rua Pinheiro, 2196 - Nova Floresta, Porto Velho - RO","casas","https://www.zapimoveis.com.br/imovel/venda-casa-3-quartos-nova-floresta-porto-velho-ro-150m2-id-2643854187/",-8.789009991469,-63.884600039518
NA,NA,42,NA,1,NA,NA,NA,2559875914,224,NA,NA,NA,NA,3,NA,NA,NA,NA,350000,NA,"Rua da Platina - Flodoaldo Pontes Pinto, Porto Velho - RO","casas","https://www.zapimoveis.com.br/imovel/venda-casa-3-quartos-flodoaldo-pontes-pinto-porto-velho-ro-42m2-id-2559875914/",-8.745108088818,-63.876924415706
0,NA,200,0,2,NA,0,0,2646209564,NA,1,0,0,0,3,0,0,0,2,5e+05,0,"Avenida Engenheiro Anysio da Rocha Compasso, n°47 - Aponiã, Porto Velho - RO","casas","https://www.zapimoveis.com.br/imovel/venda-casa-3-quartos-mobiliado-aponia-porto-velho-ro-200m2-id-2646209564/",-8.74344,-63.86143
1,NA,74,0,2,NA,0,1,2637410474,NA,1,1,1,1,3,1,0,0,2,280000,0,"Rua Santa Luzia, SN - Nova Esperança, Porto Velho - RO","casas","https://www.zapimoveis.com.br/imovel/venda-casa-3-quartos-com-piscina-nova-esperanca-porto-velho-ro-74m2-id-2637410474/",-8.704536733149,-63.868456997836
0,NA,197,1,1,NA,0,0,2638162996,600,0,0,0,0,2,0,0,0,2,3e+05,0,"Beco Alto Paraíso - Panair, Porto Velho - RO","casas","https://www.zapimoveis.com.br/imovel/venda-casa-2-quartos-com-cozinha-panair-porto-velho-ro-197m2-id-2638162996/",-8.75089448843,-63.913389191884
0,NA,120,1,4,NA,0,0,2619572293,NA,0,0,0,0,4,0,0,0,4,330000,0,"Nova Esperança, Porto Velho - RO","casas","https://www.zapimoveis.com.br/imovel/venda-casa-4-quartos-com-varanda-nova-esperanca-porto-velho-ro-120m2-id-2619572293/",-8.72702,-63.89266
0,NA,436,1,4,NA,0,0,2638501970,NA,1,0,0,0,3,0,0,0,1,330000,1,"Nova Esperança, Porto Velho - RO","casas","https://www.zapimoveis.com.br/imovel/venda-casa-3-quartos-com-piscina-nova-esperanca-porto-velho-ro-436m2-id-2638501970/",-8.72702,-63.89266
NA,NA,113,NA,2,NA,NA,NA,2601153870,373,NA,NA,NA,NA,3,NA,NA,NA,2,230000,NA,"Rua Luiz de Camões, 6208 - Aponiã, Porto Velho - RO","casas","https://www.zapimoveis.com.br/imovel/venda-casa-3-quartos-com-ar-condicionado-aponia-porto-velho-ro-113m2-id-2601153870/",-8.734710062135,-63.86062267548
NA,NA,220,NA,2,NA,NA,NA,2645847049,NA,NA,NA,NA,NA,3,NA,NA,NA,2,450000,NA,"Três Marias, Porto Velho - RO","casas","https://www.zapimoveis.com.br/imovel/venda-casa-3-quartos-com-varanda-tres-marias-porto-velho-ro-220m2-id-2645847049/",-8.77958,-63.85694
NA,NA,120,NA,2,NA,NA,NA,2642855179,NA,NA,NA,NA,NA,2,NA,NA,NA,3,160000,NA,"Tancredo Neves, Porto Velho - RO","casas","https://www.zapimoveis.com.br/imovel/venda-casa-2-quartos-com-varanda-tancredo-neves-porto-velho-ro-120m2-id-2642855179/",-8.76255,-63.84388
NA,NA,260,NA,5,NA,NA,NA,2632110508,NA,NA,NA,NA,NA,4,NA,NA,NA,NA,390000,NA,"Rua Caetano Donizete, 2840 - Aponiã, Porto Velho - RO","casas","https://www.zapimoveis.com.br/imovel/venda-casa-4-quartos-aponia-porto-velho-ro-260m2-id-2632110508/",-8.73708178975,-63.856227860187
NA,NA,350,NA,1,NA,NA,NA,2618067869,NA,NA,NA,NA,NA,3,NA,NA,NA,1,4e+05,NA,"Rua Quintino Bocaiúva, 2631 - São Cristóvão, Porto Velho - RO","casas","https://www.zapimoveis.com.br/imovel/venda-casa-3-quartos-sao-cristovao-porto-velho-ro-350m2-id-2618067869/",-8.755099996345,-63.889909975179
1,NA,73,1,2,330,0,1,2613390666,NA,1,1,0,1,3,0,0,0,2,290000,0,"Industrial, Porto Velho - RO","casas","https://www.zapimoveis.com.br/imovel/venda-casa-3-quartos-com-piscina-industrial-porto-velho-ro-73m2-id-2613390666/",-8.73905,-63.88666
NA,NA,213,NA,2,NA,NA,NA,2654200320,1288,NA,NA,NA,NA,3,NA,NA,NA,2,350000,NA,"Rua Buenos Aires, n°789 - Nova Porto Velho, Porto Velho - RO","casas","https://www.zapimoveis.com.br/imovel/venda-casa-3-quartos-com-lavanderia-coletiva-nova-porto-velho-porto-velho-ro-213m2-id-2654200320/",-8.767060008257,-63.880219992194
NA,NA,200,NA,4,NA,NA,NA,2650776954,NA,NA,NA,NA,NA,4,NA,NA,NA,2,450000,NA,"Rua Governador Ari Marcos - Agenor de Carvalho, Porto Velho - RO","casas","https://www.zapimoveis.com.br/imovel/venda-casa-4-quartos-agenor-de-carvalho-porto-velho-ro-200m2-id-2650776954/",-8.7572344754,-63.867092404753
NA,1,40,NA,1,NA,NA,NA,2611490815,NA,NA,NA,NA,NA,1,NA,NA,NA,2,50000,NA,"Planalto, Porto Velho - RO","casas","https://www.zapimoveis.com.br/imovel/venda-casa-1-quarto-planalto-porto-velho-ro-40m2-id-2611490815/",-8.74058,-63.84822
NA,NA,300,NA,3,NA,NA,NA,2646952771,NA,NA,NA,NA,NA,3,NA,NA,NA,5,1200000,NA,"Rua Pio XII - Liberdade, Porto Velho - RO","casas","https://www.zapimoveis.com.br/imovel/venda-casa-3-quartos-liberdade-porto-velho-ro-300m2-id-2646952771/",-8.746471942992,-63.89128507867
0,NA,204,1,2,NA,0,0,2605186374,NA,0,0,0,0,4,0,0,0,6,275000,0,"Floresta, Porto Velho - RO","casas","https://www.zapimoveis.com.br/imovel/venda-casa-4-quartos-com-ar-condicionado-floresta-porto-velho-ro-204m2-id-2605186374/",-8.77191,-63.88269
NA,1,300,NA,3,NA,NA,NA,2612269480,NA,NA,NA,NA,NA,3,NA,NA,NA,4,650000,NA,"Rua Antônio Casal, 4713 - Rio Madeira, Porto Velho - RO","casas","https://www.zapimoveis.com.br/imovel/venda-casa-3-quartos-rio-madeira-porto-velho-ro-300m2-id-2612269480/",-8.735219530096,-63.87797151808
0,NA,600,1,4,NA,0,0,2644006385,NA,0,0,0,0,3,0,0,0,5,680000,0,"Escola De Policia, Porto Velho - RO","sobrados","https://www.zapimoveis.com.br/imovel/venda-sobrados-3-quartos-com-cozinha-escola-de-policia-porto-velho-ro-600m2-id-2644006385/",-8.75388,-63.84585
0,NA,74,1,2,NA,0,0,2571771920,NA,1,1,0,1,3,1,0,0,NA,150000,0,"Nova Esperança, Porto Velho - RO","casas","https://www.zapimoveis.com.br/imovel/venda-casa-3-quartos-com-piscina-nova-esperanca-porto-velho-ro-74m2-id-2571771920/",-8.72702,-63.89266
0,NA,60,0,2,270,0,0,2589762241,1,0,0,1,0,3,0,0,0,2,160000,0,"Rua Jardins, 113 - Bairro Novo, Porto Velho - RO","casas","https://www.zapimoveis.com.br/imovel/venda-casa-3-quartos-bairro-novo-porto-velho-ro-60m2-id-2589762241/",-8.811402920515,-63.807932522254
1,2,400,1,6,1100,0,0,2647058260,700,1,1,0,1,4,1,0,0,4,1700000,0,"Rua Cipriano Gurgel, 4335 - Industrial, Porto Velho - RO","casas_de_condominio","https://www.zapimoveis.com.br/imovel/venda-casa-de-condominio-4-quartos-mobiliado-industrial-porto-velho-ro-400m2-id-2647058260/",-8.741150608493,-63.88441271723
0,NA,180,1,3,NA,0,0,2627402162,NA,0,0,0,0,3,0,0,0,NA,265000,0,"Rua das Orquídeas - Eldorado, Porto Velho - RO","casas","https://www.zapimoveis.com.br/imovel/venda-casa-3-quartos-eldorado-porto-velho-ro-180m2-id-2627402162/",-8.784201754482,-63.871079083227
NA,NA,110,NA,1,70,NA,NA,2626264166,NA,NA,NA,NA,NA,2,NA,NA,NA,2,265000,NA,"Rua Principal - Novo Horizonte, Porto Velho - RO","casas","https://www.zapimoveis.com.br/imovel/venda-casa-2-quartos-com-cozinha-novo-horizonte-porto-velho-ro-110m2-id-2626264166/",-8.809214029945,-63.895441134448
0,NA,200,0,2,180,0,0,2615811517,NA,0,1,1,1,3,1,0,0,3,5e+05,1,"Avenida Engº Anysio da Rocha Compasso, 6791 - Rio Madeira, Porto Velho - RO","casas","https://www.zapimoveis.com.br/imovel/venda-casa-3-quartos-com-playground-rio-madeira-porto-velho-ro-200m2-id-2615811517/",-8.7368,-63.87546
NA,NA,240,NA,3,NA,NA,NA,2637209774,NA,NA,NA,NA,NA,4,NA,NA,NA,3,645000,NA,"Avenida Lauro Sodré, 2450 - São João Bosco, Porto Velho - RO","casas","https://www.zapimoveis.com.br/imovel/venda-casa-4-quartos-sao-joao-bosco-porto-velho-ro-240m2-id-2637209774/",-8.742747591316,-63.90258482476
NA,NA,144,NA,2,NA,NA,NA,2650776665,NA,NA,NA,NA,NA,3,NA,NA,NA,3,380000,NA,"Rua Eudóxia Barros - Aponiã, Porto Velho - RO","casas","https://www.zapimoveis.com.br/imovel/venda-casa-3-quartos-aponia-porto-velho-ro-144m2-id-2650776665/",-8.738709760453,-63.858403971748
0,NA,67,0,2,NA,0,0,2603830483,NA,1,1,0,0,3,0,0,0,2,308900,0,"Rua Ernandes Indio - Planalto, Porto Velho - RO","casas","https://www.zapimoveis.com.br/imovel/venda-casa-3-quartos-com-piscina-planalto-porto-velho-ro-67m2-id-2603830483/",-8.735914268318,-63.837604494163
0,NA,100,0,1,180,0,0,2568736420,NA,0,0,1,0,3,0,0,0,NA,210000,0,"Avenida Engº Anysio da Rocha Compasso, 141 - Aponiã, Porto Velho - RO","casas","https://www.zapimoveis.com.br/imovel/venda-casa-3-quartos-com-acesso-24-horas-aponia-porto-velho-ro-100m2-id-2568736420/",-8.73416334075,-63.864059002895
0,NA,60,0,2,200,0,1,2561262058,NA,0,1,0,1,3,1,0,0,2,230000,0,"Bairro Novo, Porto Velho - RO","casas","https://www.zapimoveis.com.br/imovel/venda-casa-3-quartos-com-churrasqueira-bairro-novo-porto-velho-ro-60m2-id-2561262058/",-8.80696,-63.80542
NA,NA,78,NA,1,NA,NA,NA,2639995585,NA,NA,NA,NA,NA,2,NA,NA,NA,NA,3e+05,NA,"Nova Esperança, Porto Velho - RO","casas","https://www.zapimoveis.com.br/imovel/venda-casa-2-quartos-nova-esperanca-porto-velho-ro-78m2-id-2639995585/",-8.72702,-63.89266
0,NA,72,0,2,NA,0,0,2650152869,NA,1,1,0,0,3,1,0,0,NA,270000,0,"Aeroclub, Porto Velho - RO","casas","https://www.zapimoveis.com.br/imovel/venda-casa-3-quartos-com-piscina-aeroclub-porto-velho-ro-72m2-id-2650152869/",-8.80489,-63.86494
NA,NA,78,NA,2,NA,NA,NA,2642523264,NA,NA,NA,NA,NA,2,NA,NA,NA,2,245000,NA,"Avenida Engenheiro Anysio da Rocha Compasso, 10000 - Aponiã, Porto Velho - RO","casas","https://www.zapimoveis.com.br/imovel/venda-casa-2-quartos-aponia-porto-velho-ro-78m2-id-2642523264/",-8.74344,-63.86143
0,NA,120,1,2,NA,0,0,2653899557,NA,0,0,0,0,2,0,0,0,2,230000,0,"Eletronorte, Porto Velho - RO","casas","https://www.zapimoveis.com.br/imovel/venda-casa-2-quartos-com-cozinha-eletronorte-porto-velho-ro-120m2-id-2653899557/",-8.79129,-63.89555
0,NA,74,0,2,235,0,0,2626535828,NA,0,1,0,1,2,0,0,0,1,210000,0,"Três Marias, Porto Velho - RO","casas","https://www.zapimoveis.com.br/imovel/venda-casa-2-quartos-tres-marias-porto-velho-ro-74m2-id-2626535828/",-8.77958,-63.85694
NA,NA,110,NA,1,NA,NA,NA,2636759444,140,NA,NA,NA,NA,2,NA,NA,NA,NA,170000,NA,"Rua Teodora Lopes - São Francisco, Porto Velho - RO","casas","https://www.zapimoveis.com.br/imovel/venda-casa-2-quartos-sao-francisco-porto-velho-ro-110m2-id-2636759444/",-8.77430360628,-63.827926779839
NA,NA,240,NA,3,NA,NA,NA,2636727219,NA,NA,NA,NA,NA,3,NA,NA,NA,6,510000,NA,"Rua Ananias Ferreira de Andrade - Cuniã, Porto Velho - RO","casas","https://www.zapimoveis.com.br/imovel/venda-casa-3-quartos-cunia-porto-velho-ro-240m2-id-2636727219/",-8.755941790427,-63.859276727349
NA,NA,75,NA,1,NA,NA,NA,2581054825,NA,NA,NA,NA,NA,2,NA,NA,NA,2,175000,NA,"Rua Marau, 222 - Castanheira, Porto Velho - RO","casas","https://www.zapimoveis.com.br/imovel/venda-casa-2-quartos-castanheira-porto-velho-ro-75m2-id-2581054825/",-8.803760003673,-63.868824962465
0,NA,280,1,2,NA,0,0,2653899355,NA,0,0,0,0,4,0,0,0,2,450000,0,"Olaria, Porto Velho - RO","casas","https://www.zapimoveis.com.br/imovel/venda-casa-4-quartos-com-cozinha-olaria-porto-velho-ro-280m2-id-2653899355/",-8.75634,-63.90316
NA,NA,200,NA,2,NA,NA,NA,2632817055,NA,NA,NA,NA,NA,3,NA,NA,NA,2,350000,NA,"Avenida Calama, 1126 - Olaria, Porto Velho - RO","casas","https://www.zapimoveis.com.br/imovel/venda-casa-3-quartos-olaria-porto-velho-ro-200m2-id-2632817055/",-8.752846726724,-63.90468652363
NA,NA,141152,NA,2,NA,NA,NA,2633211500,NA,NA,NA,NA,NA,2,NA,NA,NA,2,375000,NA,"Rua Angico, 4161 - Conceição, Porto Velho - RO","casas","https://www.zapimoveis.com.br/imovel/venda-casa-2-quartos-conceicao-porto-velho-ro-141152m2-id-2633211500/",-8.794190007632,-63.888350019179
NA,NA,103,NA,1,NA,NA,NA,2636727668,NA,NA,NA,NA,NA,2,NA,NA,NA,2,380000,NA,"Rua Andréia - Igarape, Porto Velho - RO","sobrados","https://www.zapimoveis.com.br/imovel/venda-sobrados-2-quartos-igarape-porto-velho-ro-103m2-id-2636727668/",-8.745526300035,-63.855515651041
0,NA,100,0,1,NA,0,0,2643851369,NA,0,0,0,0,2,0,0,0,NA,350000,1,"Socialista, Porto Velho - RO","casas","https://www.zapimoveis.com.br/imovel/venda-casa-2-quartos-com-cozinha-socialista-porto-velho-ro-100m2-id-2643851369/",-8.76078,-63.82748
0,NA,211,1,3,NA,0,0,2633061300,NA,0,0,0,0,5,0,0,0,5,385000,0,"Rua Fonte Nova, 4900 - Flodoaldo Pontes Pinto, Porto Velho - RO","casas","https://www.zapimoveis.com.br/imovel/venda-casa-5-quartos-mobiliado-flodoaldo-pontes-pinto-porto-velho-ro-211m2-id-2633061300/",-8.750771319959,-63.870456521862
NA,NA,194,NA,1,NA,NA,NA,2644962485,NA,NA,NA,NA,NA,3,NA,NA,NA,2,6e+05,NA,"Rua Cascavel, 3160 - Tiradentes, Porto Velho - RO","casas","https://www.zapimoveis.com.br/imovel/venda-casa-3-quartos-tiradentes-porto-velho-ro-194m2-id-2644962485/",-8.759982144487,-63.856044720317
NA,NA,245,NA,2,NA,NA,NA,2578132165,NA,NA,NA,NA,NA,4,NA,NA,NA,3,470000,NA,"Rua Alípio da Silva, 5825 - Cuniã, Porto Velho - RO","casas","https://www.zapimoveis.com.br/imovel/venda-casa-4-quartos-cunia-porto-velho-ro-245m2-id-2578132165/",-8.758194605957,-63.860045317158
NA,NA,150,NA,2,NA,NA,NA,2610341904,150,NA,NA,NA,NA,3,NA,NA,NA,2,120000,NA,"Rua Leopoldo Peres - Cidade Nova, Porto Velho - RO","casas","https://www.zapimoveis.com.br/imovel/venda-casa-3-quartos-cidade-nova-porto-velho-ro-150m2-id-2610341904/",-8.811840840237,-63.880829935245
NA,NA,151,NA,1,NA,NA,NA,2624546359,794,NA,NA,NA,NA,3,NA,NA,NA,2,3e+05,NA,"Rua Alexandre Guimarães - Baixa União, Porto Velho - RO","casas","https://www.zapimoveis.com.br/imovel/venda-casa-3-quartos-baixa-uniao-porto-velho-ro-151m2-id-2624546359/",-8.773859994846,-63.90311499308
NA,NA,210,NA,1,NA,NA,NA,2643854193,NA,NA,NA,NA,NA,3,NA,NA,NA,2,265000,NA,"Rua Severino Ozias, 1 - Flodoaldo Pontes Pinto, Porto Velho - RO","casas","https://www.zapimoveis.com.br/imovel/venda-casa-3-quartos-flodoaldo-pontes-pinto-porto-velho-ro-210m2-id-2643854193/",-8.747315230862,-63.866334239079
NA,NA,200,NA,3,NA,NA,NA,2644269554,NA,NA,NA,NA,NA,4,NA,NA,NA,2,112000,NA,"Três Marias, Porto Velho - RO","casas","https://www.zapimoveis.com.br/imovel/venda-casa-4-quartos-com-varanda-tres-marias-porto-velho-ro-200m2-id-2644269554/",-8.77958,-63.85694
0,NA,71,1,1,NA,0,1,2647445746,NA,1,1,0,0,2,1,0,0,1,160000,0,"Aeroclub, Porto Velho - RO","casas","https://www.zapimoveis.com.br/imovel/venda-casa-2-quartos-com-piscina-aeroclub-porto-velho-ro-71m2-id-2647445746/",-8.80489,-63.86494
0,NA,200,1,1,NA,0,0,2624494973,NA,0,0,0,0,3,0,0,0,3,2e+05,0,"Avenida Rio de Janeiro - Baixa União, Porto Velho - RO","casas","https://www.zapimoveis.com.br/imovel/venda-casa-3-quartos-com-cozinha-baixa-uniao-porto-velho-ro-200m2-id-2624494973/",-8.776495279642,-63.905376954912
0,NA,120,1,2,NA,0,0,2653899055,NA,1,0,0,0,3,0,0,0,4,275000,0,"Lagoa, Porto Velho - RO","casas","https://www.zapimoveis.com.br/imovel/venda-casa-3-quartos-com-piscina-lagoa-porto-velho-ro-120m2-id-2653899055/",-8.77073,-63.87238
0,NA,270,1,4,NA,0,0,2653899260,NA,0,0,0,0,3,0,0,0,10,7e+05,0,"São Cristóvão, Porto Velho - RO","casas","https://www.zapimoveis.com.br/imovel/venda-casa-3-quartos-com-cozinha-sao-cristovao-porto-velho-ro-270m2-id-2653899260/",-8.75596,-63.88674
NA,NA,96,NA,2,NA,NA,NA,2633240701,200,NA,NA,NA,NA,2,NA,NA,NA,3,420000,NA,"Avenida Engº Anysio da Rocha Compasso, 5522 - Aponiã, Porto Velho - RO","casas","https://www.zapimoveis.com.br/imovel/venda-casa-2-quartos-com-area-de-lazer-aponia-porto-velho-ro-96m2-id-2633240701/",-8.73416334075,-63.864059002895
NA,NA,230,NA,1,NA,NA,NA,2653894375,NA,NA,NA,NA,NA,2,NA,NA,NA,5,280000,NA,"Pantanal, Porto Velho - RO","casas","https://www.zapimoveis.com.br/imovel/venda-casa-2-quartos-com-cozinha-pantanal-porto-velho-ro-230m2-id-2653894375/",-8.75106,-63.83532
NA,NA,187,NA,1,NA,NA,NA,2634671019,NA,NA,NA,NA,NA,3,NA,NA,NA,2,280000,NA,"Rua Nicolo Paganini, 5476 - Flodoaldo Pontes Pinto, Porto Velho - RO","casas","https://www.zapimoveis.com.br/imovel/venda-casa-3-quartos-flodoaldo-pontes-pinto-porto-velho-ro-187m2-id-2634671019/",-8.740540001886,-63.866290023488
0,NA,118,0,2,NA,0,0,2629136091,1450,0,0,0,0,3,0,0,0,2,430000,1,"Rua Raimundo Cantuária, 2029 - Mato Grosso, Porto Velho - RO","sobrados","https://www.zapimoveis.com.br/imovel/venda-sobrados-3-quartos-mato-grosso-porto-velho-ro-118m2-id-2629136091/",-8.769236965883,-63.892741993143
0,NA,180,1,2,340,0,0,2636983357,520,1,0,0,1,3,0,0,0,NA,430000,0,"Rua Miguel de Cervante - Aeroclub, Porto Velho - RO","sobrados","https://www.zapimoveis.com.br/imovel/venda-sobrados-3-quartos-com-piscina-aeroclub-porto-velho-ro-180m2-id-2636983357/",-8.800902505885,-63.84963799747
NA,NA,84,NA,2,NA,NA,NA,2646718168,NA,NA,NA,NA,NA,3,NA,NA,NA,1,270000,NA,"Rua Jardins, 1 - Bairro Novo, Porto Velho - RO","casas","https://www.zapimoveis.com.br/imovel/venda-casa-3-quartos-bairro-novo-porto-velho-ro-84m2-id-2646718168/",-8.811402920515,-63.807932522254
0,NA,200,1,4,NA,0,0,2639429121,NA,0,0,0,0,4,0,0,0,4,3e+05,1,"Três Marias, Porto Velho - RO","casas","https://www.zapimoveis.com.br/imovel/venda-casa-4-quartos-com-ar-condicionado-tres-marias-porto-velho-ro-200m2-id-2639429121/",-8.77958,-63.85694
NA,NA,100,NA,2,NA,NA,NA,2636727667,NA,NA,NA,NA,NA,3,NA,NA,NA,3,235000,NA,"Rua Itapetinga - Castanheira, Porto Velho - RO","casas","https://www.zapimoveis.com.br/imovel/venda-casa-3-quartos-castanheira-porto-velho-ro-100m2-id-2636727667/",-8.802611103974,-63.871794217857
NA,NA,250,NA,3,NA,NA,NA,2612266873,NA,NA,NA,NA,NA,3,NA,NA,NA,2,5e+05,NA,"Rua do Estanho, 4365 - Flodoaldo Pontes Pinto, Porto Velho - RO","casas","https://www.zapimoveis.com.br/imovel/venda-casa-3-quartos-flodoaldo-pontes-pinto-porto-velho-ro-250m2-id-2612266873/",-8.742959983062,-63.877789994645
0,NA,600,1,4,NA,0,0,2653897274,NA,0,0,0,0,3,0,0,0,6,1100000,0,"Olaria, Porto Velho - RO","sobrados","https://www.zapimoveis.com.br/imovel/venda-sobrados-3-quartos-com-churrasqueira-olaria-porto-velho-ro-600m2-id-2653897274/",-8.75634,-63.90316
0,NA,150,0,1,175,0,0,2605186073,NA,1,0,0,0,2,0,0,0,2,240000,0,"Bairro Novo, Porto Velho - RO","casas","https://www.zapimoveis.com.br/imovel/venda-casa-2-quartos-com-piscina-bairro-novo-porto-velho-ro-150m2-id-2605186073/",-8.80696,-63.80542
0,NA,400,1,3,NA,0,0,2653891307,NA,0,0,0,0,3,0,0,0,2,5e+05,0,"Agenor M de Carvalho, Porto Velho - RO","casas","https://www.zapimoveis.com.br/imovel/venda-casa-3-quartos-com-churrasqueira-agenor-m-de-carvalho-porto-velho-ro-400m2-id-2653891307/",-8.754344996416,-63.871675019093
NA,NA,120,NA,1,NA,NA,NA,2624542488,585,NA,NA,NA,NA,3,NA,NA,NA,NA,295000,NA,"Rua Maria Lúcia - Tiradentes, Porto Velho - RO","casas","https://www.zapimoveis.com.br/imovel/venda-casa-3-quartos-tiradentes-porto-velho-ro-120m2-id-2624542488/",-8.759725004788,-63.854909997366
0,NA,170,1,1,NA,0,0,2566736998,320,0,0,0,0,2,0,0,0,2,245000,0,"Rua Orlandina, 5252 - Castanheira, Porto Velho - RO","casas","https://www.zapimoveis.com.br/imovel/venda-casa-2-quartos-com-infraestrutura-internet-castanheira-porto-velho-ro-170m2-id-2566736998/",-8.802499994078,-63.874690031574
NA,NA,88,NA,2,NA,NA,NA,2640844760,NA,NA,NA,NA,NA,2,NA,NA,NA,1,430000,NA,"Embratel, Porto Velho - RO","casas","https://www.zapimoveis.com.br/imovel/venda-casa-2-quartos-embratel-porto-velho-ro-88m2-id-2640844760/",-8.74858,-63.88798
NA,NA,110,NA,2,NA,NA,NA,2562226176,NA,NA,NA,NA,NA,3,NA,NA,NA,5,260000,NA,"Rua Gabileira - Cohab, Porto Velho - RO","casas","https://www.zapimoveis.com.br/imovel/venda-casa-3-quartos-cohab-porto-velho-ro-110m2-id-2562226176/",-8.793955000021,-63.87120001664
1,NA,170,0,4,NA,0,1,2637851172,NA,1,1,1,1,3,0,0,0,2,650000,0,"Avenida Engenheiro Anysio da Rocha Compasso, 1119 - Rio Madeira, Porto Velho - RO","casas_de_condominio","https://www.zapimoveis.com.br/imovel/venda-casa-de-condominio-3-quartos-com-piscina-rio-madeira-porto-velho-ro-170m2-id-2637851172/",-8.7368,-63.87546
NA,NA,100,NA,3,NA,NA,NA,2621799420,NA,NA,NA,NA,NA,2,NA,NA,NA,1,180000,NA,"Rua Aruba, 7728 - Tancredo Neves, Porto Velho - RO","casas","https://www.zapimoveis.com.br/imovel/venda-casa-2-quartos-tancredo-neves-porto-velho-ro-100m2-id-2621799420/",-8.764329980483,-63.840950021446
NA,NA,100,NA,1,NA,NA,NA,2638510681,NA,NA,NA,NA,NA,1,NA,NA,NA,3,450000,NA,"Rua Monteiro Lobato - Eldorado, Porto Velho - RO","casas","https://www.zapimoveis.com.br/imovel/venda-casa-1-quarto-eldorado-porto-velho-ro-100m2-id-2638510681/",-8.780516714505,-63.871488989386
NA,NA,109,NA,1,NA,NA,NA,2614867782,1,NA,NA,NA,NA,2,NA,NA,NA,2,130000,NA,"Rua Cândido Portinari, 01 - Pantanal, Porto Velho - RO","casas","https://www.zapimoveis.com.br/imovel/venda-casa-2-quartos-pantanal-porto-velho-ro-109m2-id-2614867782/",-8.7497043872,-63.834272411702
0,NA,150,0,2,NA,0,0,2570203020,NA,0,0,0,0,2,0,0,0,2,420000,1,"Rua Júpiter, 3471 - Nova Floresta, Porto Velho - RO","casas","https://www.zapimoveis.com.br/imovel/venda-casa-2-quartos-nova-floresta-porto-velho-ro-150m2-id-2570203020/",-8.7906216485,-63.895645963471
0,NA,200,1,3,NA,0,0,2653897277,NA,0,0,0,0,4,0,0,0,2,360000,0,"Aponiã, Porto Velho - RO","casas","https://www.zapimoveis.com.br/imovel/venda-casa-4-quartos-com-churrasqueira-aponia-porto-velho-ro-200m2-id-2653897277/",-8.74344,-63.86143
NA,1,300,NA,3,NA,NA,NA,2646820336,480,NA,NA,NA,NA,2,NA,NA,NA,3,3e+05,NA,"Rua Projetada, 3965 - Caladinho, Porto Velho - RO","casas","https://www.zapimoveis.com.br/imovel/venda-casa-2-quartos-caladinho-porto-velho-ro-300m2-id-2646820336/",-8.7965,-63.88158
0,NA,110,0,2,NA,0,0,2639036094,NA,0,1,0,1,2,0,0,0,NA,235000,0,"Rua Principal, n°850 - Novo Horizonte, Porto Velho - RO","casas","https://www.zapimoveis.com.br/imovel/venda-casa-2-quartos-novo-horizonte-porto-velho-ro-110m2-id-2639036094/",-8.803288904303,-63.896336783806
0,NA,80,0,1,NA,0,0,2630639573,NA,0,0,0,0,2,0,0,0,4,240000,1,"Rua Idalva Fraga Moreira - Escola De Policia, Porto Velho - RO","casas","https://www.zapimoveis.com.br/imovel/venda-casa-2-quartos-com-churrasqueira-escola-de-policia-porto-velho-ro-80m2-id-2630639573/",-8.751170015312,-63.842760009618
0,NA,200,1,3,NA,0,0,2569567864,NA,0,0,0,0,4,0,0,0,5,420000,0,"Rua Major Amarante, 1 - Centro, Porto Velho - RO","casas","https://www.zapimoveis.com.br/imovel/venda-casa-4-quartos-com-infraestrutura-internet-centro-porto-velho-ro-200m2-id-2569567864/",-8.762419385137,-63.910741356128
NA,NA,160,NA,3,NA,NA,NA,2643780478,NA,NA,NA,NA,NA,2,NA,NA,NA,2,290000,NA,"Rua Pedro Albeniz, 1123 - Aponiã, Porto Velho - RO","casas","https://www.zapimoveis.com.br/imovel/venda-casa-2-quartos-aponia-porto-velho-ro-160m2-id-2643780478/",-8.74074657363,-63.85714647487
NA,NA,76,NA,2,NA,NA,NA,2646109376,NA,NA,NA,NA,NA,2,NA,NA,NA,2,3e+05,NA,"Avenida Engenheiro Anysio da Rocha Compasso, 2543 - Aponiã, Porto Velho - RO","casas","https://www.zapimoveis.com.br/imovel/venda-casa-2-quartos-aponia-porto-velho-ro-76m2-id-2646109376/",-8.74344,-63.86143
NA,NA,113,NA,2,NA,NA,NA,2637867257,NA,NA,NA,NA,NA,3,NA,NA,NA,2,205000,NA,"Rua Luiz de Camões, 6208 - Aponiã, Porto Velho - RO","casas","https://www.zapimoveis.com.br/imovel/venda-casa-3-quartos-aponia-porto-velho-ro-113m2-id-2637867257/",-8.734710062135,-63.86062267548
NA,NA,180,NA,3,NA,NA,NA,2617224632,NA,NA,NA,NA,NA,3,NA,NA,NA,2,160000,NA,"Rua Frei Tito Lima, 8411 - Juscelino Kubitschek, Porto Velho - RO","casas","https://www.zapimoveis.com.br/imovel/venda-casa-3-quartos-com-jardim-juscelino-kubitschek-porto-velho-ro-180m2-id-2617224632/",-8.768142849598,-63.834086533761
NA,NA,215,NA,2,NA,NA,NA,2627712079,NA,NA,NA,NA,NA,3,NA,NA,NA,2,370000,NA,"Rua Gregório Alegre - Aponiã, Porto Velho - RO","casas","https://www.zapimoveis.com.br/imovel/venda-casa-3-quartos-aponia-porto-velho-ro-215m2-id-2627712079/",-8.739436275742,-63.853737699666
0,NA,52,1,1,NA,0,0,2563257578,NA,0,0,0,0,2,0,0,0,2,220000,0,"Rua Ernandes Indio, 6803 - Planalto, Porto Velho - RO","casas","https://www.zapimoveis.com.br/imovel/venda-casa-2-quartos-planalto-porto-velho-ro-52m2-id-2563257578/",-8.735914268318,-63.837604494163
0,NA,65,0,1,NA,0,1,2609732575,NA,0,1,1,1,2,1,0,0,2,190000,0,"Rua Jardins, 3200 - Bairro Novo, Porto Velho - RO","casas","https://www.zapimoveis.com.br/imovel/venda-casa-2-quartos-com-churrasqueira-bairro-novo-porto-velho-ro-65m2-id-2609732575/",-8.811402920515,-63.807932522254
0,NA,77,1,1,NA,0,0,2648874907,NA,0,0,0,0,2,0,0,0,2,95000,0,"Rua Felipe dos Santos, 8275 - Juscelino Kubitschek, Porto Velho - RO","casas","https://www.zapimoveis.com.br/imovel/venda-casa-2-quartos-juscelino-kubitschek-porto-velho-ro-77m2-id-2648874907/",-8.766930004939,-63.833939984363
NA,NA,100,NA,1,NA,NA,NA,2620043915,NA,NA,NA,NA,NA,2,NA,NA,NA,4,260000,NA,"Rua México - Embratel, Porto Velho - RO","casas","https://www.zapimoveis.com.br/imovel/venda-casa-2-quartos-embratel-porto-velho-ro-100m2-id-2620043915/",-8.75209493303,-63.879328030364
0,NA,51,0,1,NA,0,1,2653891156,NA,1,1,0,1,2,1,0,0,2,210000,0,"Planalto, Porto Velho - RO","casas","https://www.zapimoveis.com.br/imovel/venda-casa-2-quartos-com-piscina-planalto-porto-velho-ro-51m2-id-2653891156/",-8.74058,-63.84822
0,NA,200,1,2,NA,0,0,2639429103,NA,0,0,0,0,4,0,0,0,2,350000,0,"Caladinho, Porto Velho - RO","casas","https://www.zapimoveis.com.br/imovel/venda-casa-4-quartos-com-cozinha-caladinho-porto-velho-ro-200m2-id-2639429103/",-8.7965,-63.88158
NA,NA,250,NA,2,NA,NA,NA,2561260984,NA,NA,NA,NA,NA,4,NA,NA,NA,4,179999,NA,"Jardim Santana, Porto Velho - RO","casas","https://www.zapimoveis.com.br/imovel/venda-casa-4-quartos-com-varanda-jardim-santana-porto-velho-ro-250m2-id-2561260984/",-8.75379,-63.8232
0,NA,200,0,3,NA,0,0,2641167960,NA,1,0,0,0,3,0,0,0,2,480000,0,"Rua Osvaldo Aranha - Conceição, Porto Velho - RO","casas","https://www.zapimoveis.com.br/imovel/venda-casa-3-quartos-com-piscina-conceicao-porto-velho-ro-200m2-id-2641167960/",-8.796636715045,-63.892257411277
1,NA,170,0,4,NA,0,0,2560047832,NA,1,1,1,0,3,1,0,0,2,820000,1,"Avenida Prefeito Chiquilito Erse, 4086 - Rio Madeira, Porto Velho - RO","casas","https://www.zapimoveis.com.br/imovel/venda-casa-3-quartos-com-piscina-rio-madeira-porto-velho-ro-170m2-id-2560047832/",-8.740290011624,-63.878304978776
1,NA,399,0,1,NA,0,0,2638683368,NA,0,0,0,0,3,0,0,0,2,220000,0,"Eldorado, Porto Velho - RO","casas","https://www.zapimoveis.com.br/imovel/venda-casa-3-quartos-com-academia-eldorado-porto-velho-ro-399m2-id-2638683368/",-8.78092,-63.86663
1,NA,110,0,3,350,0,1,2609280285,NA,1,1,1,1,3,1,0,0,2,570000,0,"Rua Thales Benevides, 5756 - Rio Madeira, Porto Velho - RO","casas","https://www.zapimoveis.com.br/imovel/venda-casa-3-quartos-com-piscina-rio-madeira-porto-velho-ro-110m2-id-2609280285/",-8.737474032113,-63.875452361164
0,NA,260,1,2,NA,0,0,2608979909,760,0,0,0,0,3,0,0,0,4,3e+05,0,"Aponiã, Porto Velho - RO","casas","https://www.zapimoveis.com.br/imovel/venda-casa-3-quartos-com-cozinha-aponia-porto-velho-ro-260m2-id-2608979909/",-8.74344,-63.86143
NA,NA,220,NA,3,NA,NA,NA,2557498635,NA,NA,NA,NA,NA,3,NA,NA,NA,2,2e+05,NA,"Rua Raimundo Cantuária - Jardim Santana, Porto Velho - RO","casas","https://www.zapimoveis.com.br/imovel/venda-casa-3-quartos-jardim-santana-porto-velho-ro-220m2-id-2557498635/",-8.753631336656,-63.822471439059
0,NA,80,0,2,140,0,1,2641526982,230,0,1,0,1,2,0,0,0,2,240000,0,"Bairro Novo, Porto Velho - RO","casas","https://www.zapimoveis.com.br/imovel/venda-casa-2-quartos-com-churrasqueira-bairro-novo-porto-velho-ro-80m2-id-2641526982/",-8.80696,-63.80542
0,NA,100,1,2,NA,0,0,2627402356,NA,0,0,0,0,3,0,0,0,2,230000,0,"Rua Doutor Gondim - Castanheira, Porto Velho - RO","casas","https://www.zapimoveis.com.br/imovel/venda-casa-3-quartos-castanheira-porto-velho-ro-100m2-id-2627402356/",-8.801553435437,-63.871702889591
NA,NA,583,NA,1,NA,NA,NA,2619076422,NA,NA,NA,NA,NA,3,NA,NA,NA,1,280000,NA,"Rua Padre Ângelo Cerri, 1010 - Liberdade, Porto Velho - RO","casas","https://www.zapimoveis.com.br/imovel/venda-casa-3-quartos-liberdade-porto-velho-ro-583m2-id-2619076422/",-8.745304218356,-63.891529675909
NA,NA,250,NA,2,NA,NA,NA,2647894772,NA,NA,NA,NA,NA,3,NA,NA,NA,2,290000,NA,"Rua do Contorno, 10 - Flodoaldo Pontes Pinto, Porto Velho - RO","casas","https://www.zapimoveis.com.br/imovel/venda-casa-3-quartos-flodoaldo-pontes-pinto-porto-velho-ro-250m2-id-2647894772/",-8.743125812968,-63.873007732447
0,NA,120,1,2,250,0,1,2556656764,NA,0,1,0,1,2,0,0,0,2,280000,0,"Rodovia BR-364 - Eletronorte, Porto Velho - RO","casas","https://www.zapimoveis.com.br/imovel/venda-casa-2-quartos-com-churrasqueira-eletronorte-porto-velho-ro-120m2-id-2556656764/",-8.78464000243,-63.897074993652
NA,NA,70,NA,1,NA,NA,NA,2653890764,NA,NA,NA,NA,NA,2,NA,NA,NA,NA,80000,NA,"Rua Salgado Filho - Mato Grosso, Porto Velho - RO","casas","https://www.zapimoveis.com.br/imovel/venda-casa-2-quartos-mato-grosso-porto-velho-ro-70m2-id-2653890764/",-8.770685964096,-63.891859030976
NA,NA,67,NA,1,NA,NA,NA,2598538662,NA,NA,NA,NA,NA,3,NA,NA,NA,2,190000,NA,"Rua do Estandarte, 7361 - Cuniã, Porto Velho - RO","casas","https://www.zapimoveis.com.br/imovel/venda-casa-3-quartos-com-quintal-cunia-porto-velho-ro-67m2-id-2598538662/",-8.755121317502,-63.846818082477
0,NA,110,0,2,100,0,0,2620407551,NA,0,0,0,0,3,0,0,0,2,360000,1,"Rua Décima Avenida, 4664 - Rio Madeira, Porto Velho - RO","sobrados","https://www.zapimoveis.com.br/imovel/venda-sobrados-3-quartos-com-churrasqueira-rio-madeira-porto-velho-ro-110m2-id-2620407551/",-8.734189486691,-63.873065512613
0,NA,150,1,3,NA,0,0,2559162916,NA,0,0,0,0,4,0,0,0,2,450000,0,"Rua do Contorno - Flodoaldo Pontes Pinto, Porto Velho - RO","casas","https://www.zapimoveis.com.br/imovel/venda-casa-4-quartos-com-area-de-servico-flodoaldo-pontes-pinto-porto-velho-ro-150m2-id-2559162916/",-8.743125812968,-63.873007732447
NA,NA,120,NA,2,NA,NA,NA,2649826899,225,NA,NA,NA,NA,3,NA,NA,NA,2,225000,NA,"Rua da Platina, 4467 - Flodoaldo Pontes Pinto, Porto Velho - RO","casas","https://www.zapimoveis.com.br/imovel/venda-casa-3-quartos-flodoaldo-pontes-pinto-porto-velho-ro-120m2-id-2649826899/",-8.744970005352,-63.876409998106
0,NA,75,0,2,NA,0,0,2645537780,NA,1,1,1,1,3,1,0,0,2,450000,0,"Rua Santa Luzia, 2 - Nova Esperança, Porto Velho - RO","casas_de_condominio","https://www.zapimoveis.com.br/imovel/venda-casa-de-condominio-3-quartos-com-piscina-nova-esperanca-porto-velho-ro-75m2-id-2645537780/",-8.736312385851,-63.884274791284
NA,NA,120,NA,2,NA,NA,NA,2638368942,NA,NA,NA,NA,NA,2,NA,NA,NA,5,280000,NA,"Rua Reverendo Elias Fontes, 453 - Flodoaldo Pontes Pinto, Porto Velho - RO","casas","https://www.zapimoveis.com.br/imovel/venda-casa-2-quartos-flodoaldo-pontes-pinto-porto-velho-ro-120m2-id-2638368942/",-8.7527699949,-63.865309969459
NA,NA,100,NA,2,NA,NA,NA,2653041658,NA,NA,NA,NA,NA,1,NA,NA,NA,3,250000,NA,"Rua Altemar Dutra, 0 - Tancredo Neves, Porto Velho - RO","casas","https://www.zapimoveis.com.br/imovel/venda-casa-1-quarto-tancredo-neves-porto-velho-ro-100m2-id-2653041658/",-8.761101390306,-63.839292026197
NA,NA,170,NA,1,NA,NA,NA,2650355981,NA,NA,NA,NA,NA,4,NA,NA,NA,2,280000,NA,"Rua Nicolo Paganini - Flodoaldo Pontes Pinto, Porto Velho - RO","casas","https://www.zapimoveis.com.br/imovel/venda-casa-4-quartos-flodoaldo-pontes-pinto-porto-velho-ro-170m2-id-2650355981/",-8.740510015628,-63.866759996799
0,NA,60,1,1,NA,0,0,2625737816,NA,0,0,0,0,2,0,0,0,2,160000,0,"Rua Alto do Bronze, 2504 - Jardim Santana, Porto Velho - RO","casas","https://www.zapimoveis.com.br/imovel/venda-casa-2-quartos-com-area-de-servico-jardim-santana-porto-velho-ro-60m2-id-2625737816/",-8.758309105428,-63.819438998043
NA,NA,80,NA,1,NA,NA,NA,2650057082,NA,NA,NA,NA,NA,1,NA,NA,NA,NA,65000,NA,"Rua Gavião Real, 9386 - Socialista, Porto Velho - RO","casas","https://www.zapimoveis.com.br/imovel/venda-casa-1-quarto-socialista-porto-velho-ro-80m2-id-2650057082/",-8.758040007108,-63.827019749301
NA,NA,720,NA,1,NA,NA,NA,2520774712,NA,NA,NA,NA,NA,2,NA,NA,NA,2,250000,NA,"Rua Michele, 7144 - Teixeirao, Porto Velho - RO","casas","https://www.zapimoveis.com.br/imovel/venda-casa-2-quartos-com-cozinha-americana-teixeirao-porto-velho-ro-720m2-id-2520774712/",-8.741783220905,-63.846458816338
0,NA,150,1,2,NA,0,0,2638424132,NA,0,0,0,0,2,0,0,0,2,150000,0,"Rua Catarina Gomes - Cidade Nova, Porto Velho - RO","casas","https://www.zapimoveis.com.br/imovel/venda-casa-2-quartos-cidade-nova-porto-velho-ro-150m2-id-2638424132/",-8.81073380936,-63.881457191024
1,NA,320,1,5,450,0,0,2557198785,NA,1,0,0,0,3,0,0,0,3,2800000,0,"Rodovia BR-364, 9 - Cidade Jardim, Porto Velho - RO","casas","https://www.zapimoveis.com.br/imovel/venda-casa-3-quartos-mobiliado-cidade-jardim-porto-velho-ro-320m2-id-2557198785/",-8.804074032083,-63.796949782477
NA,NA,170,NA,2,NA,NA,NA,2644844789,NA,NA,NA,NA,NA,2,NA,NA,NA,3,130000,NA,"Rua Voluntários da Pátria, 3014 - Socialista, Porto Velho - RO","casas","https://www.zapimoveis.com.br/imovel/venda-casa-2-quartos-socialista-porto-velho-ro-170m2-id-2644844789/",-8.766456587543,-63.831956852957
NA,NA,250,NA,3,NA,NA,NA,2653897071,NA,NA,NA,NA,NA,3,NA,NA,NA,3,170000,NA,"São Francisco, Porto Velho - RO","casas","https://www.zapimoveis.com.br/imovel/venda-casa-3-quartos-sao-francisco-porto-velho-ro-250m2-id-2653897071/",-8.77249,-63.82889
0,NA,76,0,2,NA,0,0,2622308777,NA,0,0,1,0,3,0,0,0,2,320000,0,"Rua Principal, 185 - Novo Horizonte, Porto Velho - RO","casas_de_condominio","https://www.zapimoveis.com.br/imovel/venda-casa-de-condominio-3-quartos-com-churrasqueira-novo-horizonte-porto-velho-ro-76m2-id-2622308777/",-8.809214029945,-63.895441134448
0,NA,80,1,1,NA,0,0,2643851371,NA,0,0,0,0,2,0,0,0,NA,180000,0,"Nova Floresta, Porto Velho - RO","casas","https://www.zapimoveis.com.br/imovel/venda-casa-2-quartos-com-cozinha-nova-floresta-porto-velho-ro-80m2-id-2643851371/",-8.78881,-63.89608
NA,NA,80,NA,1,NA,NA,NA,2576453166,NA,NA,NA,NA,NA,2,NA,NA,NA,2,270000,NA,"Avenida Guaporé, 4225 - Flodoaldo Pontes Pinto, Porto Velho - RO","casas","https://www.zapimoveis.com.br/imovel/venda-casa-2-quartos-flodoaldo-pontes-pinto-porto-velho-ro-80m2-id-2576453166/",-8.751650004998,-63.863210009347
0,NA,450,1,2,NA,0,0,2653896768,NA,0,0,0,0,3,0,0,0,5,380000,1,"Agenor de Carvalho, Porto Velho - RO","casas","https://www.zapimoveis.com.br/imovel/venda-casa-3-quartos-com-cozinha-agenor-de-carvalho-porto-velho-ro-450m2-id-2653896768/",-8.75794,-63.87141
1,NA,74,0,2,NA,0,0,2569669031,NA,1,1,1,1,3,1,0,0,2,140000,0,"Rua Santa Luzia, 1220 - Nova Esperança, Porto Velho - RO","casas_de_condominio","https://www.zapimoveis.com.br/imovel/venda-casa-de-condominio-3-quartos-com-piscina-nova-esperanca-porto-velho-ro-74m2-id-2569669031/",-8.704536733149,-63.868456997836
0,NA,135,1,2,NA,0,1,2644178376,NA,0,1,0,1,3,0,0,0,1,260000,0,"Rua Jardins, 1227 - Bairro Novo, Porto Velho - RO","casas","https://www.zapimoveis.com.br/imovel/venda-casa-3-quartos-mobiliado-bairro-novo-porto-velho-ro-135m2-id-2644178376/",-8.808844797616,-63.806598071607
0,NA,200,1,2,NA,0,0,2645655540,NA,1,0,0,0,3,0,0,0,2,350000,0,"Tiradentes, Porto Velho - RO","casas","https://www.zapimoveis.com.br/imovel/venda-casa-3-quartos-com-piscina-tiradentes-porto-velho-ro-200m2-id-2645655540/",-8.75716,-63.84513
NA,NA,68,NA,2,NA,NA,NA,2518566058,NA,NA,NA,NA,NA,2,NA,NA,NA,2,282148,NA,"Rua Maria Naymaier - Flodoaldo Pontes Pinto, Porto Velho - RO","casas","https://www.zapimoveis.com.br/imovel/venda-casa-2-quartos-com-ar-condicionado-flodoaldo-pontes-pinto-porto-velho-ro-68m2-id-2518566058/",-8.749398304415,-63.870681547897
NA,NA,220,NA,1,NA,NA,NA,2640041571,NA,NA,NA,NA,NA,2,NA,NA,NA,2,170000,NA,"Castanheira, Porto Velho - RO","casas","https://www.zapimoveis.com.br/imovel/venda-casa-2-quartos-com-quintal-castanheira-porto-velho-ro-220m2-id-2640041571/",-8.79224,-63.86964
0,NA,119,0,1,NA,0,0,2654081309,NA,1,0,0,0,3,0,0,0,2,5e+05,0,"Centro, Porto Velho - RO","casas","https://www.zapimoveis.com.br/imovel/venda-casa-3-quartos-com-piscina-centro-porto-velho-ro-119m2-id-2654081309/",-8.76225,-63.90222
