"academia","andar","area","area_servico","banheiro","condominio","elevador","espaco_gourmet","id","iptu","piscina","playground","portaria_24_horas","quadra_de_esporte","quarto","salao_de_festa","sauna","spa","vaga","valor","varanda_gourmet","endereco","tipo","url","foto_imovel","latitude","longitude"
0,3,55,1,1,317,0,0,2670420493,NA,0,0,0,1,3,0,0,0,1,260000,1,"Floresta Sul, Rio Branco - AC","apartamentos","https://www.zapimoveis.com.br/imovel/venda-apartamento-3-quartos-com-churrasqueira-floresta-sul-rio-branco-ac-55m2-id-2670420493/","https://resizedimgs.zapimoveis.com.br/fit-in/400x180/named.images.sp/bac6220ddfeb8a2a90d7661d19d4e266/apartamento-com-3-quartos-a-venda-55m-no-floresta-sul-rio-branco.jpg",-9.99108,-67.84832
NA,NA,105,NA,4,NA,NA,NA,2662269453,NA,NA,NA,NA,NA,3,NA,NA,NA,2,320000,NA,"Rua Quinta das Flores, 98 - Loteamento Santa Helena, Rio Branco - AC","apartamentos","https://www.zapimoveis.com.br/imovel/venda-apartamento-3-quartos-loteamento-santa-helena-rio-branco-ac-105m2-id-2662269453/","https://resizedimgs.zapimoveis.com.br/fit-in/400x180/named.images.sp/fbb449472ec4e1a28b5dce825a57caf6/apartamento-com-3-quartos-a-venda-105m-no-loteamento-santa-helena-rio-branco.jpg",-10.028866899392,-67.79741210357
1,NA,79,0,2,NA,0,0,2668894250,NA,0,0,0,1,2,1,0,0,1,285000,0,"Rua Marcelino Machado, 130 - Loteamento Isaura Parente, Rio Branco - AC","apartamentos","https://www.zapimoveis.com.br/imovel/venda-apartamento-2-quartos-com-academia-loteamento-isaura-parente-rio-branco-ac-79m2-id-2668894250/","https://resizedimgs.zapimoveis.com.br/fit-in/400x180/named.images.sp/251bc820d866a172fd181172ce62b9fb/apartamento-com-2-quartos-a-venda-79m-no-loteamento-isaura-parente-rio-branco.jpg",-9.960089982469,-67.835889965219
0,3,54,0,1,NA,0,1,2668762923,NA,1,1,1,1,2,1,0,0,1,220000,0,"Estrada do Calafate, 3075 - Waldemar Maciel, Rio Branco - AC","apartamentos","https://www.zapimoveis.com.br/imovel/venda-apartamento-2-quartos-mobiliado-waldemar-maciel-rio-branco-ac-54m2-id-2668762923/","https://resizedimgs.zapimoveis.com.br/fit-in/400x180/named.images.sp/d8a67c1dba9aad5095bec585781d0968/apartamento-com-2-quartos-a-venda-54m-no-waldemar-maciel-rio-branco.jpg",-9.977561466499,-67.889766369878
0,2,72,0,1,334,0,1,2662880559,NA,1,1,1,0,2,1,0,0,1,280000,0,"Rua Piracanjuba, 970 - Portal da Amazonia, Rio Branco - AC","apartamentos","https://www.zapimoveis.com.br/imovel/venda-apartamento-2-quartos-com-piscina-portal-da-amazonia-rio-branco-ac-72m2-id-2662880559/","https://resizedimgs.zapimoveis.com.br/fit-in/400x180/named.images.sp/09221c486dbb877eafde2a4ac6f26d0e/apartamento-com-2-quartos-a-venda-72m-no-portal-da-amazonia-rio-branco.jpg",-9.974622568104,-67.861000889848
NA,2,54,NA,1,127,NA,NA,2664682629,NA,NA,NA,NA,NA,2,NA,NA,NA,NA,2e+05,NA,"Rua Quintino Bocaiuva, 1577 - Bosque, Rio Branco - AC","apartamentos","https://www.zapimoveis.com.br/imovel/venda-apartamento-2-quartos-com-ar-condicionado-bosque-rio-branco-ac-54m2-id-2664682629/","https://resizedimgs.zapimoveis.com.br/fit-in/400x180/named.images.sp/bb9640361c30103a2d443139596f2c57/apartamento-com-2-quartos-a-venda-54m-no-bosque-rio-branco.jpg",-9.96190001255,-67.811310034157
NA,NA,53,NA,1,NA,NA,NA,2656274069,NA,NA,NA,NA,NA,2,NA,NA,NA,1,215000,NA,"Alto Alegre, Rio Branco - AC","apartamentos","https://www.zapimoveis.com.br/imovel/venda-apartamento-2-quartos-com-interfone-alto-alegre-rio-branco-ac-53m2-id-2656274069/","https://resizedimgs.zapimoveis.com.br/fit-in/400x180/named.images.sp/ff146dc8a0c850a197567dd1104c1948/apartamento-com-2-quartos-a-venda-53m-no-alto-alegre-rio-branco.jpg",-9.92805,-67.826
0,3,71,1,3,NA,0,0,2641540028,NA,1,0,0,1,3,0,0,0,1,285000,0,"Recanto dos Buritis, Rio Branco - AC","apartamentos","https://www.zapimoveis.com.br/imovel/venda-apartamento-3-quartos-com-piscina-recanto-dos-buritis-rio-branco-ac-71m2-id-2641540028/","https://resizedimgs.zapimoveis.com.br/fit-in/400x180/named.images.sp/0daa57585b2e846e4eeb7e4022081d32/apartamento-com-3-quartos-a-venda-71m-no-recanto-dos-buritis-rio-branco.jpg",-10.00159,-67.79387
0,NA,82,0,2,NA,0,1,2619109539,NA,1,0,1,0,3,0,0,0,2,330000,0,"Rua Piracanjuba, 917 - Portal da Amazonia, Rio Branco - AC","apartamentos","https://www.zapimoveis.com.br/imovel/venda-apartamento-3-quartos-com-piscina-portal-da-amazonia-rio-branco-ac-82m2-id-2619109539/","https://resizedimgs.zapimoveis.com.br/fit-in/400x180/named.images.sp/8cac35eb1aac782a96c6bc355ca4f372/apartamento-com-3-quartos-a-venda-82m-no-portal-da-amazonia-rio-branco.jpg",-9.974644989695,-67.860729986737
0,2,71,1,2,532,0,1,2664705933,300,1,1,1,1,3,1,0,0,1,260000,0,"Rua Tapajós, 280 - Isaura Parente, Rio Branco - AC","apartamentos","https://www.zapimoveis.com.br/imovel/venda-apartamento-3-quartos-com-piscina-isaura-parente-rio-branco-ac-71m2-id-2664705933/","https://resizedimgs.zapimoveis.com.br/fit-in/400x180/named.images.sp/a72ba02741d7c4151486926adbb22fd9/apartamento-com-3-quartos-a-venda-71m-no-isaura-parente-rio-branco.jpg",-9.95909768411,-67.825351647035
0,11,111,0,3,800,1,1,2553060763,NA,1,0,1,0,3,1,0,0,2,580000,0,"Rua Major Ladislau Ferreira, 1042 - 7º BEC, Rio Branco - AC","apartamentos","https://www.zapimoveis.com.br/imovel/venda-apartamento-3-quartos-mobiliado-7-bec-rio-branco-ac-111m2-id-2553060763/","https://resizedimgs.zapimoveis.com.br/fit-in/400x180/named.images.sp/2aca89c4b0659d6d7c64dfc73298a1cc/apartamento-com-3-quartos-a-venda-111m-no-7-bec-rio-branco.jpg",-9.970489996472,-67.827490040952
0,10,301,0,5,NA,1,0,2645679567,NA,0,0,0,0,5,0,0,0,4,2600000,0,"Jardim Manoel Juliao, Rio Branco - AC","apartamentos","https://www.zapimoveis.com.br/imovel/venda-apartamento-5-quartos-mobiliado-jardim-manoel-juliao-rio-branco-ac-301m2-id-2645679567/","https://resizedimgs.zapimoveis.com.br/fit-in/400x180/named.images.sp/8792486a0e1030bf98cbca1162cd4c5c/apartamento-com-5-quartos-para-venda-ou-aluguel-301m-no-jardim-manoel-juliao-rio-branco.jpg",-9.95926,-67.82307
0,NA,50,0,1,NA,0,1,2670896241,NA,1,1,0,1,2,0,0,0,1,345000,0,"Centro, Rio Branco - AC","apartamentos","https://www.zapimoveis.com.br/imovel/venda-apartamento-2-quartos-com-piscina-centro-rio-branco-ac-50m2-id-2670896241/","https://resizedimgs.zapimoveis.com.br/fit-in/400x180/named.images.sp/2efa897f4a23dd0cf46c3c56aab9e87d/apartamento-com-2-quartos-a-venda-50m-no-centro-rio-branco.jpg",-9.97107,-67.81032
0,NA,105,1,2,926,0,0,2577600991,NA,1,0,0,0,3,0,0,0,2,620000,1,"Aviario, Rio Branco - AC","apartamentos","https://www.zapimoveis.com.br/imovel/venda-apartamento-3-quartos-com-piscina-aviario-rio-branco-ac-105m2-id-2577600991/","https://resizedimgs.zapimoveis.com.br/fit-in/400x180/named.images.sp/a51470e37583147106a6970c640a88b1/apartamento-com-3-quartos-para-venda-ou-aluguel-105m-no-aviario-rio-branco.jpg",-9.96607,-67.8051
0,NA,50,0,1,NA,0,1,2670896242,NA,1,1,0,1,2,0,0,0,1,360000,0,"Centro, Rio Branco - AC","apartamentos","https://www.zapimoveis.com.br/imovel/venda-apartamento-2-quartos-com-piscina-centro-rio-branco-ac-50m2-id-2670896242/","https://resizedimgs.zapimoveis.com.br/fit-in/400x180/named.images.sp/d7dd21a74492ffcd0ff6d41c1dbe7ed0/apartamento-com-2-quartos-a-venda-50m-no-centro-rio-branco.jpg",-9.97107,-67.81032
0,NA,275,0,3,NA,0,1,2619116698,NA,1,0,1,0,5,1,0,0,3,850000,1,"Rua Jaqueline, 129 - Loteamento dos Engenheiros, Rio Branco - AC","casas","https://www.zapimoveis.com.br/imovel/venda-casa-5-quartos-com-piscina-loteamento-dos-engenheiros-rio-branco-ac-275m2-id-2619116698/","https://resizedimgs.zapimoveis.com.br/fit-in/400x180/named.images.sp/0a16f74768157cc68c42cc0cf9a0217a/casa-com-5-quartos-a-venda-275m-no-loteamento-dos-engenheiros-rio-branco.jpg",-9.961510002595,-67.843020031156
NA,NA,200,NA,1,NA,NA,NA,2653496855,800,NA,NA,NA,NA,3,NA,NA,NA,2,3e+05,NA,"Rua Formosa, 871 - Nova Estacao, Rio Branco - AC","casas","https://www.zapimoveis.com.br/imovel/venda-casa-3-quartos-nova-estacao-rio-branco-ac-200m2-id-2653496855/","https://resizedimgs.zapimoveis.com.br/fit-in/400x180/named.images.sp/0e1761ac272333444446877420c3efa9/casa-com-3-quartos-a-venda-200m-no-nova-estacao-rio-branco.jpg",-9.953439990037,-67.830599978487
NA,NA,458,NA,NA,398000,NA,NA,2635916157,NA,NA,NA,NA,NA,NA,NA,NA,NA,NA,398000,NA,"Loteamento Novo Horizonte, Rio Branco - AC","terrenos_e_lotes_comerciais","https://www.zapimoveis.com.br/imovel/venda-terreno-lote-comercial-loteamento-novo-horizonte-rio-branco-ac-458m2-id-2635916157/","https://resizedimgs.zapimoveis.com.br/fit-in/400x180/named.images.sp/49d5cbb6d5550270507be36fec9b7a59/terreno-lote-comercial-a-venda-458m-no-loteamento-novo-horizonte-rio-branco.jpg",-9.97853,-67.8341
NA,NA,467,NA,NA,NA,NA,NA,2657537862,NA,NA,NA,NA,NA,NA,NA,NA,NA,NA,498000,NA,"Bosque, Rio Branco - AC","terrenos_e_lotes_comerciais","https://www.zapimoveis.com.br/imovel/venda-terreno-lote-comercial-bosque-rio-branco-ac-467m2-id-2657537862/","https://resizedimgs.zapimoveis.com.br/fit-in/400x180/named.images.sp/ce16956e3f76c0342e8fee8670264369/terreno-lote-comercial-a-venda-467m-no-bosque-rio-branco.jpg",-9.96263,-67.8149
NA,NA,1564,NA,NA,NA,NA,NA,2652943963,NA,NA,NA,NA,NA,NA,NA,NA,NA,NA,560000,NA,"Areal, Rio Branco - AC","terrenos_e_lotes_comerciais","https://www.zapimoveis.com.br/imovel/venda-terreno-lote-comercial-areal-rio-branco-ac-1564m2-id-2652943963/","https://resizedimgs.zapimoveis.com.br/fit-in/400x180/named.images.sp/00ea80bff754bfa671170ed3cb9c366a/terreno-lote-comercial-a-venda-1564m-no-areal-rio-branco.jpg",-10.00281,-67.80141
NA,NA,703,NA,NA,NA,NA,NA,2616332593,NA,NA,NA,NA,NA,NA,NA,NA,NA,NA,8e+05,NA,"Avenida Ceará, SN - 7º BEC, Rio Branco - AC","terrenos_e_lotes_comerciais","https://www.zapimoveis.com.br/imovel/venda-terreno-lote-comercial-7-bec-rio-branco-ac-703m2-id-2616332593/","https://resizedimgs.zapimoveis.com.br/fit-in/400x180/named.images.sp/3d065ffd33fac4b6251e43fe6f252cec/terreno-lote-comercial-a-venda-703m-no-7-bec-rio-branco.jpg",-9.97305767748,-67.797607942642
NA,NA,260,NA,NA,NA,NA,NA,2653180017,NA,NA,NA,NA,NA,NA,NA,NA,NA,NA,390000,NA,"Aviario, Rio Branco - AC","terrenos_e_lotes_comerciais","https://www.zapimoveis.com.br/imovel/venda-terreno-lote-comercial-aviario-rio-branco-ac-260m2-id-2653180017/","https://resizedimgs.zapimoveis.com.br/fit-in/400x180/named.images.sp/fb844113b5a5c6bd1cc68279504dc778/terreno-lote-comercial-a-venda-260m-no-aviario-rio-branco.jpg",-9.96607,-67.8051
NA,NA,330,NA,NA,NA,NA,NA,2628459191,NA,NA,NA,NA,NA,NA,NA,NA,NA,NA,170000,NA,"Rua Major Ladislau Ferreira - Abraao Alab, Rio Branco - AC","terrenos_e_lotes_comerciais","https://www.zapimoveis.com.br/imovel/venda-terreno-lote-comercial-abraao-alab-rio-branco-ac-330m2-id-2628459191/","https://resizedimgs.zapimoveis.com.br/fit-in/400x180/named.images.sp/901ed049741a54f76a66ce2a683cf07b/terreno-lote-comercial-a-venda-330m-no-abraao-alab-rio-branco.jpg",-9.971030000584,-67.822539982303
NA,NA,175,NA,1,NA,NA,NA,2665326493,NA,NA,NA,NA,NA,2,NA,NA,NA,2,190000,NA,"Avenida Tabatinga, 49 - Floresta Sul, Rio Branco - AC","casas","https://www.zapimoveis.com.br/imovel/venda-casa-2-quartos-floresta-sul-rio-branco-ac-175m2-id-2665326493/","https://resizedimgs.zapimoveis.com.br/fit-in/400x180/named.images.sp/f8b8249e3d45c9c1ab7ee6dba1fcc853/casa-com-2-quartos-a-venda-175m-no-floresta-sul-rio-branco.jpg",-9.993119979638,-67.83874261331
0,NA,97,1,1,NA,0,0,2661484863,NA,0,0,0,0,2,0,0,0,2,380000,0,"Nova Esperanca, Rio Branco - AC","casas","https://www.zapimoveis.com.br/imovel/venda-casa-2-quartos-com-area-de-servico-nova-esperanca-rio-branco-ac-97m2-id-2661484863/","https://resizedimgs.zapimoveis.com.br/fit-in/400x180/named.images.sp/85a2cdddcd346180d2a8cad737a492b3/casa-com-2-quartos-a-venda-97m-no-nova-esperanca-rio-branco.jpg",-9.97461,-67.84142
1,NA,616,0,4,NA,0,1,2656843842,NA,1,1,1,1,2,1,0,0,3,5e+06,1,"Rodovia BR-364, 3400 - Portal da Amazonia, Rio Branco - AC","casas_de_condominio","https://www.zapimoveis.com.br/imovel/venda-casa-de-condominio-2-quartos-mobiliado-portal-da-amazonia-rio-branco-ac-616m2-id-2656843842/","https://resizedimgs.zapimoveis.com.br/fit-in/400x180/named.images.sp/da031ebe52285e50fb5da0b03533b4e0/casa-de-condominio-com-2-quartos-a-venda-616m-no-portal-da-amazonia-rio-branco.jpg",-9.978729994026,-67.849295017239
NA,NA,203,NA,3,NA,NA,NA,2647395461,NA,NA,NA,NA,NA,2,NA,NA,NA,2,590000,NA,"Vila da Amizade, Rio Branco - AC","casas","https://www.zapimoveis.com.br/imovel/venda-casa-2-quartos-com-escritorio-vila-da-amizade-rio-branco-ac-203m2-id-2647395461/","https://resizedimgs.zapimoveis.com.br/fit-in/400x180/named.images.sp/c92b5f5e473160f5a9ef8cd8453ed572/casa-com-2-quartos-a-venda-203m-no-vila-da-amizade-rio-branco.jpg",-10.02991,-67.80128
0,NA,78,0,1,NA,0,1,2666637893,NA,1,1,1,0,3,1,0,0,2,417000,0,"Estrada da Floresta, 51 - Floresta Sul, Rio Branco - AC","casas_de_condominio","https://www.zapimoveis.com.br/imovel/venda-casa-de-condominio-3-quartos-com-piscina-floresta-sul-rio-branco-ac-78m2-id-2666637893/","https://resizedimgs.zapimoveis.com.br/fit-in/400x180/named.images.sp/fcd98f1ff86719bc38b1203067b8a0f7/casa-de-condominio-com-3-quartos-a-venda-78m-no-floresta-sul-rio-branco.jpg",-9.982091395221,-67.838490867537
0,NA,176,1,2,NA,0,0,2643147716,NA,0,0,0,0,2,0,0,0,1,340000,0,"Nova Estacao, Rio Branco - AC","casas","https://www.zapimoveis.com.br/imovel/venda-casa-2-quartos-com-churrasqueira-nova-estacao-rio-branco-ac-176m2-id-2643147716/","https://resizedimgs.zapimoveis.com.br/fit-in/400x180/named.images.sp/7503d00713f941736d1a5202edbb859b/casa-com-2-quartos-a-venda-176m-no-nova-estacao-rio-branco.jpg",-9.95424,-67.83117
0,NA,78,0,1,NA,0,1,2666444298,NA,1,1,1,0,3,1,0,0,2,431000,0,"Avenida Ceará, 10 - Floresta Sul, Rio Branco - AC","casas_de_condominio","https://www.zapimoveis.com.br/imovel/venda-casa-de-condominio-3-quartos-com-piscina-floresta-sul-rio-branco-ac-78m2-id-2666444298/","https://resizedimgs.zapimoveis.com.br/fit-in/400x180/named.images.sp/72be0b89d6374c58ebf8fb96be9c55c8/casa-de-condominio-com-3-quartos-a-venda-78m-no-floresta-sul-rio-branco.jpg",-9.972943513477,-67.797597009305
NA,NA,300,NA,4,NA,NA,NA,2636388171,NA,NA,NA,NA,NA,4,NA,NA,NA,NA,420000,NA,"Conjunto Universitario, Rio Branco - AC","casas","https://www.zapimoveis.com.br/imovel/venda-casa-4-quartos-conjunto-universitario-rio-branco-ac-300m2-id-2636388171/","https://resizedimgs.zapimoveis.com.br/fit-in/400x180/named.images.sp/d08443398fcc3cadf3b01eb01fc3240e/casa-com-4-quartos-a-venda-300m-no-conjunto-universitario-rio-branco.jpg",-9.94636,-67.88182
NA,NA,70,NA,2,NA,NA,NA,2641762728,NA,NA,NA,NA,NA,2,NA,NA,NA,1,175000,NA,"Calafate, Rio Branco - AC","casas","https://www.zapimoveis.com.br/imovel/venda-casa-2-quartos-calafate-rio-branco-ac-70m2-id-2641762728/","https://resizedimgs.zapimoveis.com.br/fit-in/400x180/named.images.sp/003b9647c25a78e0da5ee4432abed2eb/casa-com-2-quartos-a-venda-70m-no-calafate-rio-branco.jpg",-9.97769,-67.88752
0,NA,450,1,3,NA,0,0,2646777363,NA,0,0,0,0,4,0,0,0,3,8e+05,0,"Conjunto Paulo Cesar de Oliveira, Rio Branco - AC","casas","https://www.zapimoveis.com.br/imovel/venda-casa-4-quartos-com-churrasqueira-conjunto-paulo-cesar-de-oliveira-rio-branco-ac-450m2-id-2646777363/","https://resizedimgs.zapimoveis.com.br/fit-in/400x180/named.images.sp/407795363ef8dea97400aaac4ec1a951/casa-com-4-quartos-a-venda-450m-no-conjunto-paulo-cesar-de-oliveira-rio-branco.jpg",-9.97388,-67.80756
NA,NA,180,NA,1,NA,NA,NA,2665322927,NA,NA,NA,NA,NA,3,NA,NA,NA,2,650000,NA,"Travessa Macauã, 80 - Conjunto Mariana, Rio Branco - AC","casas","https://www.zapimoveis.com.br/imovel/venda-casa-3-quartos-conjunto-mariana-rio-branco-ac-180m2-id-2665322927/","https://resizedimgs.zapimoveis.com.br/fit-in/400x180/named.images.sp/3793cce35eea84a0d544c93d35c538aa/casa-com-3-quartos-a-venda-180m-no-conjunto-mariana-rio-branco.jpg",-9.960812474728,-67.845274176571
NA,NA,126,NA,2,NA,NA,NA,2654140896,NA,NA,NA,NA,NA,2,NA,NA,NA,1,160000,NA,"Conjunto Rui Lino, Rio Branco - AC","casas","https://www.zapimoveis.com.br/imovel/venda-casa-2-quartos-conjunto-rui-lino-rio-branco-ac-126m2-id-2654140896/","https://resizedimgs.zapimoveis.com.br/fit-in/400x180/named.images.sp/721b1092130b6ad66a0c8f268fe45eb6/casa-com-2-quartos-a-venda-126m-no-conjunto-rui-lino-rio-branco.jpg",-9.94951,-67.85387
NA,NA,225,NA,2,NA,NA,NA,2652947868,NA,NA,NA,NA,NA,2,NA,NA,NA,2,365000,NA,"Sao Francisco, Rio Branco - AC","casas","https://www.zapimoveis.com.br/imovel/venda-casa-2-quartos-com-ar-condicionado-sao-francisco-rio-branco-ac-225m2-id-2652947868/","https://resizedimgs.zapimoveis.com.br/fit-in/400x180/named.images.sp/04618de5a42215af3e19e4bf0bf43954/casa-com-2-quartos-a-venda-225m-no-sao-francisco-rio-branco.jpg",-9.95828,-67.80029
0,NA,175,1,2,NA,0,0,2654402254,NA,0,0,0,0,3,0,0,0,7,540000,0,"Jardim America, Rio Branco - AC","casas","https://www.zapimoveis.com.br/imovel/venda-casa-3-quartos-com-cozinha-jardim-america-rio-branco-ac-175m2-id-2654402254/","https://resizedimgs.zapimoveis.com.br/fit-in/400x180/named.images.sp/23e7dd9d267767c0c481d8c2f2d70b21/casa-com-3-quartos-a-venda-175m-no-jardim-america-rio-branco.jpg",-9.95166,-67.826
0,NA,103,0,3,NA,0,1,2655116169,NA,1,1,1,0,3,0,0,0,2,590000,1,"Travessa da Afelétro, 12 - Boa Esperanca, Rio Branco - AC","casas_de_condominio","https://www.zapimoveis.com.br/imovel/venda-casa-de-condominio-3-quartos-com-piscina-boa-esperanca-rio-branco-ac-103m2-id-2655116169/","https://resizedimgs.zapimoveis.com.br/fit-in/400x180/named.images.sp/53c0a0a2e2f730c69cc4c06a4851beab/casa-de-condominio-com-3-quartos-a-venda-103m-no-boa-esperanca-rio-branco.jpg",-9.954480537208,-67.82379132897
0,NA,120,0,2,NA,0,0,2643145589,NA,1,0,0,0,4,0,0,0,2,475000,0,"Sao Francisco, Rio Branco - AC","casas","https://www.zapimoveis.com.br/imovel/venda-casa-4-quartos-com-piscina-sao-francisco-rio-branco-ac-120m2-id-2643145589/","https://resizedimgs.zapimoveis.com.br/fit-in/400x180/named.images.sp/41fb5cf60b1805bd95c89abdaff295a0/casa-com-4-quartos-a-venda-120m-no-sao-francisco-rio-branco.jpg",-9.95828,-67.80029
0,NA,114,0,3,NA,0,1,2641603954,NA,1,1,1,1,4,1,0,0,2,580000,0,"Avenida Recanto Verde, 310 - Conjunto Mariana, Rio Branco - AC","casas_de_condominio","https://www.zapimoveis.com.br/imovel/venda-casa-de-condominio-4-quartos-com-piscina-conjunto-mariana-rio-branco-ac-114m2-id-2641603954/","https://resizedimgs.zapimoveis.com.br/fit-in/400x180/named.images.sp/403d8e6c1119ba48ad434cf5a0ab39fa/casa-de-condominio-com-4-quartos-a-venda-114m-no-conjunto-mariana-rio-branco.jpg",-9.962130011973,-67.84608499978
NA,NA,276,NA,1,NA,NA,NA,2665322932,NA,NA,NA,NA,NA,3,NA,NA,NA,2,850000,NA,"Rua do Eucalipto, 27 - Conjunto Bela Vista, Rio Branco - AC","casas","https://www.zapimoveis.com.br/imovel/venda-casa-3-quartos-mobiliado-conjunto-bela-vista-rio-branco-ac-276m2-id-2665322932/","https://resizedimgs.zapimoveis.com.br/fit-in/400x180/named.images.sp/c08212efd26320e006cec3d4fcda66be/casa-com-3-quartos-a-venda-276m-no-conjunto-bela-vista-rio-branco.jpg",-9.976499988687,-67.828390005896
0,NA,142,0,5,NA,0,1,2612091776,NA,1,0,0,0,3,0,0,0,3,550000,0,"Rua Halley, 211 - Morada do Sol, Rio Branco - AC","sobrados","https://www.zapimoveis.com.br/imovel/venda-sobrados-3-quartos-mobiliado-morada-do-sol-rio-branco-ac-142m2-id-2612091776/","https://resizedimgs.zapimoveis.com.br/fit-in/400x180/named.images.sp/56d9944d80cf6e31142e1ac7487f9632/sobrado-com-3-quartos-a-venda-142m-no-morada-do-sol-rio-branco.jpg",-9.962217573715,-67.790998567154
NA,NA,200,NA,2,NA,NA,NA,2635915862,NA,NA,NA,NA,NA,2,NA,NA,NA,4,315000,NA,"Conjunto Bela Vista, Rio Branco - AC","casas","https://www.zapimoveis.com.br/imovel/venda-casa-2-quartos-com-escritorio-conjunto-bela-vista-rio-branco-ac-200m2-id-2635915862/","https://resizedimgs.zapimoveis.com.br/fit-in/400x180/named.images.sp/bc446f8cbeb0e3d1de9925d97a406e9b/casa-com-2-quartos-a-venda-200m-no-conjunto-bela-vista-rio-branco.jpg",-9.97202,-67.83173
0,NA,360,0,2,NA,0,0,2652943964,NA,1,0,0,0,3,0,0,0,3,475000,0,"Conjunto Manoel Juliao, Rio Branco - AC","casas","https://www.zapimoveis.com.br/imovel/venda-casa-3-quartos-com-piscina-conjunto-manoel-juliao-rio-branco-ac-360m2-id-2652943964/","https://resizedimgs.zapimoveis.com.br/fit-in/400x180/named.images.sp/c5874f758518ba4dc8cd8dc09d39dfae/casa-com-3-quartos-a-venda-360m-no-conjunto-manoel-juliao-rio-branco.jpg",-9.95325,-67.83383
NA,NA,150,NA,2,NA,NA,NA,2654145364,NA,NA,NA,NA,NA,3,NA,NA,NA,2,230000,NA,"Loteamento Santa Helena, Rio Branco - AC","casas","https://www.zapimoveis.com.br/imovel/venda-casa-3-quartos-loteamento-santa-helena-rio-branco-ac-150m2-id-2654145364/","https://resizedimgs.zapimoveis.com.br/fit-in/400x180/named.images.sp/27478a41edcd38df9d8e4572f372d344/casa-com-3-quartos-a-venda-150m-no-loteamento-santa-helena-rio-branco.jpg",-10.01603,-67.79819
NA,NA,92,NA,1,NA,NA,NA,2670015609,944,NA,NA,NA,NA,3,NA,NA,NA,NA,345000,NA,"Vilage Wilde Maciel, Rio Branco - AC","casas","https://www.zapimoveis.com.br/imovel/venda-casa-3-quartos-vilage-wilde-maciel-rio-branco-ac-92m2-id-2670015609/","https://resizedimgs.zapimoveis.com.br/fit-in/400x180/named.images.sp/cdbbe710df48312001230cc5ab407b53/casa-com-3-quartos-a-venda-92m-no-vilage-wilde-maciel-rio-branco.jpg",-9.97388,-67.80756
NA,NA,148,NA,2,NA,NA,NA,2655499158,NA,NA,NA,NA,NA,2,NA,NA,NA,2,235000,NA,"Travessa Raul Pompéia, 54 - Conjunto Esperanca, Rio Branco - AC","casas","https://www.zapimoveis.com.br/imovel/venda-casa-2-quartos-conjunto-esperanca-rio-branco-ac-148m2-id-2655499158/","https://resizedimgs.zapimoveis.com.br/fit-in/400x180/named.images.sp/bdc8814d0a546d79db6a0f12644f6dfd/casa-com-2-quartos-a-venda-148m-no-conjunto-esperanca-rio-branco.jpg",-9.972470011549,-67.837150016724
NA,NA,204,NA,2,NA,NA,NA,2654402253,NA,NA,NA,NA,NA,2,NA,NA,NA,NA,370000,NA,"LBA Vila Betel ll, Rio Branco - AC","casas","https://www.zapimoveis.com.br/imovel/venda-casa-2-quartos-lba-vila-betel-ll-rio-branco-ac-204m2-id-2654402253/","https://resizedimgs.zapimoveis.com.br/fit-in/400x180/named.images.sp/6acbbcb8c5099aee73c64baac710d8ee/casa-com-2-quartos-a-venda-204m-no-lba-vila-betel-ll-rio-branco.jpg",-9.97822,-67.84194
NA,NA,124,NA,3,NA,NA,NA,2670955010,NA,NA,NA,NA,NA,2,NA,NA,NA,4,330000,NA,"Rua Dourado, 357 - Conquista, Rio Branco - AC","casas","https://www.zapimoveis.com.br/imovel/venda-casa-2-quartos-conquista-rio-branco-ac-124m2-id-2670955010/","https://resizedimgs.zapimoveis.com.br/fit-in/400x180/named.images.sp/5a602e6af2baa077d98e2f3490b26dbc/casa-com-2-quartos-a-venda-124m-no-conquista-rio-branco.jpg",-9.949169997102,-67.834530001429
NA,NA,270,NA,1,NA,NA,NA,2654396883,NA,NA,NA,NA,NA,2,NA,NA,NA,6,450000,NA,"Nova Esperanca, Rio Branco - AC","casas","https://www.zapimoveis.com.br/imovel/venda-casa-2-quartos-nova-esperanca-rio-branco-ac-270m2-id-2654396883/","https://resizedimgs.zapimoveis.com.br/fit-in/400x180/named.images.sp/b73c96f9b5a827ac9fd7620aec519357/casa-com-2-quartos-a-venda-270m-no-nova-esperanca-rio-branco.jpg",-9.97461,-67.84142
1,NA,422,0,5,NA,0,1,2641834514,NA,1,1,1,1,4,1,0,0,3,2497000,0,"Estrada da Floresta, 2000 - Floresta Sul, Rio Branco - AC","casas_de_condominio","https://www.zapimoveis.com.br/imovel/venda-casa-de-condominio-4-quartos-com-piscina-floresta-sul-rio-branco-ac-422m2-id-2641834514/","https://resizedimgs.zapimoveis.com.br/fit-in/400x180/named.images.sp/48f8e30095d4ba22af51edb8b3ffa3ba/casa-de-condominio-com-4-quartos-a-venda-422m-no-floresta-sul-rio-branco.jpg",-9.986972819146,-67.844681727349
0,NA,120,0,2,NA,0,0,2664745667,NA,0,0,0,0,3,0,0,0,2,595000,1,"Rua Matilde Lemos de Moura Leite, 178 - Portal da Amazonia, Rio Branco - AC","casas","https://www.zapimoveis.com.br/imovel/venda-casa-3-quartos-mobiliado-portal-da-amazonia-rio-branco-ac-120m2-id-2664745667/","https://resizedimgs.zapimoveis.com.br/fit-in/400x180/named.images.sp/036a68188c78369d15d144d81fe6ab4e/casa-com-3-quartos-a-venda-120m-no-portal-da-amazonia-rio-branco.jpg",-9.968269123423,-67.87386980668
NA,NA,160,NA,2,NA,NA,NA,2635916057,NA,NA,NA,NA,NA,3,NA,NA,NA,2,420000,NA,"Waldemar Maciel, Rio Branco - AC","casas","https://www.zapimoveis.com.br/imovel/venda-casa-3-quartos-waldemar-maciel-rio-branco-ac-160m2-id-2635916057/","https://resizedimgs.zapimoveis.com.br/fit-in/400x180/named.images.sp/a15f12549a3ca645a177c5bca9959186/casa-com-3-quartos-a-venda-160m-no-waldemar-maciel-rio-branco.jpg",-9.97996,-67.87009
NA,NA,120,NA,2,NA,NA,NA,2646595553,NA,NA,NA,NA,NA,3,NA,NA,NA,4,188000,NA,"Seis de Agosto, Rio Branco - AC","casas","https://www.zapimoveis.com.br/imovel/venda-casa-3-quartos-seis-de-agosto-rio-branco-ac-120m2-id-2646595553/","https://resizedimgs.zapimoveis.com.br/fit-in/400x180/named.images.sp/7a9e031f94833cbdd02851bb8c0b7376/casa-com-3-quartos-a-venda-120m-no-seis-de-agosto-rio-branco.jpg",-9.97882,-67.8048
1,NA,256,0,4,NA,0,1,2645005259,NA,1,1,1,1,3,1,0,0,3,1750000,1,"Rodovia BR-364, 5000 - Distrito Industrial, Rio Branco - AC","casas_de_condominio","https://www.zapimoveis.com.br/imovel/venda-casa-de-condominio-3-quartos-mobiliado-distrito-industrial-rio-branco-ac-256m2-id-2645005259/","https://resizedimgs.zapimoveis.com.br/fit-in/400x180/named.images.sp/c9429fcac2a18de86fc5baf15ac25dca/casa-de-condominio-com-3-quartos-a-venda-256m-no-distrito-industrial-rio-branco.jpg",-9.949571696992,-67.865677506309
0,NA,63,1,1,NA,0,0,2670420297,NA,1,0,0,0,2,0,0,0,4,318000,1,"Loteamento Novo Horizonte, Rio Branco - AC","casas","https://www.zapimoveis.com.br/imovel/venda-casa-2-quartos-com-piscina-loteamento-novo-horizonte-rio-branco-ac-63m2-id-2670420297/","https://resizedimgs.zapimoveis.com.br/fit-in/400x180/named.images.sp/03d5a15b35ac13fe8fd38315e8b490e1/casa-com-2-quartos-a-venda-63m-no-loteamento-novo-horizonte-rio-branco.jpg",-9.97853,-67.8341
0,NA,349,1,1,NA,0,0,2665325605,NA,0,0,0,0,2,0,0,0,NA,210000,0,"Rua das Palmeiras, 119 - Tancredo Neves, Rio Branco - AC","casas","https://www.zapimoveis.com.br/imovel/venda-casa-2-quartos-com-cozinha-tancredo-neves-rio-branco-ac-349m2-id-2665325605/","https://resizedimgs.zapimoveis.com.br/fit-in/400x180/named.images.sp/f863e19d0efdd07d32c3b2813b0ad6e0/casa-com-2-quartos-a-venda-349m-no-tancredo-neves-rio-branco.jpg",-9.944284797376,-67.823704697528
0,NA,120,0,2,NA,0,0,2664450799,NA,1,0,0,0,3,0,0,0,2,595000,0,"Rua Matilde Lemos de Moura Leite, 30 - Portal da Amazonia, Rio Branco - AC","casas","https://www.zapimoveis.com.br/imovel/venda-casa-3-quartos-mobiliado-portal-da-amazonia-rio-branco-ac-120m2-id-2664450799/","https://resizedimgs.zapimoveis.com.br/fit-in/400x180/named.images.sp/7176b5e65a0615b41512772f07b26351/casa-com-3-quartos-a-venda-120m-no-portal-da-amazonia-rio-branco.jpg",-9.968269123423,-67.87386980668
0,NA,108,0,3,355,0,0,2589783457,NA,1,1,1,1,3,1,0,0,2,4e+05,0,"Avenida Eugênio Beco Bezerra, 100 - Sao Francisco, Rio Branco - AC","casas","https://www.zapimoveis.com.br/imovel/venda-casa-3-quartos-com-piscina-sao-francisco-rio-branco-ac-108m2-id-2589783457/","https://resizedimgs.zapimoveis.com.br/fit-in/400x180/named.images.sp/07b58dd103222d79abad772d0c7c1782/casa-com-3-quartos-a-venda-108m-no-sao-francisco-rio-branco.jpg",-9.957554899688,-67.800691528179
NA,NA,252,NA,2,NA,NA,NA,2656113482,NA,NA,NA,NA,NA,3,NA,NA,NA,NA,3e+05,NA,"Raimundo Melo, Rio Branco - AC","casas","https://www.zapimoveis.com.br/imovel/venda-casa-3-quartos-raimundo-melo-rio-branco-ac-252m2-id-2656113482/","https://resizedimgs.zapimoveis.com.br/fit-in/400x180/named.images.sp/ca8c2ba883bc98d4dd047168d78f4b76/casa-com-3-quartos-a-venda-252m-no-raimundo-melo-rio-branco.jpg",-9.94091,-67.81896
1,NA,200,1,2,NA,0,0,2665325610,NA,1,0,0,0,3,0,0,0,1,350000,0,"Rua Margarida, 464 - Nova Esperanca, Rio Branco - AC","casas","https://www.zapimoveis.com.br/imovel/venda-casa-3-quartos-com-piscina-nova-esperanca-rio-branco-ac-200m2-id-2665325610/","https://resizedimgs.zapimoveis.com.br/fit-in/400x180/named.images.sp/e00d763c6c46a4c6d5710b423db1e7b7/casa-com-3-quartos-a-venda-200m-no-nova-esperanca-rio-branco.jpg",-9.9738099845,-67.841889982969
NA,NA,120,NA,1,NA,NA,NA,2668456279,NA,NA,NA,NA,NA,2,NA,NA,NA,2,315000,NA,"Conjunto Rui Lino, Rio Branco - AC","casas","https://www.zapimoveis.com.br/imovel/venda-casa-2-quartos-conjunto-rui-lino-rio-branco-ac-120m2-id-2668456279/","https://resizedimgs.zapimoveis.com.br/fit-in/400x180/named.images.sp/6dbca2735e5f13a9c250fb1c2da4cefb/casa-com-2-quartos-a-venda-120m-no-conjunto-rui-lino-rio-branco.jpg",-9.94951,-67.85387
0,NA,572,0,5,NA,0,0,2619116719,NA,1,0,0,0,5,0,0,0,4,9e+05,0,"Rua Laranja, 247 - Morada do Sol, Rio Branco - AC","sobrados","https://www.zapimoveis.com.br/imovel/venda-sobrados-5-quartos-com-piscina-morada-do-sol-rio-branco-ac-572m2-id-2619116719/","https://resizedimgs.zapimoveis.com.br/fit-in/400x180/named.images.sp/a10c246f899e9097bc2b110810e07393/sobrado-com-5-quartos-a-venda-572m-no-morada-do-sol-rio-branco.jpg",-9.964671798225,-67.79907138341
NA,NA,96,NA,2,NA,NA,NA,2549464487,NA,NA,NA,NA,NA,2,NA,NA,NA,2,280000,NA,"Rua Rio Moa, 12 - Portal da Amazonia, Rio Branco - AC","casas","https://www.zapimoveis.com.br/imovel/venda-casa-2-quartos-portal-da-amazonia-rio-branco-ac-96m2-id-2549464487/","https://resizedimgs.zapimoveis.com.br/fit-in/400x180/named.images.sp/e428fe9c1bd78effea957cdce8a47ef6/casa-com-2-quartos-a-venda-96m-no-portal-da-amazonia-rio-branco.jpg",-9.971517168698,-67.874160470186
NA,NA,140,NA,2,NA,NA,NA,2614709599,NA,NA,NA,NA,NA,3,NA,NA,NA,NA,250000,NA,"Travessa Campo do Rio Branco - Capoeira, Rio Branco - AC","casas","https://www.zapimoveis.com.br/imovel/venda-casa-3-quartos-capoeira-rio-branco-ac-140m2-id-2614709599/","https://resizedimgs.zapimoveis.com.br/fit-in/400x180/named.images.sp/01e88a5e84d6feff5f581207fc21efa2/casa-com-3-quartos-a-venda-140m-no-capoeira-rio-branco.jpg",-9.968627059716,-67.808126508045
NA,NA,200,NA,2,NA,NA,NA,2652947864,NA,NA,NA,NA,NA,5,NA,NA,NA,2,270000,NA,"Loteamento Santa Luzia, Rio Branco - AC","casas","https://www.zapimoveis.com.br/imovel/venda-casa-5-quartos-loteamento-santa-luzia-rio-branco-ac-200m2-id-2652947864/","https://resizedimgs.zapimoveis.com.br/fit-in/400x180/named.images.sp/f0bff1dd40d7160160ca38c171177767/casa-com-5-quartos-a-venda-200m-no-loteamento-santa-luzia-rio-branco.jpg",-10.056645001777,-67.790644996702
0,NA,200,1,1,NA,0,0,2665322925,NA,0,0,0,0,2,0,0,0,2,2e+05,0,"Rua São Marcos, 272 - Conjunto Habitar Brasil, Rio Branco - AC","casas","https://www.zapimoveis.com.br/imovel/venda-casa-2-quartos-conjunto-habitar-brasil-rio-branco-ac-200m2-id-2665322925/","https://resizedimgs.zapimoveis.com.br/fit-in/400x180/named.images.sp/5f2d8ac5c5e2e4e6538ad505a5d3040d/casa-com-2-quartos-a-venda-200m-no-conjunto-habitar-brasil-rio-branco.jpg",-9.975119992148,-67.846700021926
NA,1,150,NA,5,NA,NA,NA,2637014602,NA,NA,NA,NA,NA,3,NA,NA,NA,3,750000,NA,"Rua Amazonas, 770 - Capoeira, Rio Branco - AC","casas","https://www.zapimoveis.com.br/imovel/venda-casa-3-quartos-capoeira-rio-branco-ac-150m2-id-2637014602/","https://resizedimgs.zapimoveis.com.br/fit-in/400x180/named.images.sp/e99f414fa3b1613903df5a6cab862e79/casa-com-3-quartos-a-venda-150m-no-capoeira-rio-branco.jpg",-9.967500003971,-67.804430000393
NA,NA,129,NA,1,NA,NA,NA,2670955011,NA,NA,NA,NA,NA,2,NA,NA,NA,3,220000,NA,"Rua São Lucas, 545 - Conjunto Habitar Brasil, Rio Branco - AC","casas","https://www.zapimoveis.com.br/imovel/venda-casa-2-quartos-conjunto-habitar-brasil-rio-branco-ac-129m2-id-2670955011/","https://resizedimgs.zapimoveis.com.br/fit-in/400x180/named.images.sp/23361709faa0a2f60eef6b8077567e03/casa-com-2-quartos-a-venda-129m-no-conjunto-habitar-brasil-rio-branco.jpg",-9.972540000441,-67.847039991919
NA,NA,75,NA,1,NA,NA,NA,2652943432,NA,NA,NA,NA,NA,2,NA,NA,NA,NA,135000,NA,"Alto Alegre, Rio Branco - AC","casas","https://www.zapimoveis.com.br/imovel/venda-casa-2-quartos-alto-alegre-rio-branco-ac-75m2-id-2652943432/","https://resizedimgs.zapimoveis.com.br/fit-in/400x180/named.images.sp/80bad466348fe27d1d32ea5e012d8f70/casa-com-2-quartos-a-venda-75m-no-alto-alegre-rio-branco.jpg",-9.92805,-67.826
NA,NA,157,NA,2,NA,NA,NA,2666003716,700,NA,NA,NA,NA,3,NA,NA,NA,3,285000,NA,"Rua Flor Lírio Lustosa, 268 - Vila Ivonete, Rio Branco - AC","casas","https://www.zapimoveis.com.br/imovel/venda-casa-3-quartos-vila-ivonete-rio-branco-ac-157m2-id-2666003716/","https://resizedimgs.zapimoveis.com.br/fit-in/400x180/named.images.sp/7e5bab207c9398442900cc33321cc310/casa-com-3-quartos-a-venda-157m-no-vila-ivonete-rio-branco.jpg",-9.948579994938,-67.823149975307
NA,NA,174,NA,4,NA,NA,NA,2637222624,NA,NA,NA,NA,NA,3,NA,NA,NA,NA,895000,NA,"Vila Ivonete, Rio Branco - AC","casas","https://www.zapimoveis.com.br/imovel/venda-casa-3-quartos-vila-ivonete-rio-branco-ac-174m2-id-2637222624/","https://resizedimgs.zapimoveis.com.br/fit-in/400x180/named.images.sp/0c778bc8035e18433642ec6e62324103/casa-com-3-quartos-a-venda-174m-no-vila-ivonete-rio-branco.jpg",-9.94936,-67.82229
0,NA,360,1,1,NA,0,0,2667254996,NA,1,0,0,0,2,0,0,0,2,230000,0,"Calafate, Rio Branco - AC","casas","https://www.zapimoveis.com.br/imovel/venda-casa-2-quartos-com-piscina-calafate-rio-branco-ac-360m2-id-2667254996/","https://resizedimgs.zapimoveis.com.br/fit-in/400x180/named.images.sp/38684372a995153a4b8b925c6b0b55b6/casa-com-2-quartos-a-venda-360m-no-calafate-rio-branco.jpg",-9.97769,-67.88752
0,NA,220,1,3,NA,0,0,2646776932,NA,1,0,0,0,3,0,0,0,4,698000,0,"Xavier Maia, Rio Branco - AC","sobrados","https://www.zapimoveis.com.br/imovel/venda-sobrados-3-quartos-com-piscina-xavier-maia-rio-branco-ac-220m2-id-2646776932/","https://resizedimgs.zapimoveis.com.br/fit-in/400x180/named.images.sp/bafabb890694ae25e4d6b02d589a7b30/sobrado-com-3-quartos-a-venda-220m-no-xavier-maia-rio-branco.jpg",-9.92942,-67.82026
NA,NA,188,NA,2,NA,NA,NA,2650643878,NA,NA,NA,NA,NA,4,NA,NA,NA,2,350000,NA,"Rua Santa Inês, 94 - Bosque, Rio Branco - AC","casas","https://www.zapimoveis.com.br/imovel/venda-casa-4-quartos-bosque-rio-branco-ac-188m2-id-2650643878/","https://resizedimgs.zapimoveis.com.br/fit-in/400x180/named.images.sp/223bf46d15f2fbd9a4a5b09297b87be5/casa-com-4-quartos-a-venda-188m-no-bosque-rio-branco.jpg",-9.966270001589,-67.80255002333
0,NA,104,1,2,NA,0,0,2671029135,NA,0,0,0,0,2,0,0,0,2,370000,1,"Rua Flor de Lotus, 20 - Floresta Sul, Rio Branco - AC","casas","https://www.zapimoveis.com.br/imovel/venda-casa-2-quartos-com-porcelanato-floresta-sul-rio-branco-ac-104m2-id-2671029135/","https://resizedimgs.zapimoveis.com.br/fit-in/400x180/named.images.sp/d1d5103dd790cb4220a8aecfad9d24cd/casa-com-2-quartos-a-venda-104m-no-floresta-sul-rio-branco.jpg",-9.990065523367,-67.839656867801
NA,NA,184,NA,1,NA,NA,NA,2610737867,820,NA,NA,NA,NA,2,NA,NA,NA,2,295000,NA,"Rua W8, 99 - Conjunto Tucuma, Rio Branco - AC","casas","https://www.zapimoveis.com.br/imovel/venda-casa-2-quartos-conjunto-tucuma-rio-branco-ac-184m2-id-2610737867/","https://resizedimgs.zapimoveis.com.br/fit-in/400x180/named.images.sp/bc08647baaa80d5b2cc9353bbaf00207/casa-com-2-quartos-a-venda-184m-no-conjunto-tucuma-rio-branco.jpg",-9.953320003093,-67.857969993659
0,NA,157,0,2,NA,0,0,2614937401,NA,1,0,0,0,3,0,0,0,NA,630000,0,"Rua Silvio Antônio Araújo de Oliveira, 11 - Portal da Amazonia, Rio Branco - AC","casas","https://www.zapimoveis.com.br/imovel/venda-casa-3-quartos-com-piscina-portal-da-amazonia-rio-branco-ac-157m2-id-2614937401/","https://resizedimgs.zapimoveis.com.br/fit-in/400x180/named.images.sp/0685bb0de5cf928dad54d2a17ed4e65d/casa-com-3-quartos-a-venda-157m-no-portal-da-amazonia-rio-branco.jpg",-9.968292503415,-67.87486489688
0,NA,206,0,4,NA,0,1,2649784758,NA,1,0,0,0,3,0,0,0,2,799000,1,"Rua Luiz Gonzaga de Oliveira, 123 - Portal da Amazonia, Rio Branco - AC","casas","https://www.zapimoveis.com.br/imovel/venda-casa-3-quartos-com-piscina-portal-da-amazonia-rio-branco-ac-206m2-id-2649784758/","https://resizedimgs.zapimoveis.com.br/fit-in/400x180/named.images.sp/3971de0eebf13d793a83c85eaf4b4afd/casa-com-3-quartos-a-venda-206m-no-portal-da-amazonia-rio-branco.jpg",-9.968319753672,-67.87231302683
NA,NA,200,NA,2,NA,NA,NA,2638698175,NA,NA,NA,NA,NA,3,NA,NA,NA,4,390000,NA,"Conjunto Bela Vista, Rio Branco - AC","casas","https://www.zapimoveis.com.br/imovel/venda-casa-3-quartos-conjunto-bela-vista-rio-branco-ac-200m2-id-2638698175/","https://resizedimgs.zapimoveis.com.br/fit-in/400x180/named.images.sp/ef10e683f0ab29f5fc7dd3431d06131e/casa-com-3-quartos-a-venda-200m-no-conjunto-bela-vista-rio-branco.jpg",-9.97202,-67.83173
NA,NA,204,NA,3,NA,NA,NA,2639440372,NA,NA,NA,NA,NA,4,NA,NA,NA,2,450000,NA,"Rua Abacate, 261 - Jardim Tropical, Rio Branco - AC","casas","https://www.zapimoveis.com.br/imovel/venda-casa-4-quartos-jardim-tropical-rio-branco-ac-204m2-id-2639440372/","https://resizedimgs.zapimoveis.com.br/fit-in/400x180/named.images.sp/b5caf8c3c05972048b37321a6fd932c9/casa-com-4-quartos-a-venda-204m-no-jardim-tropical-rio-branco.jpg",-9.964126590216,-67.79717180236
NA,NA,259,NA,1,NA,NA,NA,2661286956,NA,NA,NA,NA,NA,2,NA,NA,NA,NA,228200,NA,"Rua 1º de Agosto - Placas, Rio Branco - AC","casas","https://www.zapimoveis.com.br/imovel/venda-casa-2-quartos-placas-rio-branco-ac-259m2-id-2661286956/","https://resizedimgs.zapimoveis.com.br/fit-in/400x180/named.images.sp/cf67dfdfaad33cb7ba26bc8ed314e7f0/casa-com-2-quartos-a-venda-259m-no-placas-rio-branco.jpg",-9.944803695284,-67.81338086554
NA,NA,175,NA,3,NA,NA,NA,2667502397,46,NA,NA,NA,NA,3,NA,NA,NA,3,440000,NA,"Rua 13 de Maio, 06 - Ivete Vargas, Rio Branco - AC","casas","https://www.zapimoveis.com.br/imovel/venda-casa-3-quartos-ivete-vargas-rio-branco-ac-175m2-id-2667502397/","https://resizedimgs.zapimoveis.com.br/fit-in/400x180/named.images.sp/3cefbb3be5c378ca45a505b8631c98b5/casa-com-3-quartos-a-venda-175m-no-ivete-vargas-rio-branco.jpg",-9.976299996477,-67.824740022339
0,NA,280,0,4,NA,0,1,2641671662,NA,0,0,0,0,3,0,0,0,4,829000,0,"Rua da Liberdade, 319 - Conjunto Mariana, Rio Branco - AC","sobrados","https://www.zapimoveis.com.br/imovel/venda-sobrados-3-quartos-mobiliado-conjunto-mariana-rio-branco-ac-280m2-id-2641671662/","https://resizedimgs.zapimoveis.com.br/fit-in/400x180/named.images.sp/2cfc983d4db41a2756785fc9d4a2bc7f/sobrado-com-3-quartos-a-venda-280m-no-conjunto-mariana-rio-branco.jpg",-9.957345887449,-67.845944589858
0,NA,149,1,3,NA,0,0,2667254608,NA,0,0,0,0,3,0,0,0,3,320000,0,"Nova Esperanca, Rio Branco - AC","casas","https://www.zapimoveis.com.br/imovel/venda-casa-3-quartos-com-cozinha-nova-esperanca-rio-branco-ac-149m2-id-2667254608/","https://resizedimgs.zapimoveis.com.br/fit-in/400x180/named.images.sp/3f4b21156929bab2af4ccc14c947e24c/casa-com-3-quartos-a-venda-149m-no-nova-esperanca-rio-branco.jpg",-9.97461,-67.84142
NA,NA,141,NA,1,NA,NA,NA,2616955017,NA,NA,NA,NA,NA,2,NA,NA,NA,3,265000,NA,"Rua Santo Inácio - Conjunto Bela Vista, Rio Branco - AC","casas","https://www.zapimoveis.com.br/imovel/venda-casa-2-quartos-conjunto-bela-vista-rio-branco-ac-141m2-id-2616955017/","https://resizedimgs.zapimoveis.com.br/fit-in/400x180/named.images.sp/7902d2dffb58817e7cf9472635fc8dec/casa-com-2-quartos-a-venda-141m-no-conjunto-bela-vista-rio-branco.jpg",-9.975734534974,-67.828736823269
NA,NA,70,NA,1,NA,NA,NA,2655236376,NA,NA,NA,NA,NA,2,NA,NA,NA,4,145000,NA,"Calafate, Rio Branco - AC","casas","https://www.zapimoveis.com.br/imovel/venda-casa-2-quartos-calafate-rio-branco-ac-70m2-id-2655236376/","https://resizedimgs.zapimoveis.com.br/fit-in/400x180/named.images.sp/15b503e74eedb2c34b245994fb0d5b3e/casa-com-2-quartos-a-venda-70m-no-calafate-rio-branco.jpg",-9.97769,-67.88752
NA,NA,290,NA,1,NA,NA,NA,2665325712,NA,NA,NA,NA,NA,3,NA,NA,NA,2,390000,NA,"Estrada da Floresta, 444 - Conjunto Bela Vista, Rio Branco - AC","casas","https://www.zapimoveis.com.br/imovel/venda-casa-3-quartos-conjunto-bela-vista-rio-branco-ac-290m2-id-2665325712/","https://resizedimgs.zapimoveis.com.br/fit-in/400x180/named.images.sp/fcb84bcd4fbe0a8ede3b4d91dd1b9ad3/casa-com-3-quartos-a-venda-290m-no-conjunto-bela-vista-rio-branco.jpg",-9.983508937167,-67.840993888446
0,NA,275,1,3,NA,0,0,2665913296,NA,0,0,0,0,4,0,0,0,3,420000,1,"Rua Mamoeiro, 110 - Conjunto Adalberto Sena, Rio Branco - AC","casas","https://www.zapimoveis.com.br/imovel/venda-casa-4-quartos-com-area-de-servico-conjunto-adalberto-sena-rio-branco-ac-275m2-id-2665913296/","https://resizedimgs.zapimoveis.com.br/fit-in/400x180/named.images.sp/880625e45bdacaa0e8c69e5aebd85a92/casa-com-4-quartos-a-venda-275m-no-conjunto-adalberto-sena-rio-branco.jpg",-9.932029402075,-67.822290114957
NA,NA,213,NA,3,NA,NA,NA,2667757601,NA,NA,NA,NA,NA,3,NA,NA,NA,NA,433000,NA,"Rua Manoel Rodrigues de Souza, 68 - Bosque, Rio Branco - AC","casas","https://www.zapimoveis.com.br/imovel/venda-casa-3-quartos-bosque-rio-branco-ac-213m2-id-2667757601/","https://resizedimgs.zapimoveis.com.br/fit-in/400x180/named.images.sp/a9106b42827169cc11c2379265a2e996/casa-com-3-quartos-a-venda-213m-no-bosque-rio-branco.jpg",-9.969090009094,-67.81969998396
NA,NA,200,NA,3,NA,NA,NA,2632751874,NA,NA,NA,NA,NA,4,NA,NA,NA,2,8e+05,NA,"Rua Alberto Assad, 344 - Vila Ivonete, Rio Branco - AC","sobrados","https://www.zapimoveis.com.br/imovel/venda-sobrados-4-quartos-vila-ivonete-rio-branco-ac-200m2-id-2632751874/","https://resizedimgs.zapimoveis.com.br/fit-in/400x180/named.images.sp/da4dc7c73a3b127bbd246640671fbae9/sobrado-com-4-quartos-a-venda-200m-no-vila-ivonete-rio-branco.jpg",-9.949439692712,-67.82249348297
0,NA,413,0,2,NA,0,0,2619103140,NA,0,0,0,0,4,0,0,0,3,1e+06,1,"Rua Vicente Lucena, 94 - Vila Ivonete, Rio Branco - AC","sobrados","https://www.zapimoveis.com.br/imovel/venda-sobrados-4-quartos-mobiliado-vila-ivonete-rio-branco-ac-413m2-id-2619103140/","https://resizedimgs.zapimoveis.com.br/fit-in/400x180/named.images.sp/238e2e6f02dfaa226e31b92363122e87/sobrado-com-4-quartos-a-venda-413m-no-vila-ivonete-rio-branco.jpg",-9.947820007777,-67.821569986558
NA,NA,250,NA,5,NA,NA,NA,2639991599,NA,NA,NA,NA,NA,3,NA,NA,NA,5,650000,NA,"Rua da Dama da Noite - Jardim Tropical, Rio Branco - AC","casas","https://www.zapimoveis.com.br/imovel/venda-casa-3-quartos-jardim-tropical-rio-branco-ac-250m2-id-2639991599/","https://resizedimgs.zapimoveis.com.br/fit-in/400x180/named.images.sp/e5bb45b8aea9e6c4c1251bf3c66514c3/casa-com-3-quartos-a-venda-250m-no-jardim-tropical-rio-branco.jpg",-9.959160107985,-67.794999863703
0,NA,220,1,3,NA,0,0,2668302504,NA,0,0,0,0,2,0,0,0,2,530000,1,"Rua Vênus, 344 - Morada do Sol, Rio Branco - AC","casas","https://www.zapimoveis.com.br/imovel/venda-casa-2-quartos-com-ambientes-integrados-morada-do-sol-rio-branco-ac-220m2-id-2668302504/","https://resizedimgs.zapimoveis.com.br/fit-in/400x180/named.images.sp/0d0197815d43866b7fd2b1c4a46cdaa3/casa-com-2-quartos-a-venda-220m-no-morada-do-sol-rio-branco.jpg",-9.962840001082,-67.793969971963
NA,NA,120,NA,2,NA,NA,NA,2669316074,NA,NA,NA,NA,NA,2,NA,NA,NA,NA,250000,NA,"Rua Gaivota II, 59 - Chico Mendes, Rio Branco - AC","casas","https://www.zapimoveis.com.br/imovel/venda-casa-2-quartos-chico-mendes-rio-branco-ac-120m2-id-2669316074/","https://resizedimgs.zapimoveis.com.br/fit-in/400x180/named.images.sp/603b13eaa70f37cb73c6b47eabda1374/casa-com-2-quartos-a-venda-120m-no-chico-mendes-rio-branco.jpg",-9.937029983819,-67.807870017275
1,NA,250,0,3,NA,0,0,2665326495,NA,0,0,0,0,3,0,0,0,2,6e+05,0,"Avenida Iáco, 742 - Portal da Amazonia, Rio Branco - AC","casas","https://www.zapimoveis.com.br/imovel/venda-casa-3-quartos-com-academia-portal-da-amazonia-rio-branco-ac-250m2-id-2665326495/","https://resizedimgs.zapimoveis.com.br/fit-in/400x180/named.images.sp/fdb2234c04b105786feebf626e740faa/casa-com-3-quartos-a-venda-250m-no-portal-da-amazonia-rio-branco.jpg",-9.970829855114,-67.869157047557
0,NA,372,1,4,NA,0,1,2665322923,NA,1,0,0,0,3,0,0,0,3,610000,0,"Rua Jaqueline, 98 - Conjunto Paulo Cesar de Oliveira, Rio Branco - AC","casas","https://www.zapimoveis.com.br/imovel/venda-casa-3-quartos-com-piscina-conjunto-paulo-cesar-de-oliveira-rio-branco-ac-372m2-id-2665322923/","https://resizedimgs.zapimoveis.com.br/fit-in/400x180/named.images.sp/984df58e6381acbfc1bb15c0642d8a4b/casa-com-3-quartos-a-venda-372m-no-conjunto-paulo-cesar-de-oliveira-rio-branco.jpg",-9.961340017599,-67.842800006197
0,NA,340,1,4,NA,0,0,2658971966,NA,1,1,1,0,3,0,0,0,2,1200000,1,"Alameda Sevilha, 130 - Jardim Europa, Rio Branco - AC","casas","https://www.zapimoveis.com.br/imovel/venda-casa-3-quartos-mobiliado-jardim-europa-rio-branco-ac-340m2-id-2658971966/","https://resizedimgs.zapimoveis.com.br/fit-in/400x180/named.images.sp/669d72585a7ec3c6ae9c46d54b0df25e/casa-com-3-quartos-a-venda-340m-no-jardim-europa-rio-branco.jpg",-9.968907828898,-67.848812572218
0,NA,600,1,2,NA,0,1,2665326393,NA,1,0,0,0,2,0,0,0,3,6e+05,1,"Alameda Portugal, 1190 - Jardim Europa, Rio Branco - AC","casas","https://www.zapimoveis.com.br/imovel/venda-casa-2-quartos-com-piscina-jardim-europa-rio-branco-ac-600m2-id-2665326393/","https://resizedimgs.zapimoveis.com.br/fit-in/400x180/named.images.sp/bea26aa4ae4b27b8f012c4bbd57ae773/casa-com-2-quartos-a-venda-600m-no-jardim-europa-rio-branco.jpg",-9.966389659624,-67.845063695601
0,NA,174,0,2,NA,0,0,2651610458,NA,1,0,0,0,3,0,0,0,2,250000,0,"Rua Andorinha, 31 - Conjunto Ouricuri, Rio Branco - AC","casas","https://www.zapimoveis.com.br/imovel/venda-casa-3-quartos-com-piscina-conjunto-ouricuri-rio-branco-ac-174m2-id-2651610458/","https://resizedimgs.zapimoveis.com.br/fit-in/400x180/named.images.sp/4fba65f5016245a86059a79b7ec7e111/casa-com-3-quartos-a-venda-174m-no-conjunto-ouricuri-rio-branco.jpg",-9.935179714538,-67.806684458107
0,NA,267,1,3,NA,0,0,2668332411,1053,0,0,0,0,3,0,0,0,2,6e+05,0,"Rua Antonio Ribeiro, 76 - Loteamento Santo Afonso, Rio Branco - AC","casas","https://www.zapimoveis.com.br/imovel/venda-casa-3-quartos-loteamento-santo-afonso-rio-branco-ac-267m2-id-2668332411/","https://resizedimgs.zapimoveis.com.br/fit-in/400x180/named.images.sp/fec6d4f0876ed741af3ee0cb0d190e31/casa-com-3-quartos-a-venda-267m-no-loteamento-santo-afonso-rio-branco.jpg",-10.013509988791,-67.781310029226
0,NA,102,1,2,NA,0,1,2658935786,NA,1,0,0,0,2,0,0,0,2,350000,0,"Rua Castelo Branco, 70 - Doca Furtado, Rio Branco - AC","casas","https://www.zapimoveis.com.br/imovel/venda-casa-2-quartos-mobiliado-doca-furtado-rio-branco-ac-102m2-id-2658935786/","https://resizedimgs.zapimoveis.com.br/fit-in/400x180/named.images.sp/2a941acefeeb55307ba57680bcb52482/casa-com-2-quartos-a-venda-102m-no-doca-furtado-rio-branco.jpg",-9.969149981611,-67.831879978921
NA,NA,150,NA,2,NA,NA,NA,2645139508,NA,NA,NA,NA,NA,3,NA,NA,NA,NA,230000,NA,"Loteamento Santa Helena, Rio Branco - AC","casas","https://www.zapimoveis.com.br/imovel/venda-casa-3-quartos-loteamento-santa-helena-rio-branco-ac-150m2-id-2645139508/","https://resizedimgs.zapimoveis.com.br/fit-in/400x180/named.images.sp/6a2cbc3ae4b8df2310c59533325d38ae/casa-com-3-quartos-a-venda-150m-no-loteamento-santa-helena-rio-branco.jpg",-10.01603,-67.79819
0,NA,250,1,1,NA,0,0,2665326399,NA,0,0,0,0,2,0,0,0,2,280000,0,"Rua São Judas Tadeu, 42 - Conjunto Universitario, Rio Branco - AC","casas","https://www.zapimoveis.com.br/imovel/venda-casa-2-quartos-conjunto-universitario-rio-branco-ac-250m2-id-2665326399/","https://resizedimgs.zapimoveis.com.br/fit-in/400x180/named.images.sp/989b87d8236e7f462994ebf5879ca9aa/casa-com-2-quartos-a-venda-250m-no-conjunto-universitario-rio-branco.jpg",-9.945789994647,-67.877009989636
0,NA,250,1,4,NA,0,0,2652947865,NA,0,0,0,0,4,0,0,0,NA,330000,0,"Conjunto Tucuma, Rio Branco - AC","casas","https://www.zapimoveis.com.br/imovel/venda-casa-4-quartos-com-area-de-servico-conjunto-tucuma-rio-branco-ac-250m2-id-2652947865/","https://resizedimgs.zapimoveis.com.br/fit-in/400x180/named.images.sp/590968bfb320e832a26de739d12c3d20/casa-com-4-quartos-a-venda-250m-no-conjunto-tucuma-rio-branco.jpg",-9.95041,-67.86084
0,NA,130,1,1,NA,0,0,2663641514,NA,0,0,0,0,3,0,0,0,3,450000,1,"Rua Pará, 70 - Nova Esperanca, Rio Branco - AC","casas","https://www.zapimoveis.com.br/imovel/venda-casa-3-quartos-com-churrasqueira-nova-esperanca-rio-branco-ac-130m2-id-2663641514/","https://resizedimgs.zapimoveis.com.br/fit-in/400x180/named.images.sp/b7326c958fe26c69eac90720bcfd7ad1/casa-com-3-quartos-a-venda-130m-no-nova-esperanca-rio-branco.jpg",-9.978131441707,-67.836444087013
NA,NA,138,NA,2,NA,NA,NA,2652815604,NA,NA,NA,NA,NA,2,NA,NA,NA,2,290000,NA,"Rua Margarida, 354 - Nova Esperanca, Rio Branco - AC","casas","https://www.zapimoveis.com.br/imovel/venda-casa-2-quartos-nova-esperanca-rio-branco-ac-138m2-id-2652815604/","https://resizedimgs.zapimoveis.com.br/fit-in/400x180/named.images.sp/3fbb1b33419655c2d556cf19ec3359e6/casa-com-2-quartos-a-venda-138m-no-nova-esperanca-rio-branco.jpg",-9.974909983564,-67.842100033463
NA,NA,150,NA,1,NA,NA,NA,2653974077,400,NA,NA,NA,NA,3,NA,NA,NA,2,265000,NA,"Rua Padre Eustáquio, 57 - Alto Alegre, Rio Branco - AC","casas","https://www.zapimoveis.com.br/imovel/venda-casa-3-quartos-alto-alegre-rio-branco-ac-150m2-id-2653974077/","https://resizedimgs.zapimoveis.com.br/fit-in/400x180/named.images.sp/a96b2f245423fe50cef8906cc5b8999c/casa-com-3-quartos-a-venda-150m-no-alto-alegre-rio-branco.jpg",-9.932859986989,-67.827249983245
0,NA,173,1,1,NA,0,0,2549464473,600,0,0,0,0,3,0,0,0,2,490000,0,"Rua Aderbal Brasil, 219 - Conjunto Manoel Juliao, Rio Branco - AC","casas","https://www.zapimoveis.com.br/imovel/venda-casa-3-quartos-com-area-de-servico-conjunto-manoel-juliao-rio-branco-ac-173m2-id-2549464473/","https://resizedimgs.zapimoveis.com.br/fit-in/400x180/named.images.sp/8260666212f3e3380b7c189303dc5b72/casa-com-3-quartos-a-venda-173m-no-conjunto-manoel-juliao-rio-branco.jpg",-9.956552138675,-67.833852218812
NA,NA,100,NA,1,NA,NA,NA,2654400692,NA,NA,NA,NA,NA,2,NA,NA,NA,2,120000,NA,"Loteamento Santo Afonso, Rio Branco - AC","casas","https://www.zapimoveis.com.br/imovel/venda-casa-2-quartos-loteamento-santo-afonso-rio-branco-ac-100m2-id-2654400692/","https://resizedimgs.zapimoveis.com.br/fit-in/400x180/named.images.sp/f8f3e8567931ef284d2adab05277974e/casa-com-2-quartos-a-venda-100m-no-loteamento-santo-afonso-rio-branco.jpg",-10.01555,-67.78206
0,NA,95,0,1,NA,0,0,2662171411,NA,1,0,0,0,2,1,0,0,2,210000,0,"Rua Nossa Senhora de Fátima, 491 - Calafate, Rio Branco - AC","casas","https://www.zapimoveis.com.br/imovel/venda-casa-2-quartos-com-piscina-calafate-rio-branco-ac-95m2-id-2662171411/","https://resizedimgs.zapimoveis.com.br/fit-in/400x180/named.images.sp/35e967be56511da1583d1b6b59fc0c3a/casa-com-2-quartos-a-venda-95m-no-calafate-rio-branco.jpg",-9.982260142785,-67.883143408062
NA,NA,126,NA,2,NA,NA,NA,2657076673,NA,NA,NA,NA,NA,3,NA,NA,NA,1,330000,NA,"Rua Princesa Isabel, 244 - Estacao Experimental, Rio Branco - AC","casas","https://www.zapimoveis.com.br/imovel/venda-casa-3-quartos-estacao-experimental-rio-branco-ac-126m2-id-2657076673/","https://resizedimgs.zapimoveis.com.br/fit-in/400x180/named.images.sp/c60463820f69cdef0977dbc37a8f8026/casa-com-3-quartos-a-venda-126m-no-estacao-experimental-rio-branco.jpg",-9.963538648683,-67.835520245778
NA,NA,250,NA,2,NA,NA,NA,2665324421,NA,NA,NA,NA,NA,3,NA,NA,NA,2,320000,NA,"Rua Valdomiro Lopes, 1382 - Conquista, Rio Branco - AC","casas","https://www.zapimoveis.com.br/imovel/venda-casa-3-quartos-conquista-rio-branco-ac-250m2-id-2665324421/","https://resizedimgs.zapimoveis.com.br/fit-in/400x180/named.images.sp/bc138bb59d3c943462df3c88aa2fcf97/casa-com-3-quartos-a-venda-250m-no-conquista-rio-branco.jpg",-9.952929993138,-67.836820021196
0,NA,312,1,2,NA,0,0,2665326397,NA,1,0,0,0,3,0,0,0,3,350000,0,"Rua Andorinha, 78 - Conjunto Ouricuri, Rio Branco - AC","casas","https://www.zapimoveis.com.br/imovel/venda-casa-3-quartos-mobiliado-conjunto-ouricuri-rio-branco-ac-312m2-id-2665326397/","https://resizedimgs.zapimoveis.com.br/fit-in/400x180/named.images.sp/cf52a1c765a2286d4cdbf2a1316fdcf0/casa-com-3-quartos-a-venda-312m-no-conjunto-ouricuri-rio-branco.jpg",-9.93643000719,-67.807169960722
0,NA,300,0,2,NA,0,1,2619335510,NA,1,0,0,0,4,1,0,0,2,350000,0,"Rua Gaivota, 10 - Conjunto Ouricuri, Rio Branco - AC","casas","https://www.zapimoveis.com.br/imovel/venda-casa-4-quartos-com-piscina-conjunto-ouricuri-rio-branco-ac-300m2-id-2619335510/","https://resizedimgs.zapimoveis.com.br/fit-in/400x180/named.images.sp/1cf650a6c41d4a10504551f72e6b5bcf/casa-com-4-quartos-a-venda-300m-no-conjunto-ouricuri-rio-branco.jpg",-9.935759999759,-67.807429967358
NA,NA,250,NA,2,NA,NA,NA,2602474889,650,NA,NA,NA,NA,3,NA,NA,NA,4,380000,NA,"Rua Campina Grande, 37 - Vila Ivonete, Rio Branco - AC","casas","https://www.zapimoveis.com.br/imovel/venda-casa-3-quartos-com-varanda-vila-ivonete-rio-branco-ac-250m2-id-2602474889/","https://resizedimgs.zapimoveis.com.br/fit-in/400x180/named.images.sp/e2701d891c46a72b147b346189cf7cf3/casa-com-3-quartos-a-venda-250m-no-vila-ivonete-rio-branco.jpg",-9.94843000078,-67.824029991321
0,NA,80,1,2,NA,0,1,2666429298,NA,1,1,1,1,3,1,0,0,2,417000,1,"Estrada da Floresta, 3200 - Floresta Sul, Rio Branco - AC","casas_de_condominio","https://www.zapimoveis.com.br/imovel/venda-casa-de-condominio-3-quartos-com-piscina-floresta-sul-rio-branco-ac-80m2-id-2666429298/","https://resizedimgs.zapimoveis.com.br/fit-in/400x180/named.images.sp/f4278cd36ee21b9c2b1d67ad3ef72700/casa-de-condominio-com-3-quartos-a-venda-80m-no-floresta-sul-rio-branco.jpg",-9.982174238907,-67.838645282107
NA,NA,288,NA,2,NA,NA,NA,2641594523,NA,NA,NA,NA,NA,3,NA,NA,NA,3,330000,NA,"Rua Nordeste, 28 - Conjunto Bela Vista, Rio Branco - AC","casas","https://www.zapimoveis.com.br/imovel/venda-casa-3-quartos-conjunto-bela-vista-rio-branco-ac-288m2-id-2641594523/","https://resizedimgs.zapimoveis.com.br/fit-in/400x180/named.images.sp/1de7eb4f7b36ed0e69aca4f933995ed6/casa-com-3-quartos-a-venda-288m-no-conjunto-bela-vista-rio-branco.jpg",-9.97682000975,-67.832350036051
0,NA,170,1,2,NA,0,0,2668512996,NA,0,0,0,0,3,0,0,0,2,320000,0,"Rua Eugênio Beco Bezerra, 480 - Conjunto Universitario, Rio Branco - AC","casas","https://www.zapimoveis.com.br/imovel/venda-casa-3-quartos-com-churrasqueira-conjunto-universitario-rio-branco-ac-170m2-id-2668512996/","https://resizedimgs.zapimoveis.com.br/fit-in/400x180/named.images.sp/d2c517f8c515584710ee15396304a889/casa-com-3-quartos-a-venda-170m-no-conjunto-universitario-rio-branco.jpg",-9.946129961216,-67.884329868803
0,NA,200,1,3,NA,0,1,2667653717,NA,1,0,0,0,1,0,0,0,4,995000,1,"Rua Copacabana, 390 - Vilage Wilde Maciel, Rio Branco - AC","casas","https://www.zapimoveis.com.br/imovel/venda-casa-1-quarto-com-piscina-vilage-wilde-maciel-rio-branco-ac-200m2-id-2667653717/","https://resizedimgs.zapimoveis.com.br/fit-in/400x180/named.images.sp/d07916eb03b6b19b7ade6d00537c34d2/casa-com-1-quarto-a-venda-200m-no-vilage-wilde-maciel-rio-branco.jpg",-9.956044755131,-67.821509506666
NA,NA,250,NA,2,NA,NA,NA,2660683581,NA,NA,NA,NA,NA,4,NA,NA,NA,NA,550000,NA,"Nova Esperanca, Rio Branco - AC","casas","https://www.zapimoveis.com.br/imovel/venda-casa-4-quartos-nova-esperanca-rio-branco-ac-250m2-id-2660683581/","https://resizedimgs.zapimoveis.com.br/fit-in/400x180/named.images.sp/b1357f39eca6e718392ab175109c1bd1/casa-com-4-quartos-para-venda-ou-aluguel-250m-no-nova-esperanca-rio-branco.jpg",-9.97461,-67.84142
NA,NA,130,NA,1,NA,NA,NA,2653180015,NA,NA,NA,NA,NA,3,NA,NA,NA,NA,378000,NA,"Conjunto Universitario, Rio Branco - AC","casas","https://www.zapimoveis.com.br/imovel/venda-casa-3-quartos-com-churrasqueira-conjunto-universitario-rio-branco-ac-130m2-id-2653180015/","https://resizedimgs.zapimoveis.com.br/fit-in/400x180/named.images.sp/984c015ad6cf6b124bb78b6dcf9a54c2/casa-com-3-quartos-para-venda-ou-aluguel-130m-no-conjunto-universitario-rio-branco.jpg",-9.94636,-67.88182
NA,NA,140,NA,3,NA,NA,NA,2646472887,NA,NA,NA,NA,NA,2,NA,NA,NA,2,677000,NA,"LBA Vila Betel ll, Rio Branco - AC","casas","https://www.zapimoveis.com.br/imovel/venda-casa-2-quartos-lba-vila-betel-ll-rio-branco-ac-140m2-id-2646472887/","https://resizedimgs.zapimoveis.com.br/fit-in/400x180/named.images.sp/b96ab6eb0c66a6b337cb34ea0daef78a/casa-com-2-quartos-a-venda-140m-no-lba-vila-betel-ll-rio-branco.jpg",-9.97822,-67.84194
NA,NA,420,NA,4,NA,NA,NA,2640755059,NA,NA,NA,NA,NA,5,NA,NA,NA,NA,1e+06,NA,"Rua Isaura Parente, 1536 - Isaura Parente, Rio Branco - AC","casas","https://www.zapimoveis.com.br/imovel/venda-casa-5-quartos-com-ar-condicionado-isaura-parente-rio-branco-ac-420m2-id-2640755059/","https://resizedimgs.zapimoveis.com.br/fit-in/400x180/named.images.sp/697dddb8256ebf0a138dfe9a42612474/casa-com-5-quartos-a-venda-420m-no-isaura-parente-rio-branco.jpg",-9.963720017096,-67.828090017581
NA,NA,215,NA,3,NA,NA,NA,2641832510,NA,NA,NA,NA,NA,5,NA,NA,NA,2,6e+05,NA,"Rua Fausto Robalo, 49 - Centro, Rio Branco - AC","casas","https://www.zapimoveis.com.br/imovel/venda-casa-5-quartos-com-churrasqueira-centro-rio-branco-ac-215m2-id-2641832510/","https://resizedimgs.zapimoveis.com.br/fit-in/400x180/named.images.sp/ec70a9a02b135b0f6e5ad0fbc175a11c/casa-com-5-quartos-para-venda-ou-aluguel-215m-no-centro-rio-branco.jpg",-9.971759980531,-67.809429973275
NA,NA,600,NA,1,NA,NA,NA,2642438056,NA,NA,NA,NA,NA,3,NA,NA,NA,NA,680000,NA,"Aviario, Rio Branco - AC","casas","https://www.zapimoveis.com.br/imovel/venda-casa-3-quartos-aviario-rio-branco-ac-600m2-id-2642438056/","https://resizedimgs.zapimoveis.com.br/fit-in/400x180/named.images.sp/4b7d9399b9d458eb6694ebec91f649da/casa-com-3-quartos-a-venda-600m-no-aviario-rio-branco.jpg",-9.96607,-67.8051
0,NA,250,1,1,NA,0,0,2662031960,NA,0,0,0,0,4,0,0,0,1,330000,0,"Nova Esperanca, Rio Branco - AC","casas","https://www.zapimoveis.com.br/imovel/venda-casa-4-quartos-com-area-de-servico-nova-esperanca-rio-branco-ac-250m2-id-2662031960/","https://resizedimgs.zapimoveis.com.br/fit-in/400x180/named.images.sp/058701e37eb9b8e184a1064ae68448c0/casa-com-4-quartos-para-venda-ou-aluguel-250m-no-nova-esperanca-rio-branco.jpg",-9.97461,-67.84142
NA,NA,500,NA,4,NA,NA,NA,2640093054,NA,NA,NA,NA,NA,8,NA,NA,NA,7,2200000,NA,"Vilage Wilde Maciel, Rio Branco - AC","casas","https://www.zapimoveis.com.br/imovel/venda-casa-8-quartos-vilage-wilde-maciel-rio-branco-ac-500m2-id-2640093054/","https://resizedimgs.zapimoveis.com.br/fit-in/400x180/named.images.sp/a2843acb6d647f919ada21af60555c83/casa-com-8-quartos-a-venda-500m-no-vilage-wilde-maciel-rio-branco.jpg",-9.97388,-67.80756
1,NA,223,0,3,550,0,1,2666017609,NA,1,1,1,1,3,1,0,0,4,1370000,1,"Rodovia BR-364, 1 - Portal da Amazonia, Rio Branco - AC","casas_de_condominio","https://www.zapimoveis.com.br/imovel/venda-casa-de-condominio-3-quartos-com-piscina-portal-da-amazonia-rio-branco-ac-223m2-id-2666017609/","https://resizedimgs.zapimoveis.com.br/fit-in/400x180/named.images.sp/fe5b955f6d65eba9ddbee6167550d343/casa-de-condominio-com-3-quartos-a-venda-223m-no-portal-da-amazonia-rio-branco.jpg",-9.978729994026,-67.849295017239
0,NA,120,0,3,NA,0,0,2654256172,NA,1,0,0,0,3,0,0,0,2,590000,1,"Travessa da Afelétro, 06 - Vila Ivonete, Rio Branco - AC","sobrados","https://www.zapimoveis.com.br/imovel/venda-sobrados-3-quartos-com-piscina-vila-ivonete-rio-branco-ac-120m2-id-2654256172/","https://resizedimgs.zapimoveis.com.br/fit-in/400x180/named.images.sp/937a93437eee90d3e634e7fad65eba6f/sobrado-com-3-quartos-a-venda-120m-no-vila-ivonete-rio-branco.jpg",-9.954438330832,-67.823692408293
NA,NA,290,NA,1,NA,NA,NA,2635916056,NA,NA,NA,NA,NA,2,NA,NA,NA,6,450000,NA,"Nova Esperanca, Rio Branco - AC","casas","https://www.zapimoveis.com.br/imovel/venda-casa-2-quartos-nova-esperanca-rio-branco-ac-290m2-id-2635916056/","https://resizedimgs.zapimoveis.com.br/fit-in/400x180/named.images.sp/af4fb82f742aa2e22dd136cd021c1f6d/casa-com-2-quartos-a-venda-290m-no-nova-esperanca-rio-branco.jpg",-9.97461,-67.84142
NA,NA,230,NA,3,NA,NA,NA,2635674598,NA,NA,NA,NA,NA,3,NA,NA,NA,3,390000,NA,"Xavier Maia, Rio Branco - AC","casas","https://www.zapimoveis.com.br/imovel/venda-casa-3-quartos-xavier-maia-rio-branco-ac-230m2-id-2635674598/","https://resizedimgs.zapimoveis.com.br/fit-in/400x180/named.images.sp/27920e5a36c923c1ee635777e8c1f916/casa-com-3-quartos-a-venda-230m-no-xavier-maia-rio-branco.jpg",-9.92942,-67.82026
NA,NA,207,NA,1,NA,NA,NA,2666406394,NA,NA,NA,NA,NA,2,NA,NA,NA,NA,650000,NA,"Conjunto Mariana, Rio Branco - AC","casas","https://www.zapimoveis.com.br/imovel/venda-casa-2-quartos-conjunto-mariana-rio-branco-ac-207m2-id-2666406394/","https://resizedimgs.zapimoveis.com.br/fit-in/400x180/named.images.sp/6c23430ca68a7b8dcf76bacb540437db/casa-com-2-quartos-a-venda-207m-no-conjunto-mariana-rio-branco.jpg",-9.95655,-67.85016
NA,NA,180,NA,1,NA,NA,NA,2665326396,NA,NA,NA,NA,NA,3,NA,NA,NA,2,750000,NA,"Travessa Macauã, 85 - Conjunto Mariana, Rio Branco - AC","casas","https://www.zapimoveis.com.br/imovel/venda-casa-3-quartos-mobiliado-conjunto-mariana-rio-branco-ac-180m2-id-2665326396/","https://resizedimgs.zapimoveis.com.br/fit-in/400x180/named.images.sp/ec656c1ed05a4cef68cfbbf83619c29d/casa-com-3-quartos-a-venda-180m-no-conjunto-mariana-rio-branco.jpg",-9.960736000272,-67.845269956173
NA,NA,159,NA,4,NA,NA,NA,2643145586,NA,NA,NA,NA,NA,3,NA,NA,NA,NA,530000,NA,"Conjunto Tucuma, Rio Branco - AC","casas","https://www.zapimoveis.com.br/imovel/venda-casa-3-quartos-com-varanda-conjunto-tucuma-rio-branco-ac-159m2-id-2643145586/","https://resizedimgs.zapimoveis.com.br/fit-in/400x180/named.images.sp/c9763600927f7ba73b29b9f3d6d16714/casa-com-3-quartos-a-venda-159m-no-conjunto-tucuma-rio-branco.jpg",-9.95041,-67.86084
NA,NA,250,NA,5,NA,NA,NA,2635916154,NA,NA,NA,NA,NA,5,NA,NA,NA,NA,420000,NA,"Loteamento Joafra, Rio Branco - AC","casas","https://www.zapimoveis.com.br/imovel/venda-casa-5-quartos-loteamento-joafra-rio-branco-ac-250m2-id-2635916154/","https://resizedimgs.zapimoveis.com.br/fit-in/400x180/named.images.sp/ce2eba9169d28e22cc2f254dff6c76a2/casa-com-5-quartos-a-venda-250m-no-loteamento-joafra-rio-branco.jpg",-9.9453,-67.85189
0,NA,160,0,3,NA,0,0,2636763402,NA,1,0,0,0,3,0,0,0,NA,650000,0,"Conjunto Tangara, Rio Branco - AC","casas","https://www.zapimoveis.com.br/imovel/venda-casa-3-quartos-com-piscina-conjunto-tangara-rio-branco-ac-160m2-id-2636763402/","https://resizedimgs.zapimoveis.com.br/fit-in/400x180/named.images.sp/a2f3a298ec6bf3cb338cf8d8dc50cc3f/casa-com-3-quartos-a-venda-160m-no-conjunto-tangara-rio-branco.jpg",-9.96532,-67.83924
NA,NA,150,NA,1,NA,NA,NA,2647592598,NA,NA,NA,NA,NA,2,NA,NA,NA,NA,6e+05,NA,"Jardim Primavera, Rio Branco - AC","casas","https://www.zapimoveis.com.br/imovel/venda-casa-2-quartos-jardim-primavera-rio-branco-ac-150m2-id-2647592598/","https://resizedimgs.zapimoveis.com.br/fit-in/400x180/named.images.sp/8c8d4cf73e67b8498ce218543b0ad9ff/casa-com-2-quartos-a-venda-150m-no-jardim-primavera-rio-branco.jpg",-9.96078,-67.85518
0,NA,153,0,1,NA,0,0,2664498484,NA,1,0,0,0,3,0,0,0,2,599700,0,"Avenida Iáco, 742 - Portal da Amazonia, Rio Branco - AC","casas","https://www.zapimoveis.com.br/imovel/venda-casa-3-quartos-com-piscina-portal-da-amazonia-rio-branco-ac-153m2-id-2664498484/","https://resizedimgs.zapimoveis.com.br/fit-in/400x180/named.images.sp/658e17f80a9da71b46a9466ef889eeb6/casa-com-3-quartos-a-venda-153m-no-portal-da-amazonia-rio-branco.jpg",-9.970829855114,-67.869157047557
NA,NA,250,NA,3,NA,NA,NA,2655874973,NA,NA,NA,NA,NA,4,NA,NA,NA,3,585000,NA,"Conjunto Tangara, Rio Branco - AC","casas","https://www.zapimoveis.com.br/imovel/venda-casa-4-quartos-com-ar-condicionado-conjunto-tangara-rio-branco-ac-250m2-id-2655874973/","https://resizedimgs.zapimoveis.com.br/fit-in/400x180/named.images.sp/44b80631de6b362423df21864fa48bf4/casa-com-4-quartos-a-venda-250m-no-conjunto-tangara-rio-branco.jpg",-9.96532,-67.83924
0,NA,225,1,1,NA,0,0,2666406196,NA,1,0,0,0,3,0,0,0,2,890000,0,"Portal da Amazonia, Rio Branco - AC","casas","https://www.zapimoveis.com.br/imovel/venda-casa-3-quartos-com-piscina-portal-da-amazonia-rio-branco-ac-225m2-id-2666406196/","https://resizedimgs.zapimoveis.com.br/fit-in/400x180/named.images.sp/a7b1522b31602d8d79b5ca8c58e6c8cc/casa-com-3-quartos-a-venda-225m-no-portal-da-amazonia-rio-branco.jpg",-9.97321,-67.86036
0,NA,250,1,2,NA,0,0,2668918635,NA,0,0,0,0,3,0,0,0,2,280000,0,"Portal da Amazonia, Rio Branco - AC","casas","https://www.zapimoveis.com.br/imovel/venda-casa-3-quartos-com-cozinha-portal-da-amazonia-rio-branco-ac-250m2-id-2668918635/","https://resizedimgs.zapimoveis.com.br/fit-in/400x180/named.images.sp/2a39fe8ad7693cd32b912c79a1b7fa44/casa-com-3-quartos-para-venda-ou-aluguel-250m-no-portal-da-amazonia-rio-branco.jpg",-9.97321,-67.86036
0,NA,143,0,1,NA,0,0,2646166152,NA,1,0,0,0,3,0,0,0,NA,287000,0,"Loteamento Joafra, Rio Branco - AC","casas","https://www.zapimoveis.com.br/imovel/venda-casa-3-quartos-com-piscina-loteamento-joafra-rio-branco-ac-143m2-id-2646166152/","https://resizedimgs.zapimoveis.com.br/fit-in/400x180/named.images.sp/e861e4b1422c347719214d42dfedaba1/casa-com-3-quartos-a-venda-143m-no-loteamento-joafra-rio-branco.jpg",-9.9453,-67.85189
0,NA,250,0,3,NA,0,0,2658358591,NA,1,0,0,0,3,0,0,0,NA,930000,0,"Portal da Amazonia, Rio Branco - AC","casas","https://www.zapimoveis.com.br/imovel/venda-casa-3-quartos-com-piscina-portal-da-amazonia-rio-branco-ac-250m2-id-2658358591/","https://resizedimgs.zapimoveis.com.br/fit-in/400x180/named.images.sp/57f9e28ae963e4c1278883334ac661ca/casa-com-3-quartos-a-venda-250m-no-portal-da-amazonia-rio-branco.jpg",-9.97321,-67.86036
0,NA,206,0,4,NA,0,0,2653163668,NA,1,0,0,0,3,0,0,0,2,799000,1,"Rua Silvio Antônio Araújo de Oliveira, 03 - Portal da Amazonia, Rio Branco - AC","casas","https://www.zapimoveis.com.br/imovel/venda-casa-3-quartos-com-piscina-portal-da-amazonia-rio-branco-ac-206m2-id-2653163668/","https://resizedimgs.zapimoveis.com.br/fit-in/400x180/named.images.sp/5d19c667efac15184baa2b7a652dc74e/casa-com-3-quartos-a-venda-206m-no-portal-da-amazonia-rio-branco.jpg",-9.968292503415,-67.87486489688
NA,NA,200,NA,1,NA,NA,NA,2668455174,NA,NA,NA,NA,NA,3,NA,NA,NA,NA,890000,NA,"Portal da Amazonia, Rio Branco - AC","casas","https://www.zapimoveis.com.br/imovel/venda-casa-3-quartos-portal-da-amazonia-rio-branco-ac-200m2-id-2668455174/","https://resizedimgs.zapimoveis.com.br/fit-in/400x180/named.images.sp/594f3253a52470672d4e855ced5f6e60/casa-com-3-quartos-a-venda-200m-no-portal-da-amazonia-rio-branco.jpg",-9.97321,-67.86036
NA,NA,300,NA,2,NA,NA,NA,2658464949,NA,NA,NA,NA,NA,3,NA,NA,NA,NA,450000,NA,"Estacao Experimental, Rio Branco - AC","casas","https://www.zapimoveis.com.br/imovel/venda-casa-3-quartos-estacao-experimental-rio-branco-ac-300m2-id-2658464949/","https://resizedimgs.zapimoveis.com.br/fit-in/400x180/named.images.sp/c0ba62da4e557a38ac1c178d1ec5fc05/casa-com-3-quartos-a-venda-300m-no-estacao-experimental-rio-branco.jpg",-9.96753,-67.8317
NA,NA,57,NA,2,NA,NA,NA,2661574654,NA,NA,NA,NA,NA,1,NA,NA,NA,NA,2e+05,NA,"Rua Andirá, 296 - Portal da Amazonia, Rio Branco - AC","casas","https://www.zapimoveis.com.br/imovel/venda-casa-1-quarto-com-varanda-portal-da-amazonia-rio-branco-ac-57m2-id-2661574654/","https://resizedimgs.zapimoveis.com.br/fit-in/400x180/named.images.sp/5b3ad2adae0d86dda12f8ba5e6f7c3fc/casa-com-1-quarto-a-venda-57m-no-portal-da-amazonia-rio-branco.jpg",-9.975319218422,-67.872046610566
NA,NA,176,NA,3,NA,NA,NA,2644457965,NA,NA,NA,NA,NA,3,NA,NA,NA,2,650000,NA,"Conjunto Mariana, Rio Branco - AC","casas","https://www.zapimoveis.com.br/imovel/venda-casa-3-quartos-conjunto-mariana-rio-branco-ac-176m2-id-2644457965/","https://resizedimgs.zapimoveis.com.br/fit-in/400x180/named.images.sp/bb1f683588495be6bd6694da9a500672/casa-com-3-quartos-a-venda-176m-no-conjunto-mariana-rio-branco.jpg",-9.95655,-67.85016
NA,NA,173,NA,4,NA,NA,NA,2635394685,NA,NA,NA,NA,NA,3,NA,NA,NA,2,430000,NA,"Rua Senira Nogueira, 210 - Vila Ivonete, Rio Branco - AC","casas","https://www.zapimoveis.com.br/imovel/venda-casa-3-quartos-vila-ivonete-rio-branco-ac-173m2-id-2635394685/","https://resizedimgs.zapimoveis.com.br/fit-in/400x180/named.images.sp/6f6d5193f894848483236197b5a45687/casa-com-3-quartos-a-venda-173m-no-vila-ivonete-rio-branco.jpg",-9.951999979071,-67.821079980499
0,NA,192,0,2,NA,0,0,2641543974,NA,1,0,0,0,3,0,0,0,2,680000,1,"Portal da Amazonia, Rio Branco - AC","casas","https://www.zapimoveis.com.br/imovel/venda-casa-3-quartos-com-piscina-portal-da-amazonia-rio-branco-ac-192m2-id-2641543974/","https://resizedimgs.zapimoveis.com.br/fit-in/400x180/named.images.sp/fa67752e576a6da5e864c30ade593358/casa-com-3-quartos-a-venda-192m-no-portal-da-amazonia-rio-branco.jpg",-9.97321,-67.86036
NA,NA,271,NA,5,NA,NA,NA,2612640780,NA,NA,NA,NA,NA,4,NA,NA,NA,3,5e+05,NA,"Rua das Palmeiras - Jardim Tropical, Rio Branco - AC","casas","https://www.zapimoveis.com.br/imovel/venda-casa-4-quartos-jardim-tropical-rio-branco-ac-271m2-id-2612640780/","https://resizedimgs.zapimoveis.com.br/fit-in/400x180/named.images.sp/942c1439b6a7a158db8e4e9381b5cb70/casa-com-4-quartos-a-venda-271m-no-jardim-tropical-rio-branco.jpg",-9.960168353616,-67.795674742621
0,NA,200,0,4,NA,0,0,2630737658,NA,1,0,0,0,4,0,0,0,2,8e+05,0,"Rua Alberto Assad - Vila Ivonete, Rio Branco - AC","sobrados","https://www.zapimoveis.com.br/imovel/venda-sobrados-4-quartos-com-piscina-vila-ivonete-rio-branco-ac-200m2-id-2630737658/","https://resizedimgs.zapimoveis.com.br/fit-in/400x180/named.images.sp/5a7a3911b0b25b91403b9f50491b9678/sobrado-com-4-quartos-a-venda-200m-no-vila-ivonete-rio-branco.jpg",-9.950794131013,-67.821967757166
NA,NA,100,NA,2,536,NA,NA,2639376977,NA,NA,NA,NA,NA,3,NA,NA,NA,NA,499000,NA,"Conjunto Mariana, Rio Branco - AC","casas","https://www.zapimoveis.com.br/imovel/venda-casa-3-quartos-conjunto-mariana-rio-branco-ac-100m2-id-2639376977/","https://resizedimgs.zapimoveis.com.br/fit-in/400x180/named.images.sp/faba66f0fe5d423413d5b753344362bf/casa-com-3-quartos-a-venda-100m-no-conjunto-mariana-rio-branco.jpg",-9.95655,-67.85016
NA,NA,300,NA,2,NA,NA,NA,2635912003,NA,NA,NA,NA,NA,2,NA,NA,NA,3,380000,NA,"Conjunto Bela Vista, Rio Branco - AC","casas","https://www.zapimoveis.com.br/imovel/venda-casa-2-quartos-conjunto-bela-vista-rio-branco-ac-300m2-id-2635912003/","https://resizedimgs.zapimoveis.com.br/fit-in/400x180/named.images.sp/e727e3c2b4f27c2f7deea1b88adfb87c/casa-com-2-quartos-a-venda-300m-no-conjunto-bela-vista-rio-branco.jpg",-9.97202,-67.83173
NA,NA,114,NA,2,NA,NA,NA,2615021943,NA,NA,NA,NA,NA,3,NA,NA,NA,NA,424800,NA,"Rua Campos Lindos, 16 - Floresta Sul, Rio Branco - AC","casas","https://www.zapimoveis.com.br/imovel/venda-casa-3-quartos-floresta-sul-rio-branco-ac-114m2-id-2615021943/","https://resizedimgs.zapimoveis.com.br/fit-in/400x180/named.images.sp/9a121043a7ab05c99cdd0c01187ae26a/casa-com-3-quartos-a-venda-114m-no-floresta-sul-rio-branco.jpg",-9.993298502269,-67.837273628513
0,NA,160,0,3,NA,0,0,2617201340,NA,1,0,0,0,3,0,0,0,NA,960000,0,"Rodovia BR-364 - Distrito Industrial, Rio Branco - AC","casas","https://www.zapimoveis.com.br/imovel/venda-casa-3-quartos-com-piscina-distrito-industrial-rio-branco-ac-160m2-id-2617201340/","https://resizedimgs.zapimoveis.com.br/fit-in/400x180/named.images.sp/971c3f29989d1bbbea23bac759a7a741/casa-com-3-quartos-a-venda-160m-no-distrito-industrial-rio-branco.jpg",-9.949571696992,-67.865677506309
0,NA,135,0,2,NA,1,0,2640998530,NA,0,0,0,0,2,0,0,0,2,230000,0,"Waldemar Maciel, Rio Branco - AC","casas","https://www.zapimoveis.com.br/imovel/venda-casa-2-quartos-com-elevador-waldemar-maciel-rio-branco-ac-135m2-id-2640998530/","https://resizedimgs.zapimoveis.com.br/fit-in/400x180/named.images.sp/a64d33bdd41ce0bed0cd336e54d4fd14/casa-com-2-quartos-a-venda-135m-no-waldemar-maciel-rio-branco.jpg",-9.97996,-67.87009
NA,NA,180,NA,1,NA,NA,NA,2665322926,NA,NA,NA,NA,NA,3,NA,NA,NA,2,650000,NA,"Travessa Macauã, 80 - Conjunto Mariana, Rio Branco - AC","casas","https://www.zapimoveis.com.br/imovel/venda-casa-3-quartos-conjunto-mariana-rio-branco-ac-180m2-id-2665322926/","https://resizedimgs.zapimoveis.com.br/fit-in/400x180/named.images.sp/1cc7a45a166cb844fb514ab2f97c8a59/casa-com-3-quartos-a-venda-180m-no-conjunto-mariana-rio-branco.jpg",-9.960812474728,-67.845274176571
0,NA,180,1,2,NA,0,0,2669425309,NA,0,0,0,0,2,0,0,0,2,360000,0,"Sao Francisco, Rio Branco - AC","casas","https://www.zapimoveis.com.br/imovel/venda-casa-2-quartos-com-churrasqueira-sao-francisco-rio-branco-ac-180m2-id-2669425309/","https://resizedimgs.zapimoveis.com.br/fit-in/400x180/named.images.sp/cf9cbd55faec92c6df55ac075e5c0a48/casa-com-2-quartos-para-venda-ou-aluguel-180m-no-sao-francisco-rio-branco.jpg",-9.95828,-67.80029
1,NA,307,1,5,NA,0,1,2658965658,NA,1,1,0,1,4,1,0,0,3,2200000,1,"Via Verde, 9000 - Floresta Sul, Rio Branco - AC","casas_de_condominio","https://www.zapimoveis.com.br/imovel/venda-casa-de-condominio-4-quartos-mobiliado-floresta-sul-rio-branco-ac-307m2-id-2658965658/","https://resizedimgs.zapimoveis.com.br/fit-in/400x180/named.images.sp/ba422ac0de3788c9858fb7b5a3de7769/casa-de-condominio-com-4-quartos-a-venda-307m-no-floresta-sul-rio-branco.jpg",-10.001825008077,-67.849280013633
NA,NA,209,NA,4,NA,NA,NA,2670954719,NA,NA,NA,NA,NA,4,NA,NA,NA,3,430000,NA,"Rua Mangueira, 20 - Conjunto Adalberto Sena, Rio Branco - AC","casas","https://www.zapimoveis.com.br/imovel/venda-casa-4-quartos-conjunto-adalberto-sena-rio-branco-ac-209m2-id-2670954719/","https://resizedimgs.zapimoveis.com.br/fit-in/400x180/named.images.sp/8dd2acda1ed6f276ec385ba1af3aa4b3/casa-com-4-quartos-a-venda-209m-no-conjunto-adalberto-sena-rio-branco.jpg",-9.931177804783,-67.820811892058
0,NA,180,1,2,NA,0,0,2668458161,NA,0,0,0,0,3,0,0,0,2,370000,0,"Conquista, Rio Branco - AC","casas","https://www.zapimoveis.com.br/imovel/venda-casa-3-quartos-mobiliado-conquista-rio-branco-ac-180m2-id-2668458161/","https://resizedimgs.zapimoveis.com.br/fit-in/400x180/named.images.sp/93193bb8ea62c6ce9bf230f685f54f03/casa-com-3-quartos-para-venda-ou-aluguel-180m-no-conquista-rio-branco.jpg",-9.95282,-67.83416
NA,NA,58,NA,1,NA,NA,NA,2670869214,NA,NA,NA,NA,NA,1,NA,NA,NA,1,184276,NA,"Rua Jorge Rivasplata, 122 - Vitoria, Rio Branco - AC","casas","https://www.zapimoveis.com.br/imovel/venda-casa-1-quarto-vitoria-rio-branco-ac-58m2-id-2670869214/","https://resizedimgs.zapimoveis.com.br/fit-in/400x180/named.images.sp/7a1a8b606aa8f4c5ecf88882df6e88f0/casa-com-1-quarto-a-venda-58m-no-vitoria-rio-branco.jpg",-9.944659354689,-67.807564327256
NA,NA,233,NA,1,NA,NA,NA,2664916597,NA,NA,NA,NA,NA,3,NA,NA,NA,4,375000,NA,"Conjunto Tucuma, Rio Branco - AC","casas","https://www.zapimoveis.com.br/imovel/venda-casa-3-quartos-conjunto-tucuma-rio-branco-ac-233m2-id-2664916597/","https://resizedimgs.zapimoveis.com.br/fit-in/400x180/named.images.sp/9c73edaa2556d284719c6e27ebdfb7e6/casa-com-3-quartos-a-venda-233m-no-conjunto-tucuma-rio-branco.jpg",-9.95041,-67.86084
NA,NA,282,NA,4,NA,NA,NA,2635915762,NA,NA,NA,NA,NA,5,NA,NA,NA,NA,445000,NA,"Xavier Maia, Rio Branco - AC","casas","https://www.zapimoveis.com.br/imovel/venda-casa-5-quartos-xavier-maia-rio-branco-ac-282m2-id-2635915762/","https://resizedimgs.zapimoveis.com.br/fit-in/400x180/named.images.sp/f6d05615b7343acf9c44b1c77be50153/casa-com-5-quartos-a-venda-282m-no-xavier-maia-rio-branco.jpg",-9.92942,-67.82026
NA,NA,176,NA,3,NA,NA,NA,2644458361,NA,NA,NA,NA,NA,3,NA,NA,NA,2,650000,NA,"Conjunto Mariana, Rio Branco - AC","casas","https://www.zapimoveis.com.br/imovel/venda-casa-3-quartos-conjunto-mariana-rio-branco-ac-176m2-id-2644458361/","https://resizedimgs.zapimoveis.com.br/fit-in/400x180/named.images.sp/9b4a063be10851ab97f91a266c0c9586/casa-com-3-quartos-a-venda-176m-no-conjunto-mariana-rio-branco.jpg",-9.95655,-67.85016
0,NA,230,1,3,NA,0,0,2599102798,NA,0,0,0,0,3,0,0,0,2,350000,0,"Xavier Maia, Rio Branco - AC","casas","https://www.zapimoveis.com.br/imovel/venda-casa-3-quartos-com-area-de-servico-xavier-maia-rio-branco-ac-230m2-id-2599102798/","https://resizedimgs.zapimoveis.com.br/fit-in/400x180/named.images.sp/29fd719a3a5282ccc82e46ae29e68bd3/casa-com-3-quartos-a-venda-230m-no-xavier-maia-rio-branco.jpg",-9.92942,-67.82026
0,NA,78,0,2,NA,0,1,2667349156,NA,1,1,1,1,3,1,0,0,2,431000,0,"Estrada da Floresta, 3689 - Floresta Sul, Rio Branco - AC","casas_de_condominio","https://www.zapimoveis.com.br/imovel/venda-casa-de-condominio-3-quartos-com-piscina-floresta-sul-rio-branco-ac-78m2-id-2667349156/","https://resizedimgs.zapimoveis.com.br/fit-in/400x180/named.images.sp/e6c2364c89fa5772f23977927a4749bb/casa-de-condominio-com-3-quartos-a-venda-78m-no-floresta-sul-rio-branco.jpg",-9.980833798909,-67.837345486094
0,NA,78,0,2,NA,0,1,2668781708,NA,1,1,1,1,3,1,0,0,2,431000,1,"Estrada da Floresta, 3689 - Floresta Sul, Rio Branco - AC","casas_de_condominio","https://www.zapimoveis.com.br/imovel/venda-casa-de-condominio-3-quartos-com-piscina-floresta-sul-rio-branco-ac-78m2-id-2668781708/","https://resizedimgs.zapimoveis.com.br/fit-in/400x180/named.images.sp/2f4c88e50fbe342f119c55eca9f8cfd7/casa-de-condominio-com-3-quartos-a-venda-78m-no-floresta-sul-rio-branco.jpg",-9.980833798909,-67.837345486094
NA,NA,300,NA,4,NA,NA,NA,2655644955,NA,NA,NA,NA,NA,4,NA,NA,NA,2,680000,NA,"Nova Esperanca, Rio Branco - AC","casas","https://www.zapimoveis.com.br/imovel/venda-casa-4-quartos-nova-esperanca-rio-branco-ac-300m2-id-2655644955/","https://resizedimgs.zapimoveis.com.br/fit-in/400x180/named.images.sp/95a520985e00475fc851b5ba2ba998e0/casa-com-4-quartos-a-venda-300m-no-nova-esperanca-rio-branco.jpg",-9.97461,-67.84142
0,1,527,1,6,NA,0,1,2665215621,NA,0,0,0,0,1,0,0,0,5,650000,0,"Estrada do São Francisco, 110 - Baixa da Colina, Rio Branco - AC","casas","https://www.zapimoveis.com.br/imovel/venda-casa-1-quarto-com-churrasqueira-baixa-da-colina-rio-branco-ac-527m2-id-2665215621/","https://resizedimgs.zapimoveis.com.br/fit-in/400x180/named.images.sp/bb149a998544689cd3676e6518e00e1c/casa-com-1-quarto-a-venda-527m-no-baixa-da-colina-rio-branco.jpg",-9.962069997546,-67.801400026214
0,NA,330,0,1,NA,0,0,2666406298,NA,1,0,0,0,3,0,0,0,NA,580000,1,"Vilage Tiradentes, Rio Branco - AC","casas","https://www.zapimoveis.com.br/imovel/venda-casa-3-quartos-com-piscina-vilage-tiradentes-rio-branco-ac-330m2-id-2666406298/","https://resizedimgs.zapimoveis.com.br/fit-in/400x180/named.images.sp/1a0a1b38f9c8d5e673dc66fc7b24dd2d/casa-com-3-quartos-a-venda-330m-no-vilage-tiradentes-rio-branco.jpg",-9.9785,-67.85724
1,NA,191,1,2,NA,0,1,2651168782,NA,1,1,1,1,3,1,0,0,2,1100000,1,"Rua Gênova, 50 - Jardim Europa, Rio Branco - AC","casas_de_condominio","https://www.zapimoveis.com.br/imovel/venda-casa-de-condominio-3-quartos-mobiliado-jardim-europa-rio-branco-ac-191m2-id-2651168782/","https://resizedimgs.zapimoveis.com.br/fit-in/400x180/named.images.sp/dbaf0455f41b3e6942f2d7c2356273f9/casa-de-condominio-com-3-quartos-a-venda-191m-no-jardim-europa-rio-branco.jpg",-9.970951897107,-67.84977917354
NA,NA,335,NA,3,NA,NA,NA,2655874565,NA,NA,NA,NA,NA,2,NA,NA,NA,6,985000,NA,"Conjunto Tangara, Rio Branco - AC","casas","https://www.zapimoveis.com.br/imovel/venda-casa-2-quartos-com-escritorio-conjunto-tangara-rio-branco-ac-335m2-id-2655874565/","https://resizedimgs.zapimoveis.com.br/fit-in/400x180/named.images.sp/bc1baaacf170336d73d08da0ed6bcdb4/casa-com-2-quartos-a-venda-335m-no-conjunto-tangara-rio-branco.jpg",-9.96532,-67.83924
NA,NA,250,NA,1,NA,NA,NA,2666406393,NA,NA,NA,NA,NA,3,NA,NA,NA,2,3e+05,NA,"Conjunto Tucuma, Rio Branco - AC","casas","https://www.zapimoveis.com.br/imovel/venda-casa-3-quartos-conjunto-tucuma-rio-branco-ac-250m2-id-2666406393/","https://resizedimgs.zapimoveis.com.br/fit-in/400x180/named.images.sp/f07c1ea15ee6a5c5a378b61db118bc29/casa-com-3-quartos-a-venda-250m-no-conjunto-tucuma-rio-branco.jpg",-9.95041,-67.86084
0,NA,200,1,1,NA,0,0,2664419495,NA,0,0,0,0,3,0,0,0,NA,6e+05,0,"Jardim de Alah, Rio Branco - AC","casas","https://www.zapimoveis.com.br/imovel/venda-casa-3-quartos-com-area-de-servico-jardim-de-alah-rio-branco-ac-200m2-id-2664419495/","https://resizedimgs.zapimoveis.com.br/fit-in/400x180/named.images.sp/a785dfd495e30c80ae2614414ba046d0/casa-com-3-quartos-a-venda-200m-no-jardim-de-alah-rio-branco.jpg",-9.96373,-67.84452
NA,NA,271,NA,5,NA,NA,NA,2611986099,NA,NA,NA,NA,NA,4,NA,NA,NA,3,5e+05,NA,"Rua das Palmeiras, 1 - Jardim Tropical, Rio Branco - AC","casas","https://www.zapimoveis.com.br/imovel/venda-casa-4-quartos-jardim-tropical-rio-branco-ac-271m2-id-2611986099/","https://resizedimgs.zapimoveis.com.br/fit-in/400x180/named.images.sp/678199852ff3f65071a25d96b6f9e7f1/casa-com-4-quartos-a-venda-271m-no-jardim-tropical-rio-branco.jpg",-9.960959260872,-67.794862104096
NA,NA,48,NA,3,NA,NA,NA,2629537181,NA,NA,NA,NA,NA,2,NA,NA,NA,2,221000,NA,"Rua Zaire, 556 - Jorge Lavocat, Rio Branco - AC","casas","https://www.zapimoveis.com.br/imovel/venda-casa-2-quartos-jorge-lavocat-rio-branco-ac-48m2-id-2629537181/","https://resizedimgs.zapimoveis.com.br/fit-in/400x180/named.images.sp/9b7005baff6bd825d8b2a71669404516/casa-com-2-quartos-a-venda-48m-no-jorge-lavocat-rio-branco.jpg",-9.93042998944,-67.84168999076
NA,NA,150,NA,1,NA,NA,NA,2624490670,NA,NA,NA,NA,NA,3,NA,NA,NA,NA,3e+05,NA,"Conjunto Tucuma, Rio Branco - AC","casas","https://www.zapimoveis.com.br/imovel/venda-casa-3-quartos-conjunto-tucuma-rio-branco-ac-150m2-id-2624490670/","https://resizedimgs.zapimoveis.com.br/fit-in/400x180/named.images.sp/076ad03d44a89366e5f221733b7e3b66/casa-com-3-quartos-a-venda-150m-no-conjunto-tucuma-rio-branco.jpg",-9.95041,-67.86084
0,NA,392,1,1,750,0,0,2637017295,NA,1,0,0,0,3,0,0,0,3,2500000,0,"Chacara Ipe, Rio Branco - AC","casas_de_condominio","https://www.zapimoveis.com.br/imovel/venda-casa-de-condominio-3-quartos-com-piscina-chacara-ipe-rio-branco-ac-392m2-id-2637017295/","https://resizedimgs.zapimoveis.com.br/fit-in/400x180/named.images.sp/8e1b753a96244c6d5b9660fe680c9db9/casa-de-condominio-com-3-quartos-para-venda-ou-aluguel-392m-no-chacara-ipe-rio-branco.jpg",-9.96293,-67.86855
NA,NA,157,NA,4,NA,NA,NA,2669325409,NA,NA,NA,NA,NA,3,NA,NA,NA,2,669000,NA,"Portal da Amazonia, Rio Branco - AC","casas","https://www.zapimoveis.com.br/imovel/venda-casa-3-quartos-portal-da-amazonia-rio-branco-ac-157m2-id-2669325409/","https://resizedimgs.zapimoveis.com.br/fit-in/400x180/named.images.sp/c08261cabe32096a441f22c07bba406e/casa-com-3-quartos-a-venda-157m-no-portal-da-amazonia-rio-branco.jpg",-9.97321,-67.86036
1,NA,120,1,2,7e+05,0,1,2657013554,NA,1,0,0,0,3,0,0,0,2,590000,0,"Boa Esperanca, Rio Branco - AC","casas_de_condominio","https://www.zapimoveis.com.br/imovel/venda-casa-de-condominio-3-quartos-com-piscina-boa-esperanca-rio-branco-ac-120m2-id-2657013554/","https://resizedimgs.zapimoveis.com.br/fit-in/400x180/named.images.sp/8f3ca9c78c5dc0d59d0152f453a82677/casa-de-condominio-com-3-quartos-a-venda-120m-no-boa-esperanca-rio-branco.jpg",-9.9546,-67.8235
0,NA,204,0,4,NA,0,0,2635915962,NA,1,0,0,0,3,0,0,0,2,2350000,0,"Portal da Amazonia, Rio Branco - AC","casas_de_condominio","https://www.zapimoveis.com.br/imovel/venda-casa-de-condominio-3-quartos-com-piscina-portal-da-amazonia-rio-branco-ac-204m2-id-2635915962/","https://resizedimgs.zapimoveis.com.br/fit-in/400x180/named.images.sp/e1e339680753502d0342bdd5d742492d/casa-de-condominio-com-3-quartos-a-venda-204m-no-portal-da-amazonia-rio-branco.jpg",-9.97321,-67.86036
NA,NA,120,NA,1,1160,NA,NA,2666406098,NA,NA,NA,NA,NA,3,NA,NA,NA,2,630000,NA,"Boa Esperanca, Rio Branco - AC","casas_de_condominio","https://www.zapimoveis.com.br/imovel/venda-casa-de-condominio-3-quartos-boa-esperanca-rio-branco-ac-120m2-id-2666406098/","https://resizedimgs.zapimoveis.com.br/fit-in/400x180/named.images.sp/ea0533d1f317d60b25ff84f387fc7450/casa-de-condominio-com-3-quartos-a-venda-120m-no-boa-esperanca-rio-branco.jpg",-9.9546,-67.8235
NA,NA,360,NA,1,NA,NA,NA,2665325603,NA,NA,NA,NA,NA,3,NA,NA,NA,4,1395000,NA,"Estrada do Calafate - Portal da Amazonia, Rio Branco - AC","casas_de_condominio","https://www.zapimoveis.com.br/imovel/venda-casa-de-condominio-3-quartos-portal-da-amazonia-rio-branco-ac-360m2-id-2665325603/","https://resizedimgs.zapimoveis.com.br/fit-in/400x180/named.images.sp/53ebac0cc139b70575b97006edbec322/casa-de-condominio-com-3-quartos-a-venda-360m-no-portal-da-amazonia-rio-branco.jpg",-9.978481144312,-67.871574669024
NA,NA,68,NA,2,NA,NA,NA,2658464948,NA,NA,NA,NA,NA,2,NA,NA,NA,NA,349000,NA,"Sao Francisco, Rio Branco - AC","casas_de_condominio","https://www.zapimoveis.com.br/imovel/venda-casa-de-condominio-2-quartos-sao-francisco-rio-branco-ac-68m2-id-2658464948/","https://resizedimgs.zapimoveis.com.br/fit-in/400x180/named.images.sp/2f5191277d325b2a2beae6dc2164f2ab/casa-de-condominio-com-2-quartos-a-venda-68m-no-sao-francisco-rio-branco.jpg",-9.95828,-67.80029
1,NA,436,1,6,564,0,1,2665325707,NA,1,1,0,1,4,1,0,1,4,2350000,0,"Estrada da Floresta - Floresta Sul, Rio Branco - AC","casas_de_condominio","https://www.zapimoveis.com.br/imovel/venda-casa-de-condominio-4-quartos-mobiliado-floresta-sul-rio-branco-ac-436m2-id-2665325707/","https://resizedimgs.zapimoveis.com.br/fit-in/400x180/named.images.sp/2f5ba6be2edf59e595c5dcce1316d4de/casa-de-condominio-com-4-quartos-a-venda-436m-no-floresta-sul-rio-branco.jpg",-9.982174238907,-67.838645282107
0,NA,143,1,1,NA,0,0,2636800662,NA,0,0,0,0,3,0,0,0,5,250000,0,"Pista, Rio Branco - AC","casas_de_condominio","https://www.zapimoveis.com.br/imovel/venda-casa-de-condominio-3-quartos-pista-rio-branco-ac-143m2-id-2636800662/","https://resizedimgs.zapimoveis.com.br/fit-in/400x180/named.images.sp/bf78e759cd439915f22589d33ee42c98/casa-de-condominio-com-3-quartos-a-venda-143m-no-pista-rio-branco.jpg",-9.98438,-67.82396
1,NA,176,0,2,NA,0,1,2619208086,NA,1,1,1,1,3,1,0,1,2,880000,0,"Avenida Ceará, 2373 - Dom Giocondo, Rio Branco - AC","casas_de_condominio","https://www.zapimoveis.com.br/imovel/venda-casa-de-condominio-3-quartos-com-piscina-dom-giocondo-rio-branco-ac-176m2-id-2619208086/","https://resizedimgs.zapimoveis.com.br/fit-in/400x180/named.images.sp/845ce92712d72d22a0f1324a8a481881/casa-de-condominio-com-3-quartos-a-venda-176m-no-dom-giocondo-rio-branco.jpg",-9.970259997049,-67.817789999683
1,NA,154,0,3,NA,0,1,2658964670,NA,1,1,1,1,3,1,1,0,2,1100000,1,"Rua do Futuro, 170 - Bosque, Rio Branco - AC","casas_de_condominio","https://www.zapimoveis.com.br/imovel/venda-casa-de-condominio-3-quartos-mobiliado-bosque-rio-branco-ac-154m2-id-2658964670/","https://resizedimgs.zapimoveis.com.br/fit-in/400x180/named.images.sp/7bf58c672a8849006903c3d265b6af4b/casa-de-condominio-com-3-quartos-a-venda-154m-no-bosque-rio-branco.jpg",-9.962221585114,-67.805523791521
1,NA,178,0,2,NA,0,1,2666758993,NA,1,1,0,1,3,1,0,0,2,431000,1,"Estrada da Floresta - Floresta Sul, Rio Branco - AC","casas_de_condominio","https://www.zapimoveis.com.br/imovel/venda-casa-de-condominio-3-quartos-com-piscina-floresta-sul-rio-branco-ac-178m2-id-2666758993/","https://resizedimgs.zapimoveis.com.br/fit-in/400x180/named.images.sp/53209bf1a3d8e1f51a02f914aec15567/casa-de-condominio-com-3-quartos-a-venda-178m-no-floresta-sul-rio-branco.jpg",-9.982174238907,-67.838645282107
1,NA,145,0,3,NA,0,1,2658971575,NA,1,1,1,1,3,1,0,0,2,1050000,0,"Estrada do Calafate, 2000 - Nova Esperanca, Rio Branco - AC","casas_de_condominio","https://www.zapimoveis.com.br/imovel/venda-casa-de-condominio-3-quartos-mobiliado-nova-esperanca-rio-branco-ac-145m2-id-2658971575/","https://resizedimgs.zapimoveis.com.br/fit-in/400x180/named.images.sp/b8835bf621811b641c4493f6df3cd8d4/casa-de-condominio-com-3-quartos-a-venda-145m-no-nova-esperanca-rio-branco.jpg",-9.976722774611,-67.856958829817
0,NA,50,0,1,NA,1,0,2638441717,NA,1,0,0,1,2,0,0,0,NA,430000,0,"Floresta Sul, Rio Branco - AC","apartamentos","https://www.zapimoveis.com.br/imovel/venda-apartamento-2-quartos-com-piscina-floresta-sul-rio-branco-ac-50m2-id-2638441717/","https://resizedimgs.zapimoveis.com.br/fit-in/400x180/named.images.sp/ca9ed4d3042471a8d1c5a671dcf34da1/apartamento-com-2-quartos-a-venda-50m-no-floresta-sul-rio-branco.jpg",-9.99108,-67.84832
1,5,200,0,5,1700,1,1,2655672013,NA,1,1,1,0,3,1,0,0,3,1500000,1,"Rua Camburiú, 253 - Vilage Wilde Maciel, Rio Branco - AC","apartamentos","https://www.zapimoveis.com.br/imovel/venda-apartamento-3-quartos-com-piscina-vilage-wilde-maciel-rio-branco-ac-200m2-id-2655672013/","https://resizedimgs.zapimoveis.com.br/fit-in/400x180/named.images.sp/8ea67bb074e42b9fe37a65adfeb95211/apartamento-com-3-quartos-a-venda-200m-no-vilage-wilde-maciel-rio-branco.jpg",-9.956730012762,-67.820710003293
0,12,78,1,2,700,1,0,2635916156,NA,1,0,0,1,3,0,0,0,2,520000,0,"Residencial Petropolis, Rio Branco - AC","apartamentos","https://www.zapimoveis.com.br/imovel/venda-apartamento-3-quartos-com-piscina-residencial-petropolis-rio-branco-ac-78m2-id-2635916156/","https://resizedimgs.zapimoveis.com.br/fit-in/400x180/named.images.sp/9a720eb734bf3f75587f8ca34b2e2aff/apartamento-com-3-quartos-a-venda-78m-no-residencial-petropolis-rio-branco.jpg",-9.96045,-67.84595
0,6,67,0,2,NA,0,0,2612900004,NA,1,0,0,0,2,0,0,0,1,420000,1,"Rua São Mateus, 0 - Floresta Sul, Rio Branco - AC","apartamentos","https://www.zapimoveis.com.br/imovel/venda-apartamento-2-quartos-com-piscina-floresta-sul-rio-branco-ac-67m2-id-2612900004/","https://resizedimgs.zapimoveis.com.br/fit-in/400x180/named.images.sp/8ed3a2ae97b44d197fce84ed20c991c8/apartamento-com-2-quartos-a-venda-67m-no-floresta-sul-rio-branco.jpg",-9.972959996654,-67.846100003387
1,7,110,0,1,800,1,1,2664445922,NA,1,1,1,0,3,1,0,0,2,575000,0,"Rua Major Ladislau Ferreira, 102 - 7º BEC, Rio Branco - AC","apartamentos","https://www.zapimoveis.com.br/imovel/venda-apartamento-3-quartos-mobiliado-7-bec-rio-branco-ac-110m2-id-2664445922/","https://resizedimgs.zapimoveis.com.br/fit-in/400x180/named.images.sp/df4c35410973c6076fa655b40578abc3/apartamento-com-3-quartos-a-venda-110m-no-7-bec-rio-branco.jpg",-9.971071484773,-67.819150224892
0,3,92,0,2,500,0,0,2639161258,NA,0,1,0,0,3,0,0,0,1,440000,0,"Rua Jambo, 40 - Morada do Sol, Rio Branco - AC","apartamentos","https://www.zapimoveis.com.br/imovel/venda-apartamento-3-quartos-com-playground-morada-do-sol-rio-branco-ac-92m2-id-2639161258/","https://resizedimgs.zapimoveis.com.br/fit-in/400x180/named.images.sp/1774ce3f4628de7814c6b8c8b1c7f685/apartamento-com-3-quartos-a-venda-92m-no-morada-do-sol-rio-branco.jpg",-9.966710009597,-67.798020023759
NA,3,40,NA,1,120,NA,NA,2592091800,NA,NA,NA,NA,NA,2,NA,NA,NA,1,110000,NA,"Rua Veterano R. Pinto, 400 - Conjunto Manoel Juliao, Rio Branco - AC","apartamentos","https://www.zapimoveis.com.br/imovel/venda-apartamento-2-quartos-conjunto-manoel-juliao-rio-branco-ac-40m2-id-2592091800/","https://resizedimgs.zapimoveis.com.br/fit-in/400x180/named.images.sp/da1aa43de4df583a25ab4b17df993627/apartamento-com-2-quartos-a-venda-40m-no-conjunto-manoel-juliao-rio-branco.jpg",-9.943860019531,-67.823060037486
0,NA,49,0,1,NA,1,0,2648750790,NA,0,0,0,0,2,0,0,0,1,185000,0,"Loteamento dos Engenheiros, Rio Branco - AC","apartamentos","https://www.zapimoveis.com.br/imovel/venda-apartamento-2-quartos-com-elevador-loteamento-dos-engenheiros-rio-branco-ac-49m2-id-2648750790/","https://resizedimgs.zapimoveis.com.br/fit-in/400x180/named.images.sp/c19ab0f5ad8faee09178758bf2eddaee/apartamento-com-2-quartos-a-venda-49m-no-loteamento-dos-engenheiros-rio-branco.jpg",-9.9626,-67.84047
0,NA,110,1,1,957,0,0,2665322929,NA,1,0,0,0,3,0,0,0,2,579700,0,"Rua Major Ladislau Ferreira, 1142 - 7º BEC, Rio Branco - AC","apartamentos","https://www.zapimoveis.com.br/imovel/venda-apartamento-3-quartos-mobiliado-7-bec-rio-branco-ac-110m2-id-2665322929/","https://resizedimgs.zapimoveis.com.br/fit-in/400x180/named.images.sp/ac28d4264950ee946a757a4864c25652/apartamento-com-3-quartos-a-venda-110m-no-7-bec-rio-branco.jpg",-9.970400016741,-67.828350024218
0,NA,110,0,2,800,0,0,2619207109,NA,0,0,1,0,3,0,0,0,NA,580000,1,"Rua Major Ladislau Ferreira, 1042 - 7º BEC, Rio Branco - AC","apartamentos","https://www.zapimoveis.com.br/imovel/venda-apartamento-3-quartos-mobiliado-7-bec-rio-branco-ac-110m2-id-2619207109/","https://resizedimgs.zapimoveis.com.br/fit-in/400x180/named.images.sp/4b38e828b30bc9aacdf960a008a00920/apartamento-com-3-quartos-a-venda-110m-no-7-bec-rio-branco.jpg",-9.970489996472,-67.827490040952
0,20,78,0,2,NA,1,0,2652947867,NA,1,0,0,1,3,0,0,0,2,460000,1,"Residencial Petropolis, Rio Branco - AC","apartamentos","https://www.zapimoveis.com.br/imovel/venda-apartamento-3-quartos-com-piscina-residencial-petropolis-rio-branco-ac-78m2-id-2652947867/","https://resizedimgs.zapimoveis.com.br/fit-in/400x180/named.images.sp/56c7b9e01962ad960507e2e70a45a4d5/apartamento-com-3-quartos-a-venda-78m-no-residencial-petropolis-rio-branco.jpg",-9.96045,-67.84595
0,3,90,1,2,NA,0,1,2651022172,NA,0,1,1,0,2,1,0,0,1,415000,1,"Alameda Madri, 124 - Jardim Europa, Rio Branco - AC","apartamentos","https://www.zapimoveis.com.br/imovel/venda-apartamento-2-quartos-mobiliado-jardim-europa-rio-branco-ac-90m2-id-2651022172/","https://resizedimgs.zapimoveis.com.br/fit-in/400x180/named.images.sp/8846f314199bedbef77e36a14f0a8844/apartamento-com-2-quartos-a-venda-90m-no-jardim-europa-rio-branco.jpg",-9.969896932111,-67.850296803365
NA,NA,78,NA,1,NA,NA,NA,2624490727,NA,NA,NA,NA,NA,2,NA,NA,NA,NA,320000,NA,"Portal da Amazonia, Rio Branco - AC","apartamentos","https://www.zapimoveis.com.br/imovel/venda-apartamento-2-quartos-portal-da-amazonia-rio-branco-ac-78m2-id-2624490727/","https://resizedimgs.zapimoveis.com.br/fit-in/400x180/named.images.sp/58811d6b1945df9df31b6a05bf6e26a1/apartamento-com-2-quartos-a-venda-78m-no-portal-da-amazonia-rio-branco.jpg",-9.97321,-67.86036
0,15,63,0,2,NA,1,1,2635915960,NA,0,1,0,0,2,0,0,0,NA,365000,0,"Centro, Rio Branco - AC","apartamentos","https://www.zapimoveis.com.br/imovel/venda-apartamento-2-quartos-com-churrasqueira-centro-rio-branco-ac-63m2-id-2635915960/","https://resizedimgs.zapimoveis.com.br/fit-in/400x180/named.images.sp/bf8456d4c16b59fb5ac60293f94e90e1/apartamento-com-2-quartos-a-venda-63m-no-centro-rio-branco.jpg",-9.97107,-67.81032
NA,3,40,NA,1,NA,NA,NA,2662913553,NA,NA,NA,NA,NA,2,NA,NA,NA,1,125000,NA,"Rua Aderbal Brasil, 100 - Conjunto Manoel Juliao, Rio Branco - AC","apartamentos","https://www.zapimoveis.com.br/imovel/venda-apartamento-2-quartos-conjunto-manoel-juliao-rio-branco-ac-40m2-id-2662913553/","https://resizedimgs.zapimoveis.com.br/fit-in/400x180/named.images.sp/4047b9b07f2235b24d0393cabb9b7bd3/apartamento-com-2-quartos-a-venda-40m-no-conjunto-manoel-juliao-rio-branco.jpg",-9.958038078857,-67.833831419975
NA,NA,81,NA,1,NA,NA,NA,2635915861,NA,NA,NA,NA,NA,2,NA,NA,NA,1,285000,NA,"Bosque, Rio Branco - AC","apartamentos","https://www.zapimoveis.com.br/imovel/venda-apartamento-2-quartos-bosque-rio-branco-ac-81m2-id-2635915861/","https://resizedimgs.zapimoveis.com.br/fit-in/400x180/named.images.sp/1c9fd69ec413419e9d2ca3abfccee978/apartamento-com-2-quartos-a-venda-81m-no-bosque-rio-branco.jpg",-9.96263,-67.8149
NA,NA,63,NA,2,NA,NA,NA,2635475820,NA,NA,NA,NA,NA,3,NA,NA,NA,1,250000,NA,"Floresta Sul, Rio Branco - AC","apartamentos","https://www.zapimoveis.com.br/imovel/venda-apartamento-3-quartos-floresta-sul-rio-branco-ac-63m2-id-2635475820/","https://resizedimgs.zapimoveis.com.br/fit-in/400x180/named.images.sp/4cd2adc51a75ad6bdc56ea261fedbd31/apartamento-com-3-quartos-a-venda-63m-no-floresta-sul-rio-branco.jpg",-9.99108,-67.84832
0,NA,63,0,2,440,1,1,2668457144,NA,0,1,0,0,2,0,0,0,2,345000,0,"Centro, Rio Branco - AC","apartamentos","https://www.zapimoveis.com.br/imovel/venda-apartamento-2-quartos-com-churrasqueira-centro-rio-branco-ac-63m2-id-2668457144/","https://resizedimgs.zapimoveis.com.br/fit-in/400x180/named.images.sp/266f9cae0135ddbe7b0e4fb39f3007e9/apartamento-com-2-quartos-para-venda-ou-aluguel-63m-no-centro-rio-branco.jpg",-9.97107,-67.81032
0,NA,64,0,1,NA,0,1,2636388471,NA,1,1,0,1,3,0,0,0,1,360000,0,"Centro, Rio Branco - AC","apartamentos","https://www.zapimoveis.com.br/imovel/venda-apartamento-3-quartos-com-piscina-centro-rio-branco-ac-64m2-id-2636388471/","https://resizedimgs.zapimoveis.com.br/fit-in/400x180/named.images.sp/9af69db4c2d7f97f0ee3b0e466815063/apartamento-com-3-quartos-a-venda-64m-no-centro-rio-branco.jpg",-9.97107,-67.81032
NA,3,51,NA,1,NA,NA,NA,2651188558,NA,NA,NA,NA,NA,2,NA,NA,NA,1,110000,NA,"Rua Maria José Domingos, 01 - Calafate, Rio Branco - AC","apartamentos","https://www.zapimoveis.com.br/imovel/venda-apartamento-2-quartos-calafate-rio-branco-ac-51m2-id-2651188558/","https://resizedimgs.zapimoveis.com.br/fit-in/400x180/named.images.sp/7be33b671ab2a0d2570e15d4ede18d7b/apartamento-com-2-quartos-a-venda-51m-no-calafate-rio-branco.jpg",-9.976350298309,-67.883300513486
NA,NA,53,NA,1,NA,NA,NA,2648750148,NA,NA,NA,NA,NA,2,NA,NA,NA,1,240000,NA,"Alto Alegre, Rio Branco - AC","apartamentos","https://www.zapimoveis.com.br/imovel/venda-apartamento-2-quartos-com-frente-para-o-mar-alto-alegre-rio-branco-ac-53m2-id-2648750148/","https://resizedimgs.zapimoveis.com.br/fit-in/400x180/named.images.sp/0fdc9f1956fdddd71bad505fb1a6b960/apartamento-com-2-quartos-a-venda-53m-no-alto-alegre-rio-branco.jpg",-9.92805,-67.826
NA,NA,49,NA,1,NA,NA,NA,2641762727,NA,NA,NA,NA,NA,2,NA,NA,NA,1,205000,NA,"Floresta Sul, Rio Branco - AC","apartamentos","https://www.zapimoveis.com.br/imovel/venda-apartamento-2-quartos-floresta-sul-rio-branco-ac-49m2-id-2641762727/","https://resizedimgs.zapimoveis.com.br/fit-in/400x180/named.images.sp/83b2590f51e67f87ad611210c706b419/apartamento-com-2-quartos-a-venda-49m-no-floresta-sul-rio-branco.jpg",-9.99108,-67.84832
0,NA,203,0,3,NA,1,0,2668453077,NA,1,0,0,0,3,0,0,0,2,870000,0,"7º BEC, Rio Branco - AC","apartamentos","https://www.zapimoveis.com.br/imovel/venda-apartamento-3-quartos-com-piscina-7-bec-rio-branco-ac-203m2-id-2668453077/","https://resizedimgs.zapimoveis.com.br/fit-in/400x180/named.images.sp/96b3cd7325800627f2c844ea79c55f5a/apartamento-com-3-quartos-a-venda-203m-no-7-bec-rio-branco.jpg",-9.969460007255,-67.800095005799
NA,NA,49,NA,1,NA,NA,NA,2641296833,NA,NA,NA,NA,NA,2,NA,NA,NA,1,205000,NA,"Floresta Sul, Rio Branco - AC","apartamentos","https://www.zapimoveis.com.br/imovel/venda-apartamento-2-quartos-floresta-sul-rio-branco-ac-49m2-id-2641296833/","https://resizedimgs.zapimoveis.com.br/fit-in/400x180/named.images.sp/fe963c37da8d00fe1c747ea890778765/apartamento-com-2-quartos-a-venda-49m-no-floresta-sul-rio-branco.jpg",-9.99108,-67.84832
NA,4,40,NA,1,NA,NA,NA,2663592905,NA,NA,NA,NA,NA,2,NA,NA,NA,1,140000,NA,"Rua Aderbal Brasil, 101 - Conjunto Manoel Juliao, Rio Branco - AC","apartamentos","https://www.zapimoveis.com.br/imovel/venda-apartamento-2-quartos-conjunto-manoel-juliao-rio-branco-ac-40m2-id-2663592905/","https://resizedimgs.zapimoveis.com.br/fit-in/400x180/named.images.sp/5e8f19437046866fdc0f3acba3264b59/apartamento-com-2-quartos-a-venda-40m-no-conjunto-manoel-juliao-rio-branco.jpg",-9.957670001293,-67.833900017586
0,NA,77,0,1,NA,1,0,2668733108,NA,0,0,0,0,3,0,0,0,2,495000,0,"Residencial Petropolis, Rio Branco - AC","apartamentos","https://www.zapimoveis.com.br/imovel/venda-apartamento-3-quartos-residencial-petropolis-rio-branco-ac-77m2-id-2668733108/","https://resizedimgs.zapimoveis.com.br/fit-in/400x180/named.images.sp/77282dc276e734b4644c19cced579f9a/apartamento-com-3-quartos-a-venda-77m-no-residencial-petropolis-rio-branco.jpg",-9.96045,-67.84595
1,7,80,0,2,NA,1,1,2652819502,NA,1,1,1,0,3,0,0,0,2,550000,1,"Rua São Mateus, 100 - LBA Vila Betel ll, Rio Branco - AC","apartamentos","https://www.zapimoveis.com.br/imovel/venda-apartamento-3-quartos-mobiliado-lba-vila-betel-ll-rio-branco-ac-80m2-id-2652819502/","https://resizedimgs.zapimoveis.com.br/fit-in/400x180/named.images.sp/ac849314bfb1e314c30b1a52ae0bdca6/apartamento-com-3-quartos-a-venda-80m-no-lba-vila-betel-ll-rio-branco.jpg",-9.963361804011,-67.826269509927
NA,3,38,NA,1,NA,NA,NA,2660221503,NA,NA,NA,NA,NA,2,NA,NA,NA,1,140000,NA,"Rua Aderbal Brasil, 110 - Conjunto Manoel Juliao, Rio Branco - AC","apartamentos","https://www.zapimoveis.com.br/imovel/venda-apartamento-2-quartos-conjunto-manoel-juliao-rio-branco-ac-38m2-id-2660221503/","https://resizedimgs.zapimoveis.com.br/fit-in/400x180/named.images.sp/1030d761a60bfe23d8b0db660d3cec09/apartamento-com-2-quartos-a-venda-38m-no-conjunto-manoel-juliao-rio-branco.jpg",-9.957956104448,-67.833825864954
1,NA,110,0,2,NA,1,1,2619200981,NA,1,1,1,0,3,1,0,1,2,550000,1,"Rua Major Ladislau Ferreira, 1042 - 7º BEC, Rio Branco - AC","apartamentos","https://www.zapimoveis.com.br/imovel/venda-apartamento-3-quartos-mobiliado-7-bec-rio-branco-ac-110m2-id-2619200981/","https://resizedimgs.zapimoveis.com.br/fit-in/400x180/named.images.sp/2190351d90431f63b0254a7248a06448/apartamento-com-3-quartos-a-venda-110m-no-7-bec-rio-branco.jpg",-9.970489996472,-67.827490040952
