"academia","andar","area","area_servico","banheiro","condominio","elevador","espaco_gourmet","id","iptu","piscina","playground","portaria_24_horas","quadra_de_esporte","quarto","salao_de_festa","sauna","spa","vaga","valor","varanda_gourmet","endereco","tipo","url","latitude","longitude"
NA,NA,71,NA,2,NA,NA,NA,2656772765,NA,NA,NA,NA,NA,3,NA,NA,NA,2,270000,NA,"Portal da Amazonia, Rio Branco - AC","apartamentos","https://www.zapimoveis.com.br/imovel/venda-apartamento-3-quartos-portal-da-amazonia-rio-branco-ac-71m2-id-2656772765/",-9.97321,-67.86036
0,2,51,0,1,230,0,0,2648322078,300,0,1,1,0,2,1,0,0,1,2e+05,0,"Rua São Mateus, 150 - Residencial Araca, Rio Branco - AC","apartamentos","https://www.zapimoveis.com.br/imovel/venda-apartamento-2-quartos-com-churrasqueira-residencial-araca-rio-branco-ac-51m2-id-2648322078/",-10.011027449136,-67.777857018404
0,2,63,0,2,280,0,1,2619497468,NA,0,1,1,0,3,1,0,0,2,3e+05,0,"Estrada da Floresta, 1893 - Floresta Sul, Rio Branco - AC","apartamentos","https://www.zapimoveis.com.br/imovel/venda-apartamento-3-quartos-com-churrasqueira-floresta-sul-rio-branco-ac-63m2-id-2619497468/",-9.986977801504,-67.844706632184
0,NA,82,0,2,NA,0,1,2619109539,NA,1,0,1,0,3,0,0,0,2,330000,0,"Rua Piracanjuba, 917 - Portal da Amazonia, Rio Branco - AC","apartamentos","https://www.zapimoveis.com.br/imovel/venda-apartamento-3-quartos-com-piscina-portal-da-amazonia-rio-branco-ac-82m2-id-2619109539/",-9.974644989695,-67.860729986737
NA,NA,53,NA,1,NA,NA,NA,2656274069,NA,NA,NA,NA,NA,2,NA,NA,NA,NA,215000,NA,"Alto Alegre 	, Rio Branco - AC","apartamentos","https://www.zapimoveis.com.br/imovel/venda-apartamento-2-quartos-alto-alegre-rio-branco-ac-53m2-id-2656274069/",-9.92805,-67.826
1,NA,68,0,2,NA,1,1,2619496874,NA,1,1,1,0,2,1,0,0,1,450000,1,"Rua São Mateus, 100 - LBA Vila Betel ll, Rio Branco - AC","apartamentos","https://www.zapimoveis.com.br/imovel/venda-apartamento-2-quartos-mobiliado-lba-vila-betel-ll-rio-branco-ac-68m2-id-2619496874/",-9.963361804011,-67.826269509927
1,2,67,0,2,NA,0,1,2619496172,NA,0,0,1,0,2,0,0,0,1,260000,0,"Estrada de Porto Acre, 1528 - Alto Alegre 	, Rio Branco - AC","apartamentos","https://www.zapimoveis.com.br/imovel/venda-apartamento-2-quartos-com-churrasqueira-alto-alegre-rio-branco-ac-67m2-id-2619496172/",-9.916298611881,-67.820917555821
0,3,71,1,3,NA,0,0,2641540028,NA,1,0,0,1,3,0,0,0,1,285000,0,"Recanto dos Buritis, Rio Branco - AC","apartamentos","https://www.zapimoveis.com.br/imovel/venda-apartamento-3-quartos-com-piscina-recanto-dos-buritis-rio-branco-ac-71m2-id-2641540028/",-10.00159,-67.79387
NA,NA,49,NA,1,NA,NA,NA,2655389586,NA,NA,NA,NA,NA,2,NA,NA,NA,1,150000,NA,"Loteamento dos Engenheiros, Rio Branco - AC","apartamentos","https://www.zapimoveis.com.br/imovel/venda-apartamento-2-quartos-loteamento-dos-engenheiros-rio-branco-ac-49m2-id-2655389586/",-9.9627,-67.84076
NA,2,49,NA,1,NA,NA,NA,2637324867,NA,NA,NA,NA,NA,2,NA,NA,NA,1,145000,NA,"Rua Aderbal Brasil, 136 - Conjunto Manoel Juliao, Rio Branco - AC","apartamentos","https://www.zapimoveis.com.br/imovel/venda-apartamento-2-quartos-conjunto-manoel-juliao-rio-branco-ac-49m2-id-2637324867/",-9.957742970983,-67.8338114219
0,3,49,0,1,NA,0,1,2651176674,NA,0,1,1,1,2,1,0,0,1,210000,0,"Estrada da Floresta, 1893 - Floresta Sul, Rio Branco - AC","apartamentos","https://www.zapimoveis.com.br/imovel/venda-apartamento-2-quartos-com-churrasqueira-floresta-sul-rio-branco-ac-49m2-id-2651176674/",-9.986977801504,-67.844706632184
0,10,301,0,5,NA,1,0,2645679567,NA,0,0,0,0,5,0,0,0,4,2600000,0,"Jardim Manoel Juliao, Rio Branco - AC","apartamentos","https://www.zapimoveis.com.br/imovel/venda-apartamento-5-quartos-mobiliado-jardim-manoel-juliao-rio-branco-ac-301m2-id-2645679567/",-9.95926,-67.82307
0,NA,105,1,2,NA,0,0,2577600991,NA,1,0,0,0,3,0,0,0,2,620000,1,"Aviario, Rio Branco - AC","apartamentos","https://www.zapimoveis.com.br/imovel/venda-apartamento-3-quartos-com-piscina-aviario-rio-branco-ac-105m2-id-2577600991/",-9.96614,-67.80494
NA,NA,22735,NA,1,68205,NA,NA,2491370685,34103,NA,NA,NA,NA,NA,NA,NA,NA,12,4.5e+07,NA,"Ipase, Rio Branco - AC","casas_comerciais","https://www.zapimoveis.com.br/imovel/venda-casa-ipase-rio-branco-ac-22735m2-id-2491370685/",-9.96918,-67.81048
0,NA,392,1,1,750,0,0,2637017295,NA,1,0,0,0,3,0,0,0,3,2500000,0,"Chacara Ipe, Rio Branco - AC","casas_de_condominio","https://www.zapimoveis.com.br/imovel/venda-casa-de-condominio-3-quartos-com-piscina-chacara-ipe-rio-branco-ac-392m2-id-2637017295/",-9.96293,-67.86855
NA,NA,300,NA,NA,NA,NA,NA,2656903420,NA,NA,NA,NA,NA,NA,NA,NA,NA,NA,150000,NA,"Portal da Amazonia, Rio Branco - AC","terrenos_e_lotes_comerciais","https://www.zapimoveis.com.br/imovel/venda-terreno-lote-comercial-portal-da-amazonia-rio-branco-ac-300m2-id-2656903420/",-9.97321,-67.86036
NA,NA,458,NA,NA,398000,NA,NA,2635916157,NA,NA,NA,NA,NA,NA,NA,NA,NA,NA,398000,NA,"Loteamento Novo Horizonte, Rio Branco - AC","terrenos_e_lotes_comerciais","https://www.zapimoveis.com.br/imovel/venda-terreno-lote-comercial-loteamento-novo-horizonte-rio-branco-ac-458m2-id-2635916157/",-9.97853,-67.8341
NA,NA,703,NA,NA,NA,NA,NA,2616332593,NA,NA,NA,NA,NA,NA,NA,NA,NA,NA,8e+05,NA,"Avenida Ceará, SN - 7º BEC, Rio Branco - AC","terrenos_e_lotes_comerciais","https://www.zapimoveis.com.br/imovel/venda-terreno-lote-comercial-7-bec-rio-branco-ac-703m2-id-2616332593/",-9.97305767748,-67.797607942642
NA,NA,260,NA,NA,NA,NA,NA,2653180017,NA,NA,NA,NA,NA,NA,NA,NA,NA,NA,390000,NA,"Aviario, Rio Branco - AC","terrenos_e_lotes_comerciais","https://www.zapimoveis.com.br/imovel/venda-terreno-lote-comercial-aviario-rio-branco-ac-260m2-id-2653180017/",-9.96614,-67.80494
NA,NA,706,NA,NA,NA,NA,NA,2635394686,NA,NA,NA,NA,NA,NA,NA,NA,NA,NA,8e+05,NA,"Avenida Ceará - Dom Giocondo, Rio Branco - AC","terrenos_e_lotes_comerciais","https://www.zapimoveis.com.br/imovel/venda-terreno-lote-comercial-dom-giocondo-rio-branco-ac-706m2-id-2635394686/",-9.970685001449,-67.814095005306
NA,NA,1564,NA,NA,NA,NA,NA,2652943963,NA,NA,NA,NA,NA,NA,NA,NA,NA,NA,560000,NA,"Areal, Rio Branco - AC","terrenos_e_lotes_comerciais","https://www.zapimoveis.com.br/imovel/venda-terreno-lote-comercial-areal-rio-branco-ac-1564m2-id-2652943963/",-10.00281,-67.80141
NA,NA,1780,NA,NA,NA,NA,NA,2572261307,NA,NA,NA,NA,NA,NA,NA,NA,NA,NA,7e+05,NA,"Avenida Antônio da Rocha Viana, 780 - Vila Nova, Rio Branco - AC","terrenos_e_lotes_comerciais","https://www.zapimoveis.com.br/imovel/venda-terreno-lote-comercial-vila-nova-rio-branco-ac-1780m2-id-2572261307/",-9.94067242289,-67.826485081633
NA,NA,330,NA,NA,NA,NA,NA,2628459191,NA,NA,NA,NA,NA,NA,NA,NA,NA,NA,170000,NA,"Rua Major Ladislau Ferreira - Abraao Alab, Rio Branco - AC","terrenos_e_lotes_comerciais","https://www.zapimoveis.com.br/imovel/venda-terreno-lote-comercial-abraao-alab-rio-branco-ac-330m2-id-2628459191/",-9.971030000584,-67.822539982303
NA,1,66,NA,2,280,NA,NA,2627353293,1000,NA,NA,NA,NA,3,NA,NA,NA,2,270000,NA,"Avenida Ascanio, 1893 - Floresta Sul, Rio Branco - AC","casas_comerciais","https://www.zapimoveis.com.br/imovel/venda-casa-3-quartos-floresta-sul-rio-branco-ac-66m2-id-2627353293/",-9.99108,-67.84832
NA,NA,100,NA,3,NA,NA,NA,2644453490,NA,NA,NA,NA,NA,4,NA,NA,NA,NA,4e+05,NA,"Xavier Maia, Rio Branco - AC","casas","https://www.zapimoveis.com.br/imovel/venda-casa-4-quartos-xavier-maia-rio-branco-ac-100m2-id-2644453490/",-9.92942,-67.82026
NA,NA,290,NA,1,NA,NA,NA,2635916056,NA,NA,NA,NA,NA,2,NA,NA,NA,6,450000,NA,"Nova Esperanca, Rio Branco - AC","casas","https://www.zapimoveis.com.br/imovel/venda-casa-2-quartos-nova-esperanca-rio-branco-ac-290m2-id-2635916056/",-9.97461,-67.84142
0,NA,572,0,5,NA,0,0,2619116719,NA,1,0,0,0,5,0,0,0,4,9e+05,0,"Rua Laranja, 247 - Morada do Sol, Rio Branco - AC","sobrados","https://www.zapimoveis.com.br/imovel/venda-sobrados-5-quartos-com-piscina-morada-do-sol-rio-branco-ac-572m2-id-2619116719/",-9.964671798225,-67.79907138341
NA,NA,200,NA,3,NA,NA,NA,2632751874,NA,NA,NA,NA,NA,4,NA,NA,NA,2,8e+05,NA,"Rua Alberto Assad, 344 - Vila Ivonete, Rio Branco - AC","sobrados","https://www.zapimoveis.com.br/imovel/venda-sobrados-4-quartos-vila-ivonete-rio-branco-ac-200m2-id-2632751874/",-9.949439692712,-67.82249348297
0,NA,220,1,3,NA,0,0,2646776932,NA,1,0,0,0,3,0,0,0,4,698000,0,"Xavier Maia, Rio Branco - AC","sobrados","https://www.zapimoveis.com.br/imovel/venda-sobrados-3-quartos-com-piscina-xavier-maia-rio-branco-ac-220m2-id-2646776932/",-9.92942,-67.82026
NA,NA,338,NA,4,NA,NA,NA,2641295992,NA,NA,NA,NA,NA,4,NA,NA,NA,NA,9e+05,NA,"Conjunto Paulo Cesar de Oliveira, Rio Branco - AC","casas","https://www.zapimoveis.com.br/imovel/venda-casa-4-quartos-conjunto-paulo-cesar-de-oliveira-rio-branco-ac-338m2-id-2641295992/",-9.97388,-67.80756
0,NA,120,0,3,NA,0,0,2654256172,NA,1,0,0,0,3,0,0,0,2,590000,1,"Travessa da Afelétro, 06 - Vila Ivonete, Rio Branco - AC","sobrados","https://www.zapimoveis.com.br/imovel/venda-sobrados-3-quartos-com-piscina-vila-ivonete-rio-branco-ac-120m2-id-2654256172/",-9.954438330832,-67.823692408293
NA,NA,203,NA,3,NA,NA,NA,2647395461,NA,NA,NA,NA,NA,2,NA,NA,NA,2,590000,NA,"Vila da Amizade, Rio Branco - AC","casas","https://www.zapimoveis.com.br/imovel/venda-casa-2-quartos-com-escritorio-vila-da-amizade-rio-branco-ac-203m2-id-2647395461/",-10.02991,-67.80128
NA,NA,148,NA,2,NA,NA,NA,2624491314,NA,NA,NA,NA,NA,3,NA,NA,NA,NA,340000,NA,"Nova Esperanca, Rio Branco - AC","casas","https://www.zapimoveis.com.br/imovel/venda-casa-3-quartos-nova-esperanca-rio-branco-ac-148m2-id-2624491314/",-9.97461,-67.84142
0,NA,220,1,2,NA,0,0,2654615920,NA,0,0,0,0,2,0,0,0,2,1259000,1,"Estrada de Porto Acre, 520 - Alto Alegre 	, Rio Branco - AC","sobrados","https://www.zapimoveis.com.br/imovel/venda-sobrados-2-quartos-mobiliado-alto-alegre-rio-branco-ac-220m2-id-2654615920/",-9.947570017515,-67.815799968231
0,NA,135,0,2,NA,1,0,2640998530,NA,0,0,0,0,2,0,0,0,2,230000,0,"Waldemar Maciel, Rio Branco - AC","casas","https://www.zapimoveis.com.br/imovel/venda-casa-2-quartos-com-elevador-waldemar-maciel-rio-branco-ac-135m2-id-2640998530/",-9.97996,-67.87009
NA,NA,600,NA,1,NA,NA,NA,2642438056,NA,NA,NA,NA,NA,3,NA,NA,NA,NA,680000,NA,"Aviario, Rio Branco - AC","casas","https://www.zapimoveis.com.br/imovel/venda-casa-3-quartos-aviario-rio-branco-ac-600m2-id-2642438056/",-9.96614,-67.80494
0,NA,143,0,1,NA,0,0,2646166152,NA,1,0,0,0,3,0,0,0,NA,287000,0,"Loteamento Joafra, Rio Branco - AC","casas","https://www.zapimoveis.com.br/imovel/venda-casa-3-quartos-com-piscina-loteamento-joafra-rio-branco-ac-143m2-id-2646166152/",-9.9453,-67.85189
NA,NA,250,NA,2,NA,NA,NA,2654902871,NA,NA,NA,NA,NA,4,NA,NA,NA,NA,5e+05,NA,"Nova Esperanca, Rio Branco - AC","casas","https://www.zapimoveis.com.br/imovel/venda-casa-4-quartos-nova-esperanca-rio-branco-ac-250m2-id-2654902871/",-9.97461,-67.84142
NA,1,200,NA,3,NA,NA,NA,2619493942,NA,NA,NA,NA,NA,4,NA,NA,NA,2,750000,NA,"Rua Manoel Cesário, 304 - Jose Augusto, Rio Branco - AC","sobrados","https://www.zapimoveis.com.br/imovel/venda-sobrados-4-quartos-jose-augusto-rio-branco-ac-200m2-id-2619493942/",-9.968851065088,-67.80679770836
0,NA,184,0,3,NA,0,0,2612640688,NA,1,0,0,0,3,0,0,0,NA,680000,0,"Rua Sorocaba - Doca Furtado, Rio Branco - AC","casas","https://www.zapimoveis.com.br/imovel/venda-casa-3-quartos-com-piscina-doca-furtado-rio-branco-ac-184m2-id-2612640688/",-9.967774103342,-67.835000641851
NA,NA,270,NA,1,NA,NA,NA,2654396883,NA,NA,NA,NA,NA,2,NA,NA,NA,6,450000,NA,"Nova Esperanca, Rio Branco - AC","casas","https://www.zapimoveis.com.br/imovel/venda-casa-2-quartos-nova-esperanca-rio-branco-ac-270m2-id-2654396883/",-9.97461,-67.84142
0,NA,160,0,3,NA,0,0,2636763402,NA,1,0,0,0,3,0,0,0,NA,650000,0,"Conjunto Tangara, Rio Branco - AC","casas","https://www.zapimoveis.com.br/imovel/venda-casa-3-quartos-com-piscina-conjunto-tangara-rio-branco-ac-160m2-id-2636763402/",-9.96532,-67.83924
NA,NA,271,NA,5,NA,NA,NA,2612640780,NA,NA,NA,NA,NA,4,NA,NA,NA,3,5e+05,NA,"Rua das Palmeiras - Jardim Tropical, Rio Branco - AC","casas","https://www.zapimoveis.com.br/imovel/venda-casa-4-quartos-jardim-tropical-rio-branco-ac-271m2-id-2612640780/",-9.960168353616,-67.795674742621
NA,NA,282,NA,4,NA,NA,NA,2635915762,NA,NA,NA,NA,NA,5,NA,NA,NA,NA,445000,NA,"Xavier Maia, Rio Branco - AC","casas","https://www.zapimoveis.com.br/imovel/venda-casa-5-quartos-xavier-maia-rio-branco-ac-282m2-id-2635915762/",-9.92942,-67.82026
0,NA,360,0,2,NA,0,0,2652943964,NA,1,0,0,0,3,0,0,0,3,475000,0,"Conjunto Manoel Juliao, Rio Branco - AC","casas","https://www.zapimoveis.com.br/imovel/venda-casa-3-quartos-com-piscina-conjunto-manoel-juliao-rio-branco-ac-360m2-id-2652943964/",-9.95325,-67.83383
0,NA,182,1,1,NA,0,0,2642125019,NA,0,0,0,0,3,0,0,0,2,450000,0,"Conjunto Manoel Juliao, Rio Branco - AC","casas","https://www.zapimoveis.com.br/imovel/venda-casa-3-quartos-com-area-de-servico-conjunto-manoel-juliao-rio-branco-ac-182m2-id-2642125019/",-9.95325,-67.83383
NA,NA,114,NA,2,NA,NA,NA,2615021943,NA,NA,NA,NA,NA,3,NA,NA,NA,NA,424800,NA,"Rua Campos Lindos, 16 - Floresta Sul, Rio Branco - AC","casas","https://www.zapimoveis.com.br/imovel/venda-casa-3-quartos-floresta-sul-rio-branco-ac-114m2-id-2615021943/",-9.993298502269,-67.837273628513
NA,NA,300,NA,4,NA,NA,NA,2655644955,NA,NA,NA,NA,NA,4,NA,NA,NA,2,680000,NA,"Nova Esperanca, Rio Branco - AC","casas","https://www.zapimoveis.com.br/imovel/venda-casa-4-quartos-nova-esperanca-rio-branco-ac-300m2-id-2655644955/",-9.97461,-67.84142
0,NA,157,0,2,NA,0,0,2614937401,NA,1,0,0,0,3,0,0,0,NA,630000,0,"Rua Silvio Antônio Araújo de Oliveira, 11 - Portal da Amazonia, Rio Branco - AC","casas","https://www.zapimoveis.com.br/imovel/venda-casa-3-quartos-com-piscina-portal-da-amazonia-rio-branco-ac-157m2-id-2614937401/",-9.968292503415,-67.87486489688
NA,NA,159,NA,4,NA,NA,NA,2643145586,NA,NA,NA,NA,NA,3,NA,NA,NA,NA,530000,NA,"Conjunto Tucuma, Rio Branco - AC","casas","https://www.zapimoveis.com.br/imovel/venda-casa-3-quartos-com-varanda-conjunto-tucuma-rio-branco-ac-159m2-id-2643145586/",-9.95041,-67.86084
NA,NA,150,NA,2,NA,NA,NA,2645139508,NA,NA,NA,NA,NA,3,NA,NA,NA,NA,230000,NA,"Loteamento Santa Helena, Rio Branco - AC","casas","https://www.zapimoveis.com.br/imovel/venda-casa-3-quartos-loteamento-santa-helena-rio-branco-ac-150m2-id-2645139508/",-10.01603,-67.79819
NA,NA,92,NA,2,NA,NA,NA,2638225105,NA,NA,NA,NA,NA,2,NA,NA,NA,2,230000,NA,"Loteamento Jaguar, Rio Branco - AC","casas","https://www.zapimoveis.com.br/imovel/venda-casa-2-quartos-com-jardim-loteamento-jaguar-rio-branco-ac-92m2-id-2638225105/",-9.93145,-67.81023
NA,NA,300,NA,2,NA,NA,NA,2635912003,NA,NA,NA,NA,NA,2,NA,NA,NA,3,380000,NA,"Conjunto Bela Vista, Rio Branco - AC","casas","https://www.zapimoveis.com.br/imovel/venda-casa-2-quartos-conjunto-bela-vista-rio-branco-ac-300m2-id-2635912003/",-9.97202,-67.83173
0,NA,192,0,2,NA,0,0,2641543974,NA,1,0,0,0,3,0,0,0,2,680000,1,"Portal da Amazonia, Rio Branco - AC","casas","https://www.zapimoveis.com.br/imovel/venda-casa-3-quartos-com-piscina-portal-da-amazonia-rio-branco-ac-192m2-id-2641543974/",-9.97321,-67.86036
NA,NA,140,NA,2,NA,NA,NA,2614709599,NA,NA,NA,NA,NA,3,NA,NA,NA,NA,250000,NA,"Travessa Campo do Rio Branco - Capoeira, Rio Branco - AC","casas","https://www.zapimoveis.com.br/imovel/venda-casa-3-quartos-capoeira-rio-branco-ac-140m2-id-2614709599/",-9.968627059716,-67.808126508045
NA,NA,174,NA,4,NA,NA,NA,2637222624,NA,NA,NA,NA,NA,3,NA,NA,NA,NA,895000,NA,"Vila Ivonete, Rio Branco - AC","casas","https://www.zapimoveis.com.br/imovel/venda-casa-3-quartos-vila-ivonete-rio-branco-ac-174m2-id-2637222624/",-9.94936,-67.82229
NA,NA,120,NA,2,NA,NA,NA,2646595553,NA,NA,NA,NA,NA,3,NA,NA,NA,4,188000,NA,"Seis de Agosto, Rio Branco - AC","casas","https://www.zapimoveis.com.br/imovel/venda-casa-3-quartos-seis-de-agosto-rio-branco-ac-120m2-id-2646595553/",-9.97882,-67.8048
NA,NA,140,NA,3,NA,NA,NA,2646472887,NA,NA,NA,NA,NA,2,NA,NA,NA,2,677000,NA,"LBA Vila Betel ll, Rio Branco - AC","casas","https://www.zapimoveis.com.br/imovel/venda-casa-2-quartos-lba-vila-betel-ll-rio-branco-ac-140m2-id-2646472887/",-9.97822,-67.84194
0,NA,103,0,3,NA,0,1,2655116169,NA,1,1,1,0,3,0,0,0,2,590000,1,"Travessa da Afelétro, 12 - Boa Esperanca, Rio Branco - AC","casas_de_condominio","https://www.zapimoveis.com.br/imovel/venda-casa-de-condominio-3-quartos-com-piscina-boa-esperanca-rio-branco-ac-103m2-id-2655116169/",-9.954480537208,-67.82379132897
NA,NA,148,NA,2,NA,NA,NA,2655499158,NA,NA,NA,NA,NA,2,NA,NA,NA,2,235000,NA,"Travessa Raul Pompéia, 54 - Conjunto Esperanca, Rio Branco - AC","casas","https://www.zapimoveis.com.br/imovel/venda-casa-2-quartos-conjunto-esperanca-rio-branco-ac-148m2-id-2655499158/",-9.972470011549,-67.837150016724
NA,NA,250,NA,3,NA,NA,NA,2655874973,NA,NA,NA,NA,NA,4,NA,NA,NA,3,650000,NA,"Conjunto Tangara, Rio Branco - AC","casas","https://www.zapimoveis.com.br/imovel/venda-casa-4-quartos-com-ar-condicionado-conjunto-tangara-rio-branco-ac-250m2-id-2655874973/",-9.96532,-67.83924
NA,NA,230,NA,3,NA,NA,NA,2635674598,NA,NA,NA,NA,NA,3,NA,NA,NA,3,390000,NA,"Xavier Maia, Rio Branco - AC","casas","https://www.zapimoveis.com.br/imovel/venda-casa-3-quartos-xavier-maia-rio-branco-ac-230m2-id-2635674598/",-9.92942,-67.82026
NA,NA,300,NA,4,NA,NA,NA,2636388171,NA,NA,NA,NA,NA,4,NA,NA,NA,NA,420000,NA,"Conjunto Universitario, Rio Branco - AC","casas","https://www.zapimoveis.com.br/imovel/venda-casa-4-quartos-conjunto-universitario-rio-branco-ac-300m2-id-2636388171/",-9.94636,-67.88182
0,NA,120,0,2,NA,0,0,2643145589,NA,1,0,0,0,4,0,0,0,2,475000,0,"Sao Francisco, Rio Branco - AC","casas","https://www.zapimoveis.com.br/imovel/venda-casa-4-quartos-com-piscina-sao-francisco-rio-branco-ac-120m2-id-2643145589/",-9.95844,-67.8005
NA,NA,70,NA,2,NA,NA,NA,2641762728,NA,NA,NA,NA,NA,2,NA,NA,NA,1,175000,NA,"Calafate, Rio Branco - AC","casas","https://www.zapimoveis.com.br/imovel/venda-casa-2-quartos-calafate-rio-branco-ac-70m2-id-2641762728/",-9.97769,-67.88752
NA,NA,189,NA,1,NA,NA,NA,2649429484,NA,NA,NA,NA,NA,2,NA,NA,NA,5,330000,NA,"Raimundo Melo, Rio Branco - AC","casas","https://www.zapimoveis.com.br/imovel/venda-casa-2-quartos-com-churrasqueira-raimundo-melo-rio-branco-ac-189m2-id-2649429484/",-9.94091,-67.81896
NA,NA,176,NA,3,NA,NA,NA,2644458361,NA,NA,NA,NA,NA,3,NA,NA,NA,2,650000,NA,"Conjunto Mariana, Rio Branco - AC","casas","https://www.zapimoveis.com.br/imovel/venda-casa-3-quartos-conjunto-mariana-rio-branco-ac-176m2-id-2644458361/",-9.95749,-67.85033
NA,NA,250,NA,5,NA,NA,NA,2639991599,NA,NA,NA,NA,NA,3,NA,NA,NA,5,650000,NA,"Rua da Dama da Noite - Jardim Tropical, Rio Branco - AC","casas","https://www.zapimoveis.com.br/imovel/venda-casa-3-quartos-jardim-tropical-rio-branco-ac-250m2-id-2639991599/",-9.959160107985,-67.794999863703
1,NA,616,0,4,NA,0,1,2656843842,NA,1,1,1,1,2,1,0,0,3,5e+06,1,"Rodovia BR-364, 3400 - Portal da Amazonia, Rio Branco - AC","casas_de_condominio","https://www.zapimoveis.com.br/imovel/venda-casa-de-condominio-2-quartos-mobiliado-portal-da-amazonia-rio-branco-ac-616m2-id-2656843842/",-9.978729994026,-67.849295017239
0,NA,280,0,4,NA,0,1,2641671662,NA,0,0,0,0,3,0,0,0,4,829000,0,"Rua da Liberdade, 319 - Conjunto Mariana, Rio Branco - AC","sobrados","https://www.zapimoveis.com.br/imovel/venda-sobrados-3-quartos-mobiliado-conjunto-mariana-rio-branco-ac-280m2-id-2641671662/",-9.957345887449,-67.845944589858
NA,NA,200,NA,2,NA,NA,NA,2638698175,NA,NA,NA,NA,NA,3,NA,NA,NA,4,390000,NA,"Conjunto Bela Vista, Rio Branco - AC","casas","https://www.zapimoveis.com.br/imovel/venda-casa-3-quartos-conjunto-bela-vista-rio-branco-ac-200m2-id-2638698175/",-9.97202,-67.83173
0,NA,230,1,3,NA,0,0,2599102798,NA,0,0,0,0,3,0,0,0,2,350000,0,"Xavier Maia, Rio Branco - AC","casas","https://www.zapimoveis.com.br/imovel/venda-casa-3-quartos-com-area-de-servico-xavier-maia-rio-branco-ac-230m2-id-2599102798/",-9.92942,-67.82026
NA,NA,150,NA,1,NA,NA,NA,2624490670,NA,NA,NA,NA,NA,3,NA,NA,NA,NA,3e+05,NA,"Conjunto Tucuma, Rio Branco - AC","casas","https://www.zapimoveis.com.br/imovel/venda-casa-3-quartos-conjunto-tucuma-rio-branco-ac-150m2-id-2624490670/",-9.95041,-67.86084
0,NA,176,1,2,NA,0,0,2643147716,NA,0,0,0,0,2,0,0,0,1,340000,0,"Nova Estacao, Rio Branco - AC","casas","https://www.zapimoveis.com.br/imovel/venda-casa-2-quartos-com-churrasqueira-nova-estacao-rio-branco-ac-176m2-id-2643147716/",-9.95421,-67.83117
NA,NA,162,NA,1,NA,NA,NA,2651819700,NA,NA,NA,NA,NA,3,NA,NA,NA,NA,350000,NA,"Conquista, Rio Branco - AC","casas","https://www.zapimoveis.com.br/imovel/venda-casa-3-quartos-conquista-rio-branco-ac-162m2-id-2651819700/",-9.95282,-67.83416
NA,NA,204,NA,2,NA,NA,NA,2654402253,NA,NA,NA,NA,NA,2,NA,NA,NA,NA,370000,NA,"LBA Vila Betel ll, Rio Branco - AC","casas","https://www.zapimoveis.com.br/imovel/venda-casa-2-quartos-lba-vila-betel-ll-rio-branco-ac-204m2-id-2654402253/",-9.97822,-67.84194
0,NA,114,0,3,NA,0,1,2641603954,NA,1,1,1,1,4,1,0,0,2,580000,0,"Avenida Recanto Verde, 310 - Conjunto Mariana, Rio Branco - AC","casas_de_condominio","https://www.zapimoveis.com.br/imovel/venda-casa-de-condominio-4-quartos-com-piscina-conjunto-mariana-rio-branco-ac-114m2-id-2641603954/",-9.962130011973,-67.84608499978
NA,NA,188,NA,2,NA,NA,NA,2650643878,NA,NA,NA,NA,NA,4,NA,NA,NA,2,350000,NA,"Rua Santa Inês, 94 - Bosque, Rio Branco - AC","casas","https://www.zapimoveis.com.br/imovel/venda-casa-4-quartos-bosque-rio-branco-ac-188m2-id-2650643878/",-9.957949998769,-67.810370003716
0,NA,173,1,1,NA,0,0,2549464473,NA,0,0,0,0,3,0,0,0,2,490000,0,"Rua Aderbal Brasil, 219 - Conjunto Manoel Juliao, Rio Branco - AC","casas","https://www.zapimoveis.com.br/imovel/venda-casa-3-quartos-com-area-de-servico-conjunto-manoel-juliao-rio-branco-ac-173m2-id-2549464473/",-9.956552138675,-67.833852218812
NA,NA,250,NA,5,NA,NA,NA,2635916154,NA,NA,NA,NA,NA,5,NA,NA,NA,NA,420000,NA,"Loteamento Joafra, Rio Branco - AC","casas","https://www.zapimoveis.com.br/imovel/venda-casa-5-quartos-loteamento-joafra-rio-branco-ac-250m2-id-2635916154/",-9.9453,-67.85189
NA,NA,252,NA,3,NA,NA,NA,2566850602,NA,NA,NA,NA,NA,5,NA,NA,NA,5,320000,NA,"Rua Vicente Lucena, 255 - Vila Ivonete, Rio Branco - AC","casas","https://www.zapimoveis.com.br/imovel/venda-casa-5-quartos-vila-ivonete-rio-branco-ac-252m2-id-2566850602/",-9.948200001357,-67.823070011951
NA,NA,160,NA,2,NA,NA,NA,2635916057,NA,NA,NA,NA,NA,3,NA,NA,NA,2,420000,NA,"Waldemar Maciel, Rio Branco - AC","casas","https://www.zapimoveis.com.br/imovel/venda-casa-3-quartos-waldemar-maciel-rio-branco-ac-160m2-id-2635916057/",-9.97996,-67.87009
NA,NA,250,NA,2,NA,NA,NA,2602474889,NA,NA,NA,NA,NA,3,NA,NA,NA,4,395000,NA,"Rua Campina Grande, 37 - Vila Ivonete, Rio Branco - AC","casas","https://www.zapimoveis.com.br/imovel/venda-casa-3-quartos-com-varanda-vila-ivonete-rio-branco-ac-250m2-id-2602474889/",-9.94843000078,-67.824029991321
0,NA,174,0,2,NA,0,0,2616380511,NA,1,0,0,0,3,0,0,0,NA,250000,0,"Rua Andorinha, 31 - Conjunto Ouricuri, Rio Branco - AC","casas","https://www.zapimoveis.com.br/imovel/venda-casa-3-quartos-com-piscina-conjunto-ouricuri-rio-branco-ac-174m2-id-2616380511/",-9.935179714538,-67.806684458107
NA,NA,76,NA,1,NA,NA,NA,2639822564,350,NA,NA,NA,NA,2,NA,NA,NA,1,225000,NA,"Rua Colibri, 275 - Loteamento Jaguar, Rio Branco - AC","casas","https://www.zapimoveis.com.br/imovel/venda-casa-2-quartos-com-cozinha-americana-loteamento-jaguar-rio-branco-ac-76m2-id-2639822564/",-9.93130836399,-67.806856684679
NA,NA,200,NA,2,NA,NA,NA,2652947864,NA,NA,NA,NA,NA,5,NA,NA,NA,2,290000,NA,"Loteamento Santa Luzia, Rio Branco - AC","casas","https://www.zapimoveis.com.br/imovel/venda-casa-5-quartos-loteamento-santa-luzia-rio-branco-ac-200m2-id-2652947864/",-10.056645001777,-67.790644996702
NA,NA,250,NA,2,NA,NA,NA,2624478007,NA,NA,NA,NA,NA,3,NA,NA,NA,NA,320000,NA,"Conjunto Mascarenhas de Moraes, Rio Branco - AC","casas","https://www.zapimoveis.com.br/imovel/venda-casa-3-quartos-conjunto-mascarenhas-de-moraes-rio-branco-ac-250m2-id-2624478007/",-9.97388,-67.80756
0,NA,174,0,2,NA,0,0,2651610458,NA,1,0,0,0,3,0,0,0,2,250000,0,"Rua Andorinha, 31 - Conjunto Ouricuri, Rio Branco - AC","casas","https://www.zapimoveis.com.br/imovel/venda-casa-3-quartos-com-piscina-conjunto-ouricuri-rio-branco-ac-174m2-id-2651610458/",-9.935179714538,-67.806684458107
NA,NA,243,NA,1,NA,NA,NA,2557036914,NA,NA,NA,NA,NA,3,NA,NA,NA,2,350000,NA,"Rua Abacabeira, 183 - Vila da Amizade, Rio Branco - AC","casas","https://www.zapimoveis.com.br/imovel/venda-casa-3-quartos-vila-da-amizade-rio-branco-ac-243m2-id-2557036914/",-10.028620003736,-67.803740002124
NA,NA,200,NA,3,NA,NA,NA,2647395460,NA,NA,NA,NA,NA,4,NA,NA,NA,1,168000,NA,"Mocinha Magalhaes, Rio Branco - AC","casas","https://www.zapimoveis.com.br/imovel/venda-casa-4-quartos-mocinha-magalhaes-rio-branco-ac-200m2-id-2647395460/",-9.94013,-67.85964
NA,NA,98,NA,1,NA,NA,NA,2652823593,NA,NA,NA,NA,NA,2,NA,NA,NA,1,4e+05,NA,"Rua B2, 15 - Conjunto Manoel Juliao, Rio Branco - AC","casas","https://www.zapimoveis.com.br/imovel/venda-casa-2-quartos-mobiliado-conjunto-manoel-juliao-rio-branco-ac-98m2-id-2652823593/",-9.95325,-67.83383
0,NA,250,1,4,NA,0,0,2652947865,NA,0,0,0,0,4,0,0,0,NA,330000,0,"Conjunto Tucuma, Rio Branco - AC","casas","https://www.zapimoveis.com.br/imovel/venda-casa-4-quartos-com-area-de-servico-conjunto-tucuma-rio-branco-ac-250m2-id-2652947865/",-9.95041,-67.86084
NA,NA,173,NA,4,NA,NA,NA,2565226393,NA,NA,NA,NA,NA,3,NA,NA,NA,2,430000,NA,"Rua Senira Nogueira, 210 - Vila Ivonete, Rio Branco - AC","casas","https://www.zapimoveis.com.br/imovel/venda-casa-3-quartos-vila-ivonete-rio-branco-ac-173m2-id-2565226393/",-9.951999979071,-67.821079980499
NA,NA,142,NA,5,NA,NA,NA,2612091776,NA,NA,NA,NA,NA,3,NA,NA,NA,3,550000,NA,"Rua Halley, 211 - Morada do Sol, Rio Branco - AC","sobrados","https://www.zapimoveis.com.br/imovel/venda-sobrados-3-quartos-mobiliado-morada-do-sol-rio-branco-ac-142m2-id-2612091776/",-9.962217573715,-67.790998567154
NA,NA,91,NA,1,NA,NA,NA,2648750791,NA,NA,NA,NA,NA,2,NA,NA,NA,NA,170000,NA,"Conquista, Rio Branco - AC","casas","https://www.zapimoveis.com.br/imovel/venda-casa-2-quartos-conquista-rio-branco-ac-91m2-id-2648750791/",-9.95282,-67.83416
NA,NA,165,NA,4,NA,NA,NA,2643146695,NA,NA,NA,NA,NA,4,NA,NA,NA,3,350000,NA,"7º BEC, Rio Branco - AC","casas","https://www.zapimoveis.com.br/imovel/venda-casa-4-quartos-com-frente-para-o-mar-7-bec-rio-branco-ac-165m2-id-2643146695/",-9.969460007255,-67.800095005799
NA,NA,69,NA,2,NA,NA,NA,2622095773,NA,NA,NA,NA,NA,3,NA,NA,NA,4,2e+05,NA,"Travessa Cajazeira - Sobral, Rio Branco - AC","casas","https://www.zapimoveis.com.br/imovel/venda-casa-3-quartos-sobral-rio-branco-ac-69m2-id-2622095773/",-9.993123414319,-67.825334353466
NA,NA,170,NA,1,NA,NA,NA,2656274356,NA,NA,NA,NA,NA,2,NA,NA,NA,NA,298000,NA,"Nova Esperanca, Rio Branco - AC","casas","https://www.zapimoveis.com.br/imovel/venda-casa-2-quartos-nova-esperanca-rio-branco-ac-170m2-id-2656274356/",-9.97461,-67.84142
NA,NA,75,NA,1,NA,NA,NA,2652943432,NA,NA,NA,NA,NA,2,NA,NA,NA,NA,135000,NA,"Alto Alegre 	, Rio Branco - AC","casas","https://www.zapimoveis.com.br/imovel/venda-casa-2-quartos-alto-alegre-rio-branco-ac-75m2-id-2652943432/",-9.92805,-67.826
0,NA,108,0,3,355,0,0,2589783457,NA,1,1,1,1,3,1,0,0,2,4e+05,0,"Avenida Eugênio Beco Bezerra, 100 - Sao Francisco, Rio Branco - AC","casas","https://www.zapimoveis.com.br/imovel/venda-casa-3-quartos-com-piscina-sao-francisco-rio-branco-ac-108m2-id-2589783457/",-9.957554899688,-67.800691528179
NA,NA,126,NA,2,NA,NA,NA,2657076673,NA,NA,NA,NA,NA,3,NA,NA,NA,1,330000,NA,"Rua Princesa Isabel, 244 - Estacao Experimental, Rio Branco - AC","casas","https://www.zapimoveis.com.br/imovel/venda-casa-3-quartos-estacao-experimental-rio-branco-ac-126m2-id-2657076673/",-9.963538648683,-67.835520245778
NA,NA,122,NA,2,NA,NA,NA,2611343795,NA,NA,NA,NA,NA,3,NA,NA,NA,4,480000,NA,"Avenida Ceará, 582 - Ceramica, Rio Branco - AC","casas","https://www.zapimoveis.com.br/imovel/venda-casa-3-quartos-ceramica-rio-branco-ac-122m2-id-2611343795/",-9.972379989909,-67.801500022319
NA,NA,48,NA,3,NA,NA,NA,2629537181,NA,NA,NA,NA,NA,2,NA,NA,NA,2,221000,NA,"Rua Zaire, 556 - Jorge Lavocat, Rio Branco - AC","casas","https://www.zapimoveis.com.br/imovel/venda-casa-2-quartos-jorge-lavocat-rio-branco-ac-48m2-id-2629537181/",-9.929883410471,-67.841083157643
0,NA,206,0,4,NA,0,1,2649784758,NA,1,0,0,0,3,0,0,0,2,799000,1,"Rua Luiz Gonzaga de Oliveira, 123 - Portal da Amazonia, Rio Branco - AC","casas","https://www.zapimoveis.com.br/imovel/venda-casa-3-quartos-com-piscina-portal-da-amazonia-rio-branco-ac-206m2-id-2649784758/",-9.968319753672,-67.87231302683
0,NA,225,0,2,NA,0,0,2641633156,NA,1,1,0,0,3,0,0,0,2,505000,0,"Rua Rubens Carneiro, 680 - Abrahao Alab, Rio Branco - AC","casas","https://www.zapimoveis.com.br/imovel/venda-casa-3-quartos-com-piscina-abrahao-alab-rio-branco-ac-225m2-id-2641633156/",-9.971550013857,-67.827360037634
NA,NA,162,NA,4,NA,NA,NA,2636970297,NA,NA,NA,NA,NA,4,NA,NA,NA,3,280000,NA,"Avenida Francisco Ribeiro, 346 - Loteamento Santo Afonso, Rio Branco - AC","casas","https://www.zapimoveis.com.br/imovel/venda-casa-4-quartos-loteamento-santo-afonso-rio-branco-ac-162m2-id-2636970297/",-10.01555,-67.78206
NA,NA,200,NA,2,NA,NA,NA,2656419096,NA,NA,NA,NA,NA,3,NA,NA,NA,2,620000,NA,"Travessa Cruzeiro do Sul, 12 - Base, Rio Branco - AC","casas","https://www.zapimoveis.com.br/imovel/venda-casa-3-quartos-base-rio-branco-ac-200m2-id-2656419096/",-9.993144698538,-67.806940420051
NA,NA,150,NA,2,NA,NA,NA,2654145364,NA,NA,NA,NA,NA,3,NA,NA,NA,2,230000,NA,"Loteamento Santa Helena, Rio Branco - AC","casas","https://www.zapimoveis.com.br/imovel/venda-casa-3-quartos-loteamento-santa-helena-rio-branco-ac-150m2-id-2654145364/",-10.01603,-67.79819
NA,NA,204,NA,3,NA,NA,NA,2639440372,NA,NA,NA,NA,NA,4,NA,NA,NA,2,450000,NA,"Rua Abacate, 261 - Jardim Tropical, Rio Branco - AC","casas","https://www.zapimoveis.com.br/imovel/venda-casa-4-quartos-jardim-tropical-rio-branco-ac-204m2-id-2639440372/",-9.964126590216,-67.79717180236
NA,NA,100,NA,1,NA,NA,NA,2654400692,NA,NA,NA,NA,NA,2,NA,NA,NA,2,120000,NA,"Loteamento Santo Afonso, Rio Branco - AC","casas","https://www.zapimoveis.com.br/imovel/venda-casa-2-quartos-loteamento-santo-afonso-rio-branco-ac-100m2-id-2654400692/",-10.01555,-67.78206
NA,NA,271,NA,5,NA,NA,NA,2611986099,NA,NA,NA,NA,NA,4,NA,NA,NA,3,5e+05,NA,"Rua das Palmeiras, 1 - Jardim Tropical, Rio Branco - AC","casas","https://www.zapimoveis.com.br/imovel/venda-casa-4-quartos-jardim-tropical-rio-branco-ac-271m2-id-2611986099/",-9.960959260872,-67.794862104096
0,NA,300,0,2,NA,0,1,2619335510,NA,1,0,0,0,4,1,0,0,2,350000,0,"Rua Gaivota, 10 - Conjunto Ouricuri, Rio Branco - AC","casas","https://www.zapimoveis.com.br/imovel/venda-casa-4-quartos-com-piscina-conjunto-ouricuri-rio-branco-ac-300m2-id-2619335510/",-9.935759999759,-67.807429967358
NA,NA,70,NA,1,NA,NA,NA,2655236376,NA,NA,NA,NA,NA,2,NA,NA,NA,4,155000,NA,"Calafate, Rio Branco - AC","casas","https://www.zapimoveis.com.br/imovel/venda-casa-2-quartos-calafate-rio-branco-ac-70m2-id-2655236376/",-9.97769,-67.88752
0,2,200,1,3,NA,0,0,2643477118,NA,0,0,0,0,3,0,0,0,5,5e+05,0,"Rua José Machado, 73 - Floresta Sul, Rio Branco - AC","casas","https://www.zapimoveis.com.br/imovel/venda-casa-3-quartos-com-jardim-floresta-sul-rio-branco-ac-200m2-id-2643477118/",-9.989743417144,-67.850722650707
NA,NA,184,NA,1,NA,NA,NA,2610737867,820,NA,NA,NA,NA,2,NA,NA,NA,2,295000,NA,"Rua W8, 99 - Conjunto Tucuma, Rio Branco - AC","casas","https://www.zapimoveis.com.br/imovel/venda-casa-2-quartos-conjunto-tucuma-rio-branco-ac-184m2-id-2610737867/",-9.953320003093,-67.857969993659
NA,NA,288,NA,2,NA,NA,NA,2641594523,NA,NA,NA,NA,NA,3,NA,NA,NA,3,330000,NA,"Rua Nordeste, 28 - Conjunto Bela Vista, Rio Branco - AC","casas","https://www.zapimoveis.com.br/imovel/venda-casa-3-quartos-conjunto-bela-vista-rio-branco-ac-288m2-id-2641594523/",-9.97682000975,-67.832350036051
NA,NA,148,NA,1,NA,NA,NA,2653497478,600,NA,NA,NA,NA,2,NA,NA,NA,2,350000,NA,"Rua Almirante Castro e Silva, 195 - Isaura Parente, Rio Branco - AC","casas","https://www.zapimoveis.com.br/imovel/venda-casa-2-quartos-isaura-parente-rio-branco-ac-148m2-id-2653497478/",-9.960030009951,-67.823530010797
NA,NA,150,NA,1,NA,NA,NA,2653974077,400,NA,NA,NA,NA,3,NA,NA,NA,2,265000,NA,"Rua Padre Eustáquio, 57 - Alto Alegre 	, Rio Branco - AC","casas","https://www.zapimoveis.com.br/imovel/venda-casa-3-quartos-alto-alegre-rio-branco-ac-150m2-id-2653974077/",-9.932859986989,-67.827249983245
NA,NA,200,NA,1,NA,NA,NA,2653496855,800,NA,NA,NA,NA,3,NA,NA,NA,2,320000,NA,"Rua Formosa, 871 - Nova Estacao, Rio Branco - AC","casas","https://www.zapimoveis.com.br/imovel/venda-casa-3-quartos-nova-estacao-rio-branco-ac-200m2-id-2653496855/",-9.953439990037,-67.830599978487
NA,NA,138,NA,2,NA,NA,NA,2652815604,NA,NA,NA,NA,NA,2,NA,NA,NA,2,290000,NA,"Rua Margarida, 354 - Nova Esperanca, Rio Branco - AC","casas","https://www.zapimoveis.com.br/imovel/venda-casa-2-quartos-nova-esperanca-rio-branco-ac-138m2-id-2652815604/",-9.974909983564,-67.842100033463
NA,NA,126,NA,2,NA,NA,NA,2654140896,NA,NA,NA,NA,NA,2,NA,NA,NA,1,160000,NA,"Conjunto Rui Lino, Rio Branco - AC","casas","https://www.zapimoveis.com.br/imovel/venda-casa-2-quartos-conjunto-rui-lino-rio-branco-ac-126m2-id-2654140896/",-9.94951,-67.85387
1,NA,120,1,2,7e+05,0,1,2657013554,NA,1,0,0,0,3,0,0,0,2,590000,0,"Boa Esperanca, Rio Branco - AC","casas_de_condominio","https://www.zapimoveis.com.br/imovel/venda-casa-de-condominio-3-quartos-com-piscina-boa-esperanca-rio-branco-ac-120m2-id-2657013554/",-9.9546,-67.8235
NA,NA,252,NA,2,NA,NA,NA,2656113482,NA,NA,NA,NA,NA,3,NA,NA,NA,NA,3e+05,NA,"Raimundo Melo, Rio Branco - AC","casas","https://www.zapimoveis.com.br/imovel/venda-casa-3-quartos-raimundo-melo-rio-branco-ac-252m2-id-2656113482/",-9.94091,-67.81896
1,NA,422,0,5,NA,0,1,2641834514,NA,1,1,1,1,4,1,0,0,3,2497000,0,"Estrada da Floresta, 2000 - Floresta Sul, Rio Branco - AC","casas_de_condominio","https://www.zapimoveis.com.br/imovel/venda-casa-de-condominio-4-quartos-com-piscina-floresta-sul-rio-branco-ac-422m2-id-2641834514/",-9.986972819146,-67.844681727349
1,NA,191,1,2,NA,0,1,2651168782,NA,1,1,1,1,3,1,0,0,2,1100000,1,"Rua Gênova, 50 - Jardim Europa, Rio Branco - AC","casas_de_condominio","https://www.zapimoveis.com.br/imovel/venda-casa-de-condominio-3-quartos-mobiliado-jardim-europa-rio-branco-ac-191m2-id-2651168782/",-9.970951897107,-67.84977917354
1,NA,256,0,4,NA,0,1,2645005259,NA,1,1,1,1,3,1,0,0,3,1850000,1,"Rodovia BR-364, 5000 - Distrito Industrial, Rio Branco - AC","casas_de_condominio","https://www.zapimoveis.com.br/imovel/venda-casa-de-condominio-3-quartos-mobiliado-distrito-industrial-rio-branco-ac-256m2-id-2645005259/",-9.949571696992,-67.865677506309
1,NA,445,0,6,NA,0,1,2619210800,NA,1,0,1,0,5,0,0,0,4,1800000,1,"Alameda Japim, 540 - Chacara Ipe, Rio Branco - AC","casas_de_condominio","https://www.zapimoveis.com.br/imovel/venda-casa-de-condominio-5-quartos-mobiliado-chacara-ipe-rio-branco-ac-445m2-id-2619210800/",-9.966610013492,-67.87499003479
0,NA,267,0,4,NA,0,0,2618378937,NA,1,0,0,0,3,0,0,0,NA,1548000,0,"Rodovia BR-364, QU U1 LT06 - Distrito Industrial, Rio Branco - AC","casas_de_condominio","https://www.zapimoveis.com.br/imovel/venda-casa-de-condominio-3-quartos-com-piscina-distrito-industrial-rio-branco-ac-267m2-id-2618378937/",-9.949571696992,-67.865677506309
1,NA,191,0,4,NA,0,1,2627351562,NA,1,1,1,1,3,1,0,0,4,1350000,1,"Estrada do Calafate, 360 - Calafate, Rio Branco - AC","casas_de_condominio","https://www.zapimoveis.com.br/imovel/venda-casa-de-condominio-3-quartos-com-piscina-calafate-rio-branco-ac-191m2-id-2627351562/",-9.979098947893,-67.889778663385
1,NA,417,0,4,NA,0,1,2656841635,NA,1,1,1,1,3,1,0,0,3,3600000,1,"Rodovia BR-364, 3900 - Portal da Amazonia, Rio Branco - AC","casas_de_condominio","https://www.zapimoveis.com.br/imovel/venda-casa-de-condominio-3-quartos-mobiliado-portal-da-amazonia-rio-branco-ac-417m2-id-2656841635/",-9.978729994026,-67.849295017239
1,NA,176,0,2,NA,0,1,2619208086,NA,1,1,1,1,3,1,0,1,2,880000,0,"Avenida Ceará, 2373 - Dom Giocondo, Rio Branco - AC","casas_de_condominio","https://www.zapimoveis.com.br/imovel/venda-casa-de-condominio-3-quartos-com-piscina-dom-giocondo-rio-branco-ac-176m2-id-2619208086/",-9.970259997049,-67.817789999683
0,NA,204,0,4,NA,0,0,2635915962,NA,1,0,0,0,4,0,0,0,2,2350000,0,"Portal da Amazonia, Rio Branco - AC","casas_de_condominio","https://www.zapimoveis.com.br/imovel/venda-casa-de-condominio-4-quartos-com-piscina-portal-da-amazonia-rio-branco-ac-204m2-id-2635915962/",-9.97321,-67.86036
0,NA,143,1,1,NA,0,0,2636800662,NA,0,0,0,0,3,0,0,0,5,250000,0,"Pista, Rio Branco - AC","casas_de_condominio","https://www.zapimoveis.com.br/imovel/venda-casa-de-condominio-3-quartos-pista-rio-branco-ac-143m2-id-2636800662/",-9.98438,-67.82396
NA,NA,420,NA,4,NA,NA,NA,2640755059,NA,NA,NA,NA,NA,5,NA,NA,NA,NA,1e+06,NA,"Rua Isaura Parente, 1536 - Isaura Parente, Rio Branco - AC","casas","https://www.zapimoveis.com.br/imovel/venda-casa-5-quartos-com-ar-condicionado-isaura-parente-rio-branco-ac-420m2-id-2640755059/",-9.963720017096,-67.828090017581
NA,NA,500,NA,4,NA,NA,NA,2640093054,NA,NA,NA,NA,NA,8,NA,NA,NA,7,2200000,NA,"Vilage Wilde Maciel, Rio Branco - AC","casas","https://www.zapimoveis.com.br/imovel/venda-casa-8-quartos-vilage-wilde-maciel-rio-branco-ac-500m2-id-2640093054/",-9.97388,-67.80756
0,NA,305,0,5,NA,0,1,2619102802,NA,1,0,0,0,4,0,0,0,5,1200000,0,"Alameda Itália, 15 - Jardim Europa, Rio Branco - AC","sobrados","https://www.zapimoveis.com.br/imovel/venda-sobrados-4-quartos-com-piscina-jardim-europa-rio-branco-ac-305m2-id-2619102802/",-9.968899991349,-67.846280004758
0,NA,200,0,4,NA,0,0,2630737658,NA,1,0,0,0,4,0,0,0,2,8e+05,0,"Rua Alberto Assad - Vila Ivonete, Rio Branco - AC","sobrados","https://www.zapimoveis.com.br/imovel/venda-sobrados-4-quartos-com-piscina-vila-ivonete-rio-branco-ac-200m2-id-2630737658/",-9.950794131013,-67.821967757166
NA,NA,335,NA,3,NA,NA,NA,2655874565,NA,NA,NA,NA,NA,2,NA,NA,NA,6,1100000,NA,"Conjunto Tangara, Rio Branco - AC","casas","https://www.zapimoveis.com.br/imovel/venda-casa-2-quartos-com-escritorio-conjunto-tangara-rio-branco-ac-335m2-id-2655874565/",-9.96532,-67.83924
NA,1,170,NA,2,NA,NA,NA,2654812464,NA,NA,NA,NA,NA,2,NA,NA,NA,1,587000,NA,"Rua Barbosa Lima, 778 - Base, Rio Branco - AC","casas","https://www.zapimoveis.com.br/imovel/venda-casa-2-quartos-com-ar-condicionado-base-rio-branco-ac-170m2-id-2654812464/",-9.980189547103,-67.810640492178
0,NA,143,1,4,NA,0,0,2635674599,NA,0,0,0,0,2,0,0,0,2,520000,0,"Conjunto Tucuma, Rio Branco - AC","casas","https://www.zapimoveis.com.br/imovel/venda-casa-2-quartos-com-area-de-servico-conjunto-tucuma-rio-branco-ac-143m2-id-2635674599/",-9.95041,-67.86084
NA,NA,215,NA,3,NA,NA,NA,2641832510,NA,NA,NA,NA,NA,5,NA,NA,NA,2,6e+05,NA,"Rua Fausto Robalo, 49 - Centro, Rio Branco - AC","casas","https://www.zapimoveis.com.br/imovel/venda-casa-5-quartos-com-churrasqueira-centro-rio-branco-ac-215m2-id-2641832510/",-9.971759980531,-67.809429973275
NA,NA,225,NA,2,NA,NA,NA,2652947868,NA,NA,NA,NA,NA,2,NA,NA,NA,2,365000,NA,"Sao Francisco, Rio Branco - AC","casas","https://www.zapimoveis.com.br/imovel/venda-casa-2-quartos-com-ar-condicionado-sao-francisco-rio-branco-ac-225m2-id-2652947868/",-9.95844,-67.8005
NA,NA,200,NA,2,NA,NA,NA,2635915862,NA,NA,NA,NA,NA,2,NA,NA,NA,4,315000,NA,"Conjunto Bela Vista, Rio Branco - AC","casas","https://www.zapimoveis.com.br/imovel/venda-casa-2-quartos-com-escritorio-conjunto-bela-vista-rio-branco-ac-200m2-id-2635915862/",-9.97202,-67.83173
NA,NA,173,NA,2,NA,NA,NA,2635394685,NA,NA,NA,NA,NA,3,NA,NA,NA,2,430000,NA,"Rua Senira Nogueira, 210 - Vila Ivonete, Rio Branco - AC","casas","https://www.zapimoveis.com.br/imovel/venda-casa-3-quartos-vila-ivonete-rio-branco-ac-173m2-id-2635394685/",-9.951999979071,-67.821079980499
0,NA,275,0,3,NA,0,1,2619116698,NA,1,0,1,0,5,1,0,0,3,850000,1,"Rua Jaqueline, 129 - Loteamento dos Engenheiros, Rio Branco - AC","casas","https://www.zapimoveis.com.br/imovel/venda-casa-5-quartos-com-piscina-loteamento-dos-engenheiros-rio-branco-ac-275m2-id-2619116698/",-9.961510002595,-67.843020031156
NA,NA,223,NA,3,NA,NA,NA,2635916453,NA,NA,NA,NA,NA,3,NA,NA,NA,NA,1370000,NA,"Portal da Amazonia, Rio Branco - AC","casas","https://www.zapimoveis.com.br/imovel/venda-casa-3-quartos-com-churrasqueira-portal-da-amazonia-rio-branco-ac-223m2-id-2635916453/",-9.97321,-67.86036
0,NA,450,1,3,NA,0,0,2646777363,NA,0,0,0,0,4,0,0,0,3,850000,0,"Conjunto Paulo Cesar de Oliveira, Rio Branco - AC","casas","https://www.zapimoveis.com.br/imovel/venda-casa-4-quartos-com-churrasqueira-conjunto-paulo-cesar-de-oliveira-rio-branco-ac-450m2-id-2646777363/",-9.97388,-67.80756
NA,NA,143,NA,2,NA,NA,NA,2635394684,NA,NA,NA,NA,NA,1,NA,NA,NA,NA,250000,NA,"Rua Conde de Bobadela, 34 - Sobral, Rio Branco - AC","casas","https://www.zapimoveis.com.br/imovel/venda-casa-1-quarto-sobral-rio-branco-ac-143m2-id-2635394684/",-9.964780013526,-67.851280019549
0,NA,175,1,2,NA,0,0,2654402254,NA,0,0,0,0,3,0,0,0,7,585000,0,"Jardim America, Rio Branco - AC","casas","https://www.zapimoveis.com.br/imovel/venda-casa-3-quartos-com-cozinha-jardim-america-rio-branco-ac-175m2-id-2654402254/",-9.95166,-67.826
0,NA,413,0,2,NA,0,0,2619103140,NA,0,0,0,0,4,0,0,0,3,1e+06,1,"Rua Vicente Lucena, 94 - Vila Ivonete, Rio Branco - AC","sobrados","https://www.zapimoveis.com.br/imovel/venda-sobrados-4-quartos-mobiliado-vila-ivonete-rio-branco-ac-413m2-id-2619103140/",-9.947820007777,-67.821569986558
NA,NA,130,NA,1,NA,NA,NA,2653180015,NA,NA,NA,NA,NA,3,NA,NA,NA,NA,378000,NA,"Conjunto Universitario, Rio Branco - AC","casas","https://www.zapimoveis.com.br/imovel/venda-casa-3-quartos-com-churrasqueira-conjunto-universitario-rio-branco-ac-130m2-id-2653180015/",-9.94636,-67.88182
NA,NA,150,NA,1,NA,NA,NA,2647592598,NA,NA,NA,NA,NA,2,NA,NA,NA,NA,6e+05,NA,"Jardim Primavera, Rio Branco - AC","casas","https://www.zapimoveis.com.br/imovel/venda-casa-2-quartos-jardim-primavera-rio-branco-ac-150m2-id-2647592598/",-9.96078,-67.85518
NA,NA,176,NA,3,NA,NA,NA,2644457965,NA,NA,NA,NA,NA,3,NA,NA,NA,2,650000,NA,"Conjunto Mariana, Rio Branco - AC","casas","https://www.zapimoveis.com.br/imovel/venda-casa-3-quartos-conjunto-mariana-rio-branco-ac-176m2-id-2644457965/",-9.95749,-67.85033
NA,1,150,NA,5,NA,NA,NA,2637014602,NA,NA,NA,NA,NA,3,NA,NA,NA,3,750000,NA,"Rua Amazonas, 770 - Capoeira, Rio Branco - AC","casas","https://www.zapimoveis.com.br/imovel/venda-casa-3-quartos-capoeira-rio-branco-ac-150m2-id-2637014602/",-9.967500003971,-67.804430000393
0,NA,206,0,4,NA,0,0,2653163668,NA,1,0,0,0,3,0,0,0,2,799000,1,"Rua Silvio Antônio Araújo de Oliveira, 03 - Portal da Amazonia, Rio Branco - AC","casas","https://www.zapimoveis.com.br/imovel/venda-casa-3-quartos-com-piscina-portal-da-amazonia-rio-branco-ac-206m2-id-2653163668/",-9.968292503415,-67.87486489688
NA,NA,100,NA,2,536,NA,NA,2639376977,NA,NA,NA,NA,NA,3,NA,NA,NA,NA,499000,NA,"Conjunto Mariana, Rio Branco - AC","casas","https://www.zapimoveis.com.br/imovel/venda-casa-3-quartos-conjunto-mariana-rio-branco-ac-100m2-id-2639376977/",-9.95749,-67.85033
NA,NA,240,NA,1,NA,NA,NA,2647800982,NA,NA,NA,NA,NA,3,NA,NA,NA,2,8e+05,NA,"Jardim de Alah, Rio Branco - AC","casas","https://www.zapimoveis.com.br/imovel/venda-casa-3-quartos-jardim-de-alah-rio-branco-ac-240m2-id-2647800982/",-9.96373,-67.84452
1,NA,315,1,4,NA,1,1,2619189354,NA,1,0,1,1,3,1,1,0,4,2800000,1,"Estrada da Invernada, 986 - Morada do Sol, Rio Branco - AC","apartamentos","https://www.zapimoveis.com.br/imovel/venda-apartamento-3-quartos-com-piscina-morada-do-sol-rio-branco-ac-315m2-id-2619189354/",-9.967539985649,-67.799360038619
1,NA,300,0,6,NA,1,1,2619208658,NA,1,1,1,0,5,1,0,1,4,2200000,0,"Rua Severina Maria de Sousa e Silva, 161 - Jardim Manoel Juliao, Rio Branco - AC","apartamentos","https://www.zapimoveis.com.br/imovel/venda-apartamento-5-quartos-mobiliado-jardim-manoel-juliao-rio-branco-ac-300m2-id-2619208658/",-9.957292270447,-67.824093366504
1,5,200,0,5,1700,1,1,2655672013,NA,1,1,1,0,3,1,0,0,3,1500000,1,"Rua Camburiú, 253 - Vilage Wilde Maciel, Rio Branco - AC","apartamentos","https://www.zapimoveis.com.br/imovel/venda-apartamento-3-quartos-com-piscina-vilage-wilde-maciel-rio-branco-ac-200m2-id-2655672013/",-9.956730012762,-67.820710003293
0,6,67,0,2,NA,0,0,2612900004,NA,1,0,0,0,2,0,0,0,1,420000,1,"Rua São Mateus, 0 - Floresta Sul, Rio Branco - AC","apartamentos","https://www.zapimoveis.com.br/imovel/venda-apartamento-2-quartos-com-piscina-floresta-sul-rio-branco-ac-67m2-id-2612900004/",-9.972959996654,-67.846100003387
0,7,81,1,1,NA,1,0,2651089857,NA,1,0,0,1,3,0,0,0,2,550000,1,"Nova Esperanca, Rio Branco - AC","apartamentos","https://www.zapimoveis.com.br/imovel/venda-apartamento-3-quartos-com-piscina-nova-esperanca-rio-branco-ac-81m2-id-2651089857/",-9.97461,-67.84142
0,NA,64,0,1,NA,0,1,2636388471,NA,1,1,0,1,2,0,0,0,1,360000,0,"Centro, Rio Branco - AC","apartamentos","https://www.zapimoveis.com.br/imovel/venda-apartamento-2-quartos-com-piscina-centro-rio-branco-ac-64m2-id-2636388471/",-9.97107,-67.81032
0,NA,50,0,1,NA,1,0,2638441717,NA,1,0,0,1,2,0,0,0,NA,430000,0,"Floresta Sul, Rio Branco - AC","apartamentos","https://www.zapimoveis.com.br/imovel/venda-apartamento-2-quartos-com-piscina-floresta-sul-rio-branco-ac-50m2-id-2638441717/",-9.99108,-67.84832
NA,NA,66,NA,1,NA,NA,NA,2638906930,NA,NA,NA,NA,NA,3,NA,NA,NA,NA,458000,NA,"Floresta Sul, Rio Branco - AC","apartamentos","https://www.zapimoveis.com.br/imovel/venda-apartamento-3-quartos-floresta-sul-rio-branco-ac-66m2-id-2638906930/",-9.99108,-67.84832
0,20,78,0,2,NA,1,0,2652947867,NA,1,0,0,1,3,0,0,0,2,460000,1,"Residencial Petropolis, Rio Branco - AC","apartamentos","https://www.zapimoveis.com.br/imovel/venda-apartamento-3-quartos-com-piscina-residencial-petropolis-rio-branco-ac-78m2-id-2652947867/",-9.9629,-67.84422
0,12,78,1,2,700,1,0,2635916156,NA,1,0,0,1,3,0,0,0,2,520000,0,"Residencial Petropolis, Rio Branco - AC","apartamentos","https://www.zapimoveis.com.br/imovel/venda-apartamento-3-quartos-com-piscina-residencial-petropolis-rio-branco-ac-78m2-id-2635916156/",-9.9629,-67.84422
0,8,68,1,2,NA,1,0,2575808387,NA,1,0,0,1,2,0,0,0,NA,414600,1,"Nova Esperanca, Rio Branco - AC","apartamentos","https://www.zapimoveis.com.br/imovel/venda-apartamento-2-quartos-com-piscina-nova-esperanca-rio-branco-ac-68m2-id-2575808387/",-9.97461,-67.84142
0,NA,49,0,1,NA,1,0,2648750790,NA,0,0,0,0,2,0,0,0,1,185000,0,"Loteamento dos Engenheiros, Rio Branco - AC","apartamentos","https://www.zapimoveis.com.br/imovel/venda-apartamento-2-quartos-com-elevador-loteamento-dos-engenheiros-rio-branco-ac-49m2-id-2648750790/",-9.9627,-67.84076
NA,NA,66,NA,1,NA,NA,NA,2631548177,NA,NA,NA,NA,NA,3,NA,NA,NA,2,350000,NA,"Floresta Sul, Rio Branco - AC","apartamentos","https://www.zapimoveis.com.br/imovel/venda-apartamento-3-quartos-floresta-sul-rio-branco-ac-66m2-id-2631548177/",-9.99108,-67.84832
1,NA,110,0,2,NA,1,1,2619200981,NA,1,1,1,0,3,1,0,1,2,550000,1,"Rua Major Ladislau Ferreira, 1042 - 7 BEC, Rio Branco - AC","apartamentos","https://www.zapimoveis.com.br/imovel/venda-apartamento-3-quartos-mobiliado-7-bec-rio-branco-ac-110m2-id-2619200981/",-9.970489996472,-67.827490040952
0,6,102,0,2,780,1,1,2641617423,NA,1,1,1,1,3,1,0,0,2,550000,1,"Estrada da Invernada, 563 - Morada do Sol, Rio Branco - AC","apartamentos","https://www.zapimoveis.com.br/imovel/venda-apartamento-3-quartos-com-piscina-morada-do-sol-rio-branco-ac-102m2-id-2641617423/",-9.965375002923,-67.791849979103
0,12,77,1,1,700,1,0,2635915961,80,1,0,0,1,3,0,0,0,2,479000,0,"Residencial Petropolis, Rio Branco - AC","apartamentos","https://www.zapimoveis.com.br/imovel/venda-apartamento-3-quartos-com-piscina-residencial-petropolis-rio-branco-ac-77m2-id-2635915961/",-9.9629,-67.84422
NA,NA,53,NA,1,NA,NA,NA,2648750148,NA,NA,NA,NA,NA,2,NA,NA,NA,1,240000,NA,"Alto Alegre 	, Rio Branco - AC","apartamentos","https://www.zapimoveis.com.br/imovel/venda-apartamento-2-quartos-com-frente-para-o-mar-alto-alegre-rio-branco-ac-53m2-id-2648750148/",-9.92805,-67.826
0,15,63,0,2,NA,1,1,2635915960,NA,0,1,0,0,2,0,0,0,NA,365000,0,"Centro, Rio Branco - AC","apartamentos","https://www.zapimoveis.com.br/imovel/venda-apartamento-2-quartos-com-churrasqueira-centro-rio-branco-ac-63m2-id-2635915960/",-9.97107,-67.81032
NA,3,51,NA,1,NA,NA,NA,2651188558,NA,NA,NA,NA,NA,2,NA,NA,NA,1,110000,NA,"Rua Maria José Domingos, 01 - Calafate, Rio Branco - AC","apartamentos","https://www.zapimoveis.com.br/imovel/venda-apartamento-2-quartos-calafate-rio-branco-ac-51m2-id-2651188558/",-9.976350298309,-67.883300513486
NA,NA,72,NA,1,NA,NA,NA,2648573185,NA,NA,NA,NA,NA,2,NA,NA,NA,1,220000,NA,"Jardim Europa, Rio Branco - AC","apartamentos","https://www.zapimoveis.com.br/imovel/venda-apartamento-2-quartos-jardim-europa-rio-branco-ac-72m2-id-2648573185/",-9.97121,-67.8514
NA,NA,48,NA,1,NA,NA,NA,2617193299,NA,NA,NA,NA,NA,2,NA,NA,NA,1,120000,NA,"Rua Aderbal Brasil, 124 - Conjunto Manoel Juliao, Rio Branco - AC","apartamentos","https://www.zapimoveis.com.br/imovel/venda-apartamento-2-quartos-conjunto-manoel-juliao-rio-branco-ac-48m2-id-2617193299/",-9.957841340274,-67.833818087925
0,11,111,0,3,800,1,1,2553060763,NA,1,0,1,0,3,1,0,0,2,580000,0,"Rua Major Ladislau Ferreira, 1042 - 7 BEC, Rio Branco - AC","apartamentos","https://www.zapimoveis.com.br/imovel/venda-apartamento-3-quartos-mobiliado-7-bec-rio-branco-ac-111m2-id-2553060763/",-9.970489996472,-67.827490040952
NA,NA,63,NA,2,NA,NA,NA,2635475820,NA,NA,NA,NA,NA,3,NA,NA,NA,1,250000,NA,"Floresta Sul, Rio Branco - AC","apartamentos","https://www.zapimoveis.com.br/imovel/venda-apartamento-3-quartos-floresta-sul-rio-branco-ac-63m2-id-2635475820/",-9.99108,-67.84832
0,3,90,1,2,NA,0,1,2651022172,NA,0,1,1,0,2,1,0,0,1,415000,1,"Alameda Madri, 124 - Jardim Europa, Rio Branco - AC","apartamentos","https://www.zapimoveis.com.br/imovel/venda-apartamento-2-quartos-mobiliado-jardim-europa-rio-branco-ac-90m2-id-2651022172/",-9.969896932111,-67.850296803365
0,NA,110,0,2,800,0,0,2619207109,NA,0,0,1,0,3,0,0,0,NA,580000,1,"Rua Major Ladislau Ferreira, 1042 - 7 BEC, Rio Branco - AC","apartamentos","https://www.zapimoveis.com.br/imovel/venda-apartamento-3-quartos-mobiliado-7-bec-rio-branco-ac-110m2-id-2619207109/",-9.970489996472,-67.827490040952
NA,NA,53,NA,1,NA,NA,NA,2631544824,NA,NA,NA,NA,NA,2,NA,NA,NA,NA,250000,NA,"Floresta Sul, Rio Branco - AC","apartamentos","https://www.zapimoveis.com.br/imovel/venda-apartamento-2-quartos-floresta-sul-rio-branco-ac-53m2-id-2631544824/",-9.99108,-67.84832
0,NA,75,1,1,NA,0,0,2649430086,NA,0,0,0,1,3,0,0,0,1,290000,1,"Floresta Sul, Rio Branco - AC","apartamentos","https://www.zapimoveis.com.br/imovel/venda-apartamento-3-quartos-com-cozinha-floresta-sul-rio-branco-ac-75m2-id-2649430086/",-9.99108,-67.84832
NA,NA,49,NA,1,NA,NA,NA,2641762727,NA,NA,NA,NA,NA,2,NA,NA,NA,1,205000,NA,"Floresta Sul, Rio Branco - AC","apartamentos","https://www.zapimoveis.com.br/imovel/venda-apartamento-2-quartos-floresta-sul-rio-branco-ac-49m2-id-2641762727/",-9.99108,-67.84832
NA,NA,49,NA,1,NA,NA,NA,2641296833,NA,NA,NA,NA,NA,2,NA,NA,NA,1,205000,NA,"Floresta Sul, Rio Branco - AC","apartamentos","https://www.zapimoveis.com.br/imovel/venda-apartamento-2-quartos-floresta-sul-rio-branco-ac-49m2-id-2641296833/",-9.99108,-67.84832
0,8,68,1,2,NA,1,0,2627766602,NA,1,0,0,1,2,0,0,0,2,460000,1,"Nova Esperanca, Rio Branco - AC","apartamentos","https://www.zapimoveis.com.br/imovel/venda-apartamento-2-quartos-com-piscina-nova-esperanca-rio-branco-ac-68m2-id-2627766602/",-9.97461,-67.84142
0,4,53,0,1,NA,0,1,2613215702,NA,0,1,1,0,2,1,0,0,1,230000,0,"Estrada de Porto Acre, 1528 - Alto Alegre 	, Rio Branco - AC","apartamentos","https://www.zapimoveis.com.br/imovel/venda-apartamento-2-quartos-com-churrasqueira-alto-alegre-rio-branco-ac-53m2-id-2613215702/",-9.916298611881,-67.820917555821
1,NA,67,0,2,NA,1,1,2618825996,NA,1,1,1,1,2,1,0,0,1,420000,1,"Rua São Mateus, 1 - Nova Esperanca, Rio Branco - AC","apartamentos","https://www.zapimoveis.com.br/imovel/venda-apartamento-2-quartos-com-piscina-nova-esperanca-rio-branco-ac-67m2-id-2618825996/",-9.97582348529,-67.846443236284
0,3,92,0,1,500,0,0,2639161258,NA,0,1,0,0,3,0,0,0,1,440000,0,"Rua Jambo, 40 - Morada do Sol, Rio Branco - AC","apartamentos","https://www.zapimoveis.com.br/imovel/venda-apartamento-3-quartos-com-playground-morada-do-sol-rio-branco-ac-92m2-id-2639161258/",-9.966710009597,-67.798020023759
NA,NA,78,NA,1,NA,NA,NA,2624490727,NA,NA,NA,NA,NA,2,NA,NA,NA,NA,350000,NA,"Portal da Amazonia, Rio Branco - AC","apartamentos","https://www.zapimoveis.com.br/imovel/venda-apartamento-2-quartos-portal-da-amazonia-rio-branco-ac-78m2-id-2624490727/",-9.97321,-67.86036
NA,NA,81,NA,1,NA,NA,NA,2635915861,NA,NA,NA,NA,NA,2,NA,NA,NA,1,285000,NA,"Bosque, Rio Branco - AC","apartamentos","https://www.zapimoveis.com.br/imovel/venda-apartamento-2-quartos-bosque-rio-branco-ac-81m2-id-2635915861/",-9.96263,-67.8149
1,7,80,0,2,NA,1,1,2652819502,NA,1,1,1,0,3,0,0,0,2,550000,1,"Rua São Mateus, 100 - LBA Vila Betel ll, Rio Branco - AC","apartamentos","https://www.zapimoveis.com.br/imovel/venda-apartamento-3-quartos-mobiliado-lba-vila-betel-ll-rio-branco-ac-80m2-id-2652819502/",-9.963361804011,-67.826269509927
NA,NA,250,NA,NA,NA,NA,NA,2653344271,NA,NA,NA,NA,NA,NA,NA,NA,NA,NA,95000,NA,"Rua Padre Cícero, SN - Conquista, Rio Branco - AC","terrenos_lotes_e_condominios","https://www.zapimoveis.com.br/imovel/venda-terreno-lote-condominio-conquista-rio-branco-ac-250m2-id-2653344271/",-9.951030004281,-67.831204984258
NA,NA,434,NA,NA,NA,NA,NA,2501981174,NA,NA,NA,NA,NA,NA,NA,NA,NA,NA,190000,NA,"Rua Ubatuba, 233 - Vilage Wilde Maciel, Rio Branco - AC","terrenos_lotes_e_condominios","https://www.zapimoveis.com.br/imovel/venda-terreno-lote-condominio-vilage-wilde-maciel-rio-branco-ac-434m2-id-2501981174/",-9.954699999632,-67.821090038782
NA,NA,193,NA,NA,NA,NA,NA,2650509053,800,NA,NA,NA,NA,NA,NA,NA,NA,NA,75000,NA,"Rua José Maria Rios, 423 - Santa Quiteria, Rio Branco - AC","terrenos_lotes_e_condominios","https://www.zapimoveis.com.br/imovel/venda-terreno-lote-condominio-santa-quiteria-rio-branco-ac-193m2-id-2650509053/",-9.950310019753,-67.827319972137
NA,NA,NA,NA,NA,NA,NA,NA,2610677324,NA,NA,NA,NA,NA,NA,NA,NA,NA,NA,35000,NA,"Rua Roxinol, SN - Loteamento Jaguar, Rio Branco - AC","terrenos_lotes_e_condominios","https://www.zapimoveis.com.br/imovel/venda-terreno-lote-condominio-loteamento-jaguar-rio-branco-ac-id-2610677324/",-9.93041070782,-67.808174077247
NA,NA,485,NA,NA,NA,NA,NA,2655329181,823,NA,NA,NA,NA,NA,NA,NA,NA,NA,3e+05,NA,"Beco Carambola, 201 - Bosque, Rio Branco - AC","terrenos_lotes_e_condominios","https://www.zapimoveis.com.br/imovel/venda-terreno-lote-condominio-bosque-rio-branco-ac-485m2-id-2655329181/",-9.92548255794,-67.832304446115
NA,NA,1040,NA,NA,NA,NA,NA,2612640874,NA,NA,NA,NA,NA,NA,NA,NA,NA,NA,130000,NA,"Rua Matilde Lemos de Moura Leite - Floresta Sul, Rio Branco - AC","terrenos_lotes_e_condominios","https://www.zapimoveis.com.br/imovel/venda-terreno-lote-condominio-floresta-sul-rio-branco-ac-1040m2-id-2612640874/",-9.968269123423,-67.87386980668
NA,NA,302,NA,NA,NA,NA,NA,2613361007,NA,NA,NA,NA,NA,NA,NA,NA,NA,NA,230000,NA,"Rua Fontenele de Castro - Estacao Experimental, Rio Branco - AC","terrenos_lotes_e_condominios","https://www.zapimoveis.com.br/imovel/venda-terreno-lote-condominio-estacao-experimental-rio-branco-ac-302m2-id-2613361007/",-9.963789523765,-67.833713774838
NA,NA,300,NA,NA,NA,NA,NA,2635475821,NA,NA,NA,NA,NA,NA,NA,NA,NA,NA,55000,NA,"Loteamento Jaguar, Rio Branco - AC","terrenos_lotes_e_condominios","https://www.zapimoveis.com.br/imovel/venda-terreno-lote-condominio-loteamento-jaguar-rio-branco-ac-300m2-id-2635475821/",-9.93145,-67.81023
NA,NA,360,NA,NA,NA,NA,NA,2644457966,NA,NA,NA,NA,NA,NA,NA,NA,NA,NA,250000,NA,"Conjunto Mariana, Rio Branco - AC","terrenos_lotes_e_condominios","https://www.zapimoveis.com.br/imovel/venda-terreno-lote-condominio-conjunto-mariana-rio-branco-ac-360m2-id-2644457966/",-9.95749,-67.85033
NA,NA,520000,NA,NA,NA,NA,NA,2645145060,NA,NA,NA,NA,NA,NA,NA,NA,NA,NA,14650000,NA,"Vila Albert Sampaio, Rio Branco - AC","terrenos_lotes_e_condominios","https://www.zapimoveis.com.br/imovel/venda-terreno-lote-condominio-vila-albert-sampaio-rio-branco-ac-520000m2-id-2645145060/",-10.017199995936,-67.698729968489
NA,NA,NA,NA,NA,NA,NA,NA,2655328898,NA,NA,NA,NA,NA,NA,NA,NA,NA,NA,210000,NA,"Rua Ubatuba, 02 - Vilage Wilde Maciel, Rio Branco - AC","terrenos_lotes_e_condominios","https://www.zapimoveis.com.br/imovel/venda-terreno-lote-condominio-vilage-wilde-maciel-rio-branco-ac-id-2655328898/",-9.95427722084,-67.820455247104
NA,NA,275,NA,NA,NA,NA,NA,2619184508,NA,NA,NA,NA,NA,NA,NA,NA,NA,3,120000,NA,"Avenida Norte, 291 - Conjunto Tucuma, Rio Branco - AC","terrenos_lotes_e_condominios","https://www.zapimoveis.com.br/imovel/venda-terreno-lote-condominio-conjunto-tucuma-rio-branco-ac-275m2-id-2619184508/",-9.946759990392,-67.861029975052
NA,NA,360,NA,NA,NA,NA,NA,2644457962,NA,NA,NA,NA,NA,NA,NA,NA,NA,NA,250000,NA,"Conjunto Mariana, Rio Branco - AC","terrenos_lotes_e_condominios","https://www.zapimoveis.com.br/imovel/venda-terreno-lote-condominio-conjunto-mariana-rio-branco-ac-360m2-id-2644457962/",-9.95749,-67.85033
0,NA,250,1,NA,NA,0,0,2651145270,NA,0,0,0,0,NA,0,0,0,NA,91000,0,"Rodovia BR 364, SN - Vila Custodio Freire, Rio Branco - AC","terrenos_lotes_e_condominios","https://www.zapimoveis.com.br/imovel/venda-terreno-lote-condominio-vila-custodio-freire-rio-branco-ac-250m2-id-2651145270/",-9.910971207016,-67.889820331166
NA,NA,2500,NA,NA,NA,NA,NA,2654255290,NA,NA,NA,NA,NA,NA,NA,NA,NA,NA,120000,NA,"Avenida Principal, Lote 01 Quadra 04 - Santa Ines, Rio Branco - AC","terrenos_lotes_e_condominios","https://www.zapimoveis.com.br/imovel/venda-terreno-lote-condominio-santa-ines-rio-branco-ac-2500m2-id-2654255290/",-10.014693757374,-67.797380771165
NA,NA,300,NA,NA,NA,NA,NA,2656274068,NA,NA,NA,NA,NA,NA,NA,NA,NA,NA,250000,NA,"Nova Esperanca, Rio Branco - AC","terrenos_lotes_e_condominios","https://www.zapimoveis.com.br/imovel/venda-terreno-lote-condominio-nova-esperanca-rio-branco-ac-300m2-id-2656274068/",-9.97461,-67.84142
NA,NA,NA,NA,NA,NA,NA,NA,2622639956,NA,NA,NA,NA,NA,NA,NA,NA,NA,NA,1800000,NA,"Estrada da Invernada - Morada do Sol, Rio Branco - AC","terrenos_lotes_e_condominios","https://www.zapimoveis.com.br/imovel/venda-terreno-lote-condominio-morada-do-sol-rio-branco-ac-id-2622639956/",-9.965375002923,-67.791849979103
0,NA,360,0,NA,481,0,1,2655668262,2400,1,1,1,1,NA,1,0,0,NA,230000,0,"Estrada do Calafate, 1 - Portal da Amazonia, Rio Branco - AC","terrenos_lotes_e_condominios","https://www.zapimoveis.com.br/imovel/venda-terreno-lote-condominio-com-piscina-portal-da-amazonia-rio-branco-ac-360m2-id-2655668262/",-9.977269992222,-67.873399987758
1,NA,450,0,NA,NA,0,1,2654789197,NA,1,1,1,1,NA,1,0,0,NA,330000,0,"Estrada do Calafate, SN - Calafate, Rio Branco - AC","terrenos_lotes_e_condominios","https://www.zapimoveis.com.br/imovel/venda-terreno-lote-condominio-com-piscina-calafate-rio-branco-ac-450m2-id-2654789197/",-9.979098947893,-67.889778663385
1,NA,430,0,NA,NA,0,1,2552680952,NA,1,1,1,1,NA,0,0,0,NA,350000,0,"Rodovia BR-364, 10 - Portal da Amazonia, Rio Branco - AC","terrenos_lotes_e_condominios","https://www.zapimoveis.com.br/imovel/venda-terreno-lote-condominio-com-piscina-portal-da-amazonia-rio-branco-ac-430m2-id-2552680952/",-9.978729994026,-67.849295017239
NA,NA,138,NA,1,NA,NA,NA,2619213199,NA,NA,NA,NA,NA,1,NA,NA,NA,2,858528,NA,"Avenida Getúlio Vargas, 2134 - Bosque, Rio Branco - AC","terrenos_lotes_e_condominios","https://www.zapimoveis.com.br/imovel/venda-terreno-lote-condominio-1-quarto-bosque-rio-branco-ac-138m2-id-2619213199/",-9.959119986724,-67.816330039788
NA,NA,260,NA,NA,NA,NA,NA,2644457964,NA,NA,NA,NA,NA,NA,NA,NA,NA,NA,135000,NA,"Portal da Amazonia, Rio Branco - AC","terrenos_lotes_e_condominios","https://www.zapimoveis.com.br/imovel/venda-terreno-lote-condominio-portal-da-amazonia-rio-branco-ac-260m2-id-2644457964/",-9.97321,-67.86036
NA,NA,1680,NA,NA,NA,NA,NA,2619204101,NA,NA,NA,NA,NA,NA,NA,NA,NA,NA,8e+05,NA,"Rua Alexandre Farhat, 71 - Bosque, Rio Branco - AC","terrenos_lotes_e_condominios","https://www.zapimoveis.com.br/imovel/venda-terreno-lote-condominio-bosque-rio-branco-ac-1680m2-id-2619204101/",-9.967179982908,-67.81069002478
NA,NA,936,NA,NA,NA,NA,NA,2619199396,NA,NA,NA,NA,NA,NA,NA,NA,NA,NA,936000,NA,"Rua José de Melo, 360 - Bosque, Rio Branco - AC","terrenos_lotes_e_condominios","https://www.zapimoveis.com.br/imovel/venda-terreno-lote-condominio-bosque-rio-branco-ac-936m2-id-2619199396/",-9.967710380794,-67.814324955814
NA,NA,361,NA,NA,NA,NA,NA,2612640690,NA,NA,NA,NA,NA,NA,NA,NA,NA,NA,120000,NA,"Rua Frei Caneca - Doca Furtado, Rio Branco - AC","terrenos_lotes_e_condominios","https://www.zapimoveis.com.br/imovel/venda-terreno-lote-condominio-doca-furtado-rio-branco-ac-361m2-id-2612640690/",-9.969805677745,-67.835116874717
NA,NA,252,NA,NA,NA,NA,NA,2641543975,NA,NA,NA,NA,NA,NA,NA,NA,NA,NA,98000,NA,"Jardim Tropical, Rio Branco - AC","terrenos_lotes_e_condominios","https://www.zapimoveis.com.br/imovel/venda-terreno-lote-condominio-jardim-tropical-rio-branco-ac-252m2-id-2641543975/",-9.96032,-67.79508
NA,NA,265,NA,NA,NA,NA,NA,2646166612,NA,NA,NA,NA,NA,NA,NA,NA,NA,NA,99000,NA,"Portal da Amazonia, Rio Branco - AC","terrenos_lotes_e_condominios","https://www.zapimoveis.com.br/imovel/venda-terreno-lote-condominio-portal-da-amazonia-rio-branco-ac-265m2-id-2646166612/",-9.97321,-67.86036
NA,NA,267,NA,NA,NA,NA,NA,2641768857,NA,NA,NA,NA,NA,NA,NA,NA,NA,NA,150000,NA,"Portal da Amazonia, Rio Branco - AC","terrenos_lotes_e_condominios","https://www.zapimoveis.com.br/imovel/venda-terreno-lote-condominio-portal-da-amazonia-rio-branco-ac-267m2-id-2641768857/",-9.97321,-67.86036
NA,NA,378,NA,NA,NA,NA,NA,2635916058,NA,NA,NA,NA,NA,NA,NA,NA,NA,NA,320000,NA,"Portal da Amazonia, Rio Branco - AC","terrenos_lotes_e_condominios","https://www.zapimoveis.com.br/imovel/venda-terreno-lote-condominio-portal-da-amazonia-rio-branco-ac-378m2-id-2635916058/",-9.97321,-67.86036
NA,NA,300,NA,NA,NA,NA,NA,2653181558,NA,NA,NA,NA,NA,NA,NA,NA,NA,NA,199800,NA,"Portal da Amazonia, Rio Branco - AC","terrenos_lotes_e_condominios","https://www.zapimoveis.com.br/imovel/venda-terreno-lote-condominio-portal-da-amazonia-rio-branco-ac-300m2-id-2653181558/",-9.97321,-67.86036
NA,NA,460,NA,NA,NA,NA,NA,2635916155,NA,NA,NA,NA,NA,NA,NA,NA,NA,NA,365000,NA,"Floresta Sul, Rio Branco - AC","terrenos_lotes_e_condominios","https://www.zapimoveis.com.br/imovel/venda-terreno-lote-condominio-floresta-sul-rio-branco-ac-460m2-id-2635916155/",-9.99108,-67.84832
NA,NA,252,NA,NA,NA,NA,NA,2641540029,NA,NA,NA,NA,NA,NA,NA,NA,NA,NA,98000,NA,"Jardim Tropical, Rio Branco - AC","terrenos_lotes_e_condominios","https://www.zapimoveis.com.br/imovel/venda-terreno-lote-condominio-jardim-tropical-rio-branco-ac-252m2-id-2641540029/",-9.96032,-67.79508
NA,NA,NA,NA,NA,NA,NA,NA,2647778954,NA,NA,NA,NA,NA,NA,NA,NA,NA,NA,250000,NA,"Travessa Macauã, 105 - Conjunto Mariana, Rio Branco - AC","terrenos_lotes_e_condominios","https://www.zapimoveis.com.br/imovel/venda-terreno-lote-condominio-conjunto-mariana-rio-branco-ac-id-2647778954/",-9.960736000272,-67.845269956173
NA,NA,300,NA,NA,NA,NA,NA,2641543976,NA,NA,NA,NA,NA,NA,NA,NA,NA,NA,149000,NA,"Portal da Amazonia, Rio Branco - AC","terrenos_lotes_e_condominios","https://www.zapimoveis.com.br/imovel/venda-terreno-lote-condominio-portal-da-amazonia-rio-branco-ac-300m2-id-2641543976/",-9.97321,-67.86036
NA,NA,NA,NA,NA,NA,NA,NA,2612640689,NA,NA,NA,NA,NA,NA,NA,NA,NA,NA,90000,NA,"Rua Andiroba - Portal da Amazonia, Rio Branco - AC","terrenos_lotes_e_condominios","https://www.zapimoveis.com.br/imovel/venda-terreno-lote-condominio-portal-da-amazonia-rio-branco-ac-id-2612640689/",-9.975772192423,-67.872742224085
NA,NA,252,NA,NA,NA,NA,NA,2641544056,NA,NA,NA,NA,NA,NA,NA,NA,NA,NA,98000,NA,"Jardim Tropical, Rio Branco - AC","terrenos_lotes_e_condominios","https://www.zapimoveis.com.br/imovel/venda-terreno-lote-condominio-jardim-tropical-rio-branco-ac-252m2-id-2641544056/",-9.96032,-67.79508
NA,NA,260,NA,NA,NA,NA,NA,2644458359,NA,NA,NA,NA,NA,NA,NA,NA,NA,NA,135000,NA,"Portal da Amazonia, Rio Branco - AC","terrenos_lotes_e_condominios","https://www.zapimoveis.com.br/imovel/venda-terreno-lote-condominio-portal-da-amazonia-rio-branco-ac-260m2-id-2644458359/",-9.97321,-67.86036
NA,NA,261,NA,NA,NA,NA,NA,2611344954,NA,NA,NA,NA,NA,NA,NA,NA,NA,NA,120000,NA,"Rua Pardal, Q 219 L 16 - Loteamento Jaguar, Rio Branco - AC","terrenos_lotes_e_condominios","https://www.zapimoveis.com.br/imovel/venda-terreno-lote-condominio-loteamento-jaguar-rio-branco-ac-261m2-id-2611344954/",-9.93145,-67.81023
NA,NA,590,NA,NA,NA,NA,NA,2619328690,NA,NA,NA,NA,NA,NA,NA,NA,NA,NA,6e+05,NA,"Rua Floriano Peixoto, SN - Centro, Rio Branco - AC","terrenos_lotes_e_condominios","https://www.zapimoveis.com.br/imovel/venda-terreno-lote-condominio-com-biblioteca-centro-rio-branco-ac-590m2-id-2619328690/",-9.971434018749,-67.813150100974
NA,NA,360,NA,NA,NA,NA,NA,2644458360,NA,NA,NA,NA,NA,NA,NA,NA,NA,NA,250000,NA,"Conjunto Mariana, Rio Branco - AC","terrenos_lotes_e_condominios","https://www.zapimoveis.com.br/imovel/venda-terreno-lote-condominio-conjunto-mariana-rio-branco-ac-360m2-id-2644458360/",-9.95749,-67.85033
NA,NA,252,NA,NA,NA,NA,NA,2646778158,NA,NA,NA,NA,NA,NA,NA,NA,NA,NA,135000,NA,"Portal da Amazonia, Rio Branco - AC","terrenos_lotes_e_condominios","https://www.zapimoveis.com.br/imovel/venda-terreno-lote-condominio-portal-da-amazonia-rio-branco-ac-252m2-id-2646778158/",-9.97321,-67.86036
NA,NA,300,NA,NA,NA,NA,NA,2641544058,NA,NA,NA,NA,NA,NA,NA,NA,NA,NA,149000,NA,"Portal da Amazonia, Rio Branco - AC","terrenos_lotes_e_condominios","https://www.zapimoveis.com.br/imovel/venda-terreno-lote-condominio-portal-da-amazonia-rio-branco-ac-300m2-id-2641544058/",-9.97321,-67.86036
NA,NA,360,NA,NA,NA,NA,NA,2644457963,NA,NA,NA,NA,NA,NA,NA,NA,NA,NA,250000,NA,"Conjunto Mariana, Rio Branco - AC","terrenos_lotes_e_condominios","https://www.zapimoveis.com.br/imovel/venda-terreno-lote-condominio-conjunto-mariana-rio-branco-ac-360m2-id-2644457963/",-9.95749,-67.85033
1,NA,300,0,NA,NA,0,1,2636058651,NA,1,1,1,1,NA,1,0,1,NA,210000,0,"Via Verde, 5500 - Praia do Amapa, Rio Branco - AC","terrenos_lotes_e_condominios","https://www.zapimoveis.com.br/imovel/venda-terreno-lote-condominio-com-piscina-praia-do-amapa-rio-branco-ac-300m2-id-2636058651/",-9.999689423028,-67.849692928722
1,NA,553,0,NA,NA,0,1,2640471553,NA,1,1,1,1,NA,1,0,0,NA,510000,0,"Estrada da Floresta, 2000 - Floresta Sul, Rio Branco - AC","terrenos_lotes_e_condominios","https://www.zapimoveis.com.br/imovel/venda-terreno-lote-condominio-com-piscina-floresta-sul-rio-branco-ac-553m2-id-2640471553/",-9.986972819146,-67.844681727349
NA,NA,484,NA,NA,NA,NA,NA,2652947866,NA,NA,NA,NA,NA,NA,NA,NA,NA,NA,138000,NA,"Loteamento Novo Horizonte, Rio Branco - AC","terrenos_lotes_e_condominios","https://www.zapimoveis.com.br/imovel/venda-terreno-lote-condominio-loteamento-novo-horizonte-rio-branco-ac-484m2-id-2652947866/",-9.97853,-67.8341
NA,NA,361,NA,NA,NA,NA,NA,2611985268,NA,NA,NA,NA,NA,NA,NA,NA,NA,NA,120000,NA,"Rua Frei Caneca, SN - Doca Furtado, Rio Branco - AC","terrenos_lotes_e_condominios","https://www.zapimoveis.com.br/imovel/venda-terreno-lote-condominio-doca-furtado-rio-branco-ac-361m2-id-2611985268/",-9.969805677745,-67.835116874717
