academia,andar,area,area_servico,banheiro,condominio,elevador,espaco_gourmet,id,iptu,piscina,playground,portaria_24_horas,quadra_de_esporte,quarto,salao_de_festa,sauna,spa,vaga,valor,varanda_gourmet,endereco,tipo,url,latitude,longitude,long_norm,lat_norm
0.0,,82.0,0.0,2.0,,0.0,1.0,2619109539,,1.0,0.0,1.0,0.0,3.0,0.0,0.0,0.0,2.0,330000.0,0.0,"Rua Piracanjuba, 917 - Portal da Amazonia, Rio Branco - AC",apartamentos,https://www.zapimoveis.com.br/imovel/venda-apartamento-3-quartos-com-piscina-portal-da-amazonia-rio-branco-ac-82m2-id-2619109539/,-9.974644989695,-67.860729986737,-0.10399625601604932,0.08225432788435973
0.0,3.0,49.0,0.0,1.0,,0.0,1.0,2651176674,,0.0,1.0,1.0,1.0,2.0,1.0,0.0,0.0,1.0,210000.0,0.0,"Estrada da Floresta, 1893 - Floresta Sul, Rio Branco - AC",apartamentos,https://www.zapimoveis.com.br/imovel/venda-apartamento-2-quartos-com-churrasqueira-floresta-sul-rio-branco-ac-49m2-id-2651176674/,-9.986977801504,-67.844706632184,-0.09556220071837941,0.07406524413021509
1.0,2.0,67.0,0.0,2.0,,0.0,1.0,2619496172,,0.0,0.0,1.0,0.0,2.0,0.0,0.0,0.0,1.0,260000.0,0.0,"Estrada de Porto Acre, 1528 - Alto Alegre 	, Rio Branco - AC",apartamentos,https://www.zapimoveis.com.br/imovel/venda-apartamento-2-quartos-com-churrasqueira-alto-alegre-rio-branco-ac-67m2-id-2619496172/,-9.916298611881,-67.820917555821,-0.08304057892798486,0.1209967803006917
,,49.0,,1.0,,,,2641296833,,,,,,2.0,,,,1.0,205000.0,,"Floresta Sul, Rio Branco - AC",apartamentos,https://www.zapimoveis.com.br/imovel/venda-apartamento-2-quartos-floresta-sul-rio-branco-ac-49m2-id-2641296833/,-9.99108,-67.84832,-0.09746413354213208,0.07134135215974413
0.0,3.0,90.0,1.0,2.0,,0.0,1.0,2651022172,,0.0,1.0,1.0,0.0,2.0,1.0,0.0,0.0,1.0,415000.0,1.0,"Alameda Madri, 124 - Jardim Europa, Rio Branco - AC",apartamentos,https://www.zapimoveis.com.br/imovel/venda-apartamento-2-quartos-mobiliado-jardim-europa-rio-branco-ac-90m2-id-2651022172/,-9.969896932111,-67.850296803365,-0.09850464405682213,0.08540707535403991
0.0,2.0,51.0,0.0,1.0,230.0,0.0,0.0,2648322078,300.0,0.0,1.0,1.0,0.0,2.0,1.0,0.0,0.0,1.0,200000.0,0.0,"Rua São Mateus, 150 - Residencial Araca, Rio Branco - AC",apartamentos,https://www.zapimoveis.com.br/imovel/venda-apartamento-2-quartos-com-churrasqueira-residencial-araca-rio-branco-ac-51m2-id-2648322078/,-10.011027449136,-67.777857018404,-0.06037522801653571,0.058096089507068384
0.0,2.0,63.0,0.0,2.0,280.0,0.0,1.0,2619497468,,0.0,1.0,1.0,0.0,3.0,1.0,0.0,0.0,2.0,300000.0,0.0,"Estrada da Floresta, 1893 - Floresta Sul, Rio Branco - AC",apartamentos,https://www.zapimoveis.com.br/imovel/venda-apartamento-3-quartos-com-churrasqueira-floresta-sul-rio-branco-ac-63m2-id-2619497468/,-9.986977801504,-67.844706632184,-0.09556220071837941,0.07406524413021509
0.0,,49.0,0.0,1.0,,1.0,0.0,2648750790,,0.0,0.0,0.0,0.0,2.0,0.0,0.0,0.0,1.0,185000.0,0.0,"Loteamento dos Engenheiros, Rio Branco - AC",apartamentos,https://www.zapimoveis.com.br/imovel/venda-apartamento-2-quartos-com-elevador-loteamento-dos-engenheiros-rio-branco-ac-49m2-id-2648750790/,-9.9627,-67.84076,-0.09348485081207268,0.09018589471353586
0.0,3.0,71.0,1.0,3.0,,0.0,0.0,2641540028,,1.0,0.0,0.0,1.0,3.0,0.0,0.0,0.0,1.0,285000.0,0.0,"Recanto dos Buritis, Rio Branco - AC",apartamentos,https://www.zapimoveis.com.br/imovel/venda-apartamento-3-quartos-com-piscina-recanto-dos-buritis-rio-branco-ac-71m2-id-2641540028/,-10.00159,-67.79387,-0.06880382340300482,0.06436262974112718
,,40.0,,1.0,100.0,,,2640469457,280.0,,,,,2.0,,,,1.0,120000.0,,"Rua Luiz Z da Silva, 47 - Conjunto Manoel Juliao, Rio Branco - AC",apartamentos,https://www.zapimoveis.com.br/imovel/venda-apartamento-2-quartos-conjunto-manoel-juliao-rio-branco-ac-40m2-id-2640469457/,-9.958470012042,-67.832820009362,-0.08930555615299002,0.09299463988889044
0.0,10.0,301.0,0.0,5.0,,1.0,0.0,2645679567,,0.0,0.0,0.0,0.0,5.0,0.0,0.0,0.0,4.0,2600000.0,0.0,"Jardim Manoel Juliao, Rio Branco - AC",apartamentos,https://www.zapimoveis.com.br/imovel/venda-apartamento-5-quartos-mobiliado-jardim-manoel-juliao-rio-branco-ac-301m2-id-2645679567/,-9.95926,-67.82307,-0.08417353976779011,0.09247008168975264
0.0,,105.0,1.0,2.0,,0.0,0.0,2577600991,,1.0,0.0,0.0,0.0,3.0,0.0,0.0,0.0,2.0,620000.0,1.0,"Aviario, Rio Branco - AC",apartamentos,https://www.zapimoveis.com.br/imovel/venda-apartamento-3-quartos-com-piscina-aviario-rio-branco-ac-105m2-id-2577600991/,-9.96614,-67.80494,-0.07463063025773813,0.08790170773731908
1.0,,315.0,1.0,4.0,,1.0,1.0,2619189354,,1.0,0.0,1.0,1.0,3.0,1.0,1.0,0.0,4.0,2800000.0,1.0,"Estrada da Invernada, 986 - Morada do Sol, Rio Branco - AC",apartamentos,https://www.zapimoveis.com.br/imovel/venda-apartamento-3-quartos-com-piscina-morada-do-sol-rio-branco-ac-315m2-id-2619189354/,-9.967539985649,-67.799360038619,-0.07169356095114726,0.08697210628780265
,,420.0,,4.0,,,,2640755059,,,,,,5.0,,,,,1000000.0,,"Rua Isaura Parente, 1536 - Isaura Parente, Rio Branco - AC",casas,https://www.zapimoveis.com.br/imovel/venda-casa-5-quartos-com-ar-condicionado-isaura-parente-rio-branco-ac-420m2-id-2640755059/,-9.963720017096,-67.828090017581,-0.08681587697211371,0.08950859536289589
,,22735.0,,1.0,68205.0,,,2491370685,34103.0,,,,,,,,,12.0,45000000.0,,"Ipase, Rio Branco - AC",casas_comerciais,https://www.zapimoveis.com.br/imovel/venda-casa-ipase-rio-branco-ac-22735m2-id-2491370685/,-9.96918,-67.81048,-0.07754666548584926,0.0858831238978711
0.0,,157.0,0.0,2.0,,0.0,0.0,2614937401,,1.0,0.0,0.0,0.0,3.0,0.0,0.0,0.0,,630000.0,0.0,"Rua Silvio Antônio Araújo de Oliveira, 11 - Portal da Amazonia, Rio Branco - AC",casas,https://www.zapimoveis.com.br/imovel/venda-casa-3-quartos-com-piscina-portal-da-amazonia-rio-branco-ac-157m2-id-2614937401/,-9.968292503415,-67.87486489688,-0.11143630943178928,0.08647242858999113
,1.0,200.0,,3.0,,,,2619493942,,,,,,4.0,,,,2.0,750000.0,,"Rua Manoel Cesário, 304 - Jose Augusto, Rio Branco - AC",sobrados,https://www.zapimoveis.com.br/imovel/venda-sobrados-4-quartos-jose-augusto-rio-branco-ac-200m2-id-2619493942/,-9.968851065088,-67.80679770836,-0.07560845390779182,0.0861015392589215
0.0,,175.0,1.0,2.0,,0.0,0.0,2654402254,,0.0,0.0,0.0,0.0,3.0,0.0,0.0,0.0,7.0,585000.0,0.0,"Jardim America, Rio Branco - AC",casas,https://www.zapimoveis.com.br/imovel/venda-casa-3-quartos-com-cozinha-jardim-america-rio-branco-ac-175m2-id-2654402254/,-9.95166,-67.826,-0.08571577500575912,0.09751654128837198
0.0,,230.0,1.0,3.0,,0.0,0.0,2599102798,,0.0,0.0,0.0,0.0,3.0,0.0,0.0,0.0,2.0,350000.0,0.0,"Xavier Maia, Rio Branco - AC",casas,https://www.zapimoveis.com.br/imovel/venda-casa-3-quartos-com-area-de-servico-xavier-maia-rio-branco-ac-230m2-id-2599102798/,-9.92942,-67.82026,-0.08269446774775618,0.11228407569275267
,,292.0,,1.0,,,,2624490732,,,,,,2.0,,,,,400000.0,,"Xavier Maia, Rio Branco - AC",casas,https://www.zapimoveis.com.br/imovel/venda-casa-2-quartos-xavier-maia-rio-branco-ac-292m2-id-2624490732/,-9.92942,-67.82026,-0.08269446774775618,0.11228407569275267
1.0,,422.0,0.0,5.0,,0.0,1.0,2641834514,,1.0,1.0,1.0,1.0,4.0,1.0,0.0,0.0,3.0,2497000.0,0.0,"Estrada da Floresta, 2000 - Floresta Sul, Rio Branco - AC",casas_de_condominio,https://www.zapimoveis.com.br/imovel/venda-casa-de-condominio-4-quartos-com-piscina-floresta-sul-rio-branco-ac-422m2-id-2641834514/,-9.986972819146,-67.844681727349,-0.09554909180570532,0.07406855245499833
0.0,,280.0,0.0,4.0,,0.0,1.0,2641671662,,0.0,0.0,0.0,0.0,3.0,0.0,0.0,0.0,4.0,829000.0,0.0,"Rua da Liberdade, 319 - Conjunto Mariana, Rio Branco - AC",sobrados,https://www.zapimoveis.com.br/imovel/venda-sobrados-3-quartos-mobiliado-conjunto-mariana-rio-branco-ac-280m2-id-2641671662/,-9.957345887449,-67.845944589858,-0.09621381230471099,0.09374106743394149
0.0,,275.0,0.0,3.0,,0.0,1.0,2619116698,,1.0,0.0,1.0,0.0,5.0,1.0,0.0,0.0,3.0,850000.0,1.0,"Rua Jaqueline, 129 - Loteamento dos Engenheiros, Rio Branco - AC",casas,https://www.zapimoveis.com.br/imovel/venda-casa-5-quartos-com-piscina-loteamento-dos-engenheiros-rio-branco-ac-275m2-id-2619116698/,-9.961510002595,-67.843020031156,-0.09467444114917095,0.0909760623223243
,,282.0,,4.0,,,,2635915762,,,,,,5.0,,,,,445000.0,,"Xavier Maia, Rio Branco - AC",casas,https://www.zapimoveis.com.br/imovel/venda-casa-5-quartos-xavier-maia-rio-branco-ac-282m2-id-2635915762/,-9.92942,-67.82026,-0.08269446774775618,0.11228407569275267
,,203.0,,3.0,,,,2647395461,,,,,,2.0,,,,2.0,590000.0,,"Vila da Amizade, Rio Branco - AC",casas,https://www.zapimoveis.com.br/imovel/venda-casa-2-quartos-com-escritorio-vila-da-amizade-rio-branco-ac-203m2-id-2647395461/,-10.02991,-67.80128,-0.07270415211064725,0.045557927657851716
0.0,,160.0,0.0,3.0,,0.0,0.0,2636763402,,1.0,0.0,0.0,0.0,3.0,0.0,0.0,0.0,,650000.0,0.0,"Conjunto Tangara, Rio Branco - AC",casas,https://www.zapimoveis.com.br/imovel/venda-casa-3-quartos-com-piscina-conjunto-tangara-rio-branco-ac-160m2-id-2636763402/,-9.96532,-67.83924,-0.09268478338486513,0.08844619416769585
,,174.0,,4.0,,,,2637222624,,,,,,3.0,,,,,895000.0,,"Vila Ivonete, Rio Branco - AC",casas,https://www.zapimoveis.com.br/imovel/venda-casa-3-quartos-vila-ivonete-rio-branco-ac-174m2-id-2637222624/,-9.94936,-67.82229,-0.08376297885119342,0.09904375932479621
,,114.0,,2.0,,,,2615021943,,,,,,3.0,,,,,424800.0,,"Rua Campos Lindos, 16 - Floresta Sul, Rio Branco - AC",casas,https://www.zapimoveis.com.br/imovel/venda-casa-3-quartos-floresta-sul-rio-branco-ac-114m2-id-2615021943/,-9.993298502269,-67.837273628513,-0.09164976379503645,0.06986824925580241
0.0,,192.0,0.0,2.0,,0.0,0.0,2641543974,,1.0,0.0,0.0,0.0,3.0,0.0,0.0,0.0,2.0,680000.0,1.0,"Portal da Amazonia, Rio Branco - AC",casas,https://www.zapimoveis.com.br/imovel/venda-casa-3-quartos-com-piscina-portal-da-amazonia-rio-branco-ac-192m2-id-2641543974/,-9.97321,-67.86036,-0.10380150974185741,0.08320717229491889
,,141.0,,1.0,,,,2616955017,,,,,,2.0,,,,3.0,265000.0,,"Rua Santo Inácio - Conjunto Bela Vista, Rio Branco - AC",casas,https://www.zapimoveis.com.br/imovel/venda-casa-2-quartos-conjunto-bela-vista-rio-branco-ac-141m2-id-2616955017/,-9.975734534974,-67.828736823269,-0.08715632971072923,0.08153086127497226
0.0,,120.0,0.0,3.0,,0.0,0.0,2654256172,,1.0,0.0,0.0,0.0,3.0,0.0,0.0,0.0,2.0,590000.0,1.0,"Travessa da Afelétro, 06 - Vila Ivonete, Rio Branco - AC",sobrados,https://www.zapimoveis.com.br/imovel/venda-sobrados-3-quartos-com-piscina-vila-ivonete-rio-branco-ac-120m2-id-2654256172/,-9.954438330832,-67.823692408293,-0.08450115068992921,0.09567170782846635
,,176.0,,3.0,,,,2644458361,,,,,,3.0,,,,2.0,650000.0,,"Conjunto Mariana, Rio Branco - AC",casas,https://www.zapimoveis.com.br/imovel/venda-casa-3-quartos-conjunto-mariana-rio-branco-ac-176m2-id-2644458361/,-9.95749,-67.85033,-0.09852211744258388,0.09364537556995772
0.0,,135.0,0.0,2.0,,1.0,0.0,2640998530,,0.0,0.0,0.0,0.0,2.0,0.0,0.0,0.0,2.0,230000.0,0.0,"Waldemar Maciel, Rio Branco - AC",casas,https://www.zapimoveis.com.br/imovel/venda-casa-2-quartos-com-elevador-waldemar-maciel-rio-branco-ac-135m2-id-2640998530/,-9.97996,-67.87009,-0.1089229939962895,0.07872511936193448
0.0,,143.0,1.0,4.0,,0.0,0.0,2635674599,,0.0,0.0,0.0,0.0,2.0,0.0,0.0,0.0,2.0,520000.0,0.0,"Conjunto Tucuma, Rio Branco - AC",casas,https://www.zapimoveis.com.br/imovel/venda-casa-2-quartos-com-area-de-servico-conjunto-tucuma-rio-branco-ac-143m2-id-2635674599/,-9.95041,-67.86084,-0.10405416261360519,0.09834655109077689
,,151.0,,2.0,,,,2630667282,,,,,,2.0,,,,,270000.0,,"Rua São José, 259 - Nova Esperanca, Rio Branco - AC",casas,https://www.zapimoveis.com.br/imovel/venda-casa-2-quartos-nova-esperanca-rio-branco-ac-151m2-id-2630667282/,-9.974058999054,-67.844903849588,-0.09566600810062525,0.08264343026527723
,,140.0,,2.0,,,,2614709599,,,,,,3.0,,,,,250000.0,,"Travessa Campo do Rio Branco - Capoeira, Rio Branco - AC",casas,https://www.zapimoveis.com.br/imovel/venda-casa-3-quartos-capoeira-rio-branco-ac-140m2-id-2614709599/,-9.968627059716,-67.808126508045,-0.07630788110862247,0.08625028058256189
,,480.0,,1.0,,,,2639870076,,,,,,3.0,,,,3.0,335000.0,,"Xavier Maia, Rio Branco - AC",casas,https://www.zapimoveis.com.br/imovel/venda-casa-3-quartos-xavier-maia-rio-branco-ac-480m2-id-2639870076/,-9.92942,-67.82026,-0.08269446774775618,0.11228407569275267
0.0,,220.0,1.0,3.0,,0.0,0.0,2646776932,,1.0,0.0,0.0,0.0,3.0,0.0,0.0,0.0,4.0,698000.0,0.0,"Xavier Maia, Rio Branco - AC",sobrados,https://www.zapimoveis.com.br/imovel/venda-sobrados-3-quartos-com-piscina-xavier-maia-rio-branco-ac-220m2-id-2646776932/,-9.92942,-67.82026,-0.08269446774775618,0.11228407569275267
,,70.0,,2.0,,,,2640393764,,,,,,2.0,,,,,300000.0,,"Loteamento Joafra, Rio Branco - AC",casas,https://www.zapimoveis.com.br/imovel/venda-casa-2-quartos-loteamento-joafra-rio-branco-ac-70m2-id-2640393764/,-9.9453,-67.85189,-0.09934323927576978,0.10173963116300655
,,338.0,,4.0,,,,2641295992,,,,,,4.0,,,,,900000.0,,"Conjunto Paulo Cesar de Oliveira, Rio Branco - AC",casas,https://www.zapimoveis.com.br/imovel/venda-casa-4-quartos-conjunto-paulo-cesar-de-oliveira-rio-branco-ac-338m2-id-2641295992/,-9.97388,-67.80756,-0.07600969384936924,0.08276228704083043
0.0,,305.0,0.0,5.0,,0.0,1.0,2619102802,,1.0,0.0,0.0,0.0,4.0,0.0,0.0,0.0,5.0,1200000.0,0.0,"Alameda Itália, 15 - Jardim Europa, Rio Branco - AC",sobrados,https://www.zapimoveis.com.br/imovel/venda-sobrados-4-quartos-com-piscina-jardim-europa-rio-branco-ac-305m2-id-2619102802/,-9.968899991349,-67.846280004758,-0.09639036134161635,0.08606905183794153
1.0,,191.0,0.0,4.0,,0.0,1.0,2627351562,,1.0,1.0,1.0,1.0,3.0,1.0,0.0,0.0,4.0,1350000.0,1.0,"Estrada do Calafate, 360 - Calafate, Rio Branco - AC",casas_de_condominio,https://www.zapimoveis.com.br/imovel/venda-casa-de-condominio-3-quartos-com-piscina-calafate-rio-branco-ac-191m2-id-2627351562/,-9.979098947893,-67.889778663385,-0.11928632179865621,0.07929686471328734
,,159.0,,4.0,,,,2643145586,,,,,,3.0,,,,,550000.0,,"Conjunto Tucuma, Rio Branco - AC",casas,https://www.zapimoveis.com.br/imovel/venda-casa-3-quartos-com-varanda-conjunto-tucuma-rio-branco-ac-159m2-id-2643145586/,-9.95041,-67.86084,-0.10405416261360519,0.09834655109077689
,,150.0,,2.0,,,,2645139508,,,,,,3.0,,,,,230000.0,,"Loteamento Santa Helena, Rio Branco - AC",casas,https://www.zapimoveis.com.br/imovel/venda-casa-3-quartos-loteamento-santa-helena-rio-branco-ac-150m2-id-2645139508/,-10.01603,-67.79819,-0.07107769924875733,0.05477435650375021
0.0,,173.0,1.0,1.0,,0.0,0.0,2549464473,,0.0,0.0,0.0,0.0,3.0,0.0,0.0,0.0,2.0,490000.0,0.0,"Rua Aderbal Brasil, 219 - Conjunto Manoel Juliao, Rio Branco - AC",casas,https://www.zapimoveis.com.br/imovel/venda-casa-3-quartos-com-area-de-servico-conjunto-manoel-juliao-rio-branco-ac-173m2-id-2549464473/,-9.956552138675,-67.833852218812,-0.0898488700733869,0.0942681228443941
,,250.0,,5.0,,,,2639991599,,,,,,3.0,,,,5.0,650000.0,,"Rua da Dama da Noite - Jardim Tropical, Rio Branco - AC",casas,https://www.zapimoveis.com.br/imovel/venda-casa-3-quartos-jardim-tropical-rio-branco-ac-250m2-id-2639991599/,-9.959160107985,-67.794999863703,-0.06939853863060642,0.09253641077105888
,,70.0,,1.0,,,,2655236376,,,,,,2.0,,,,4.0,155000.0,,"Calafate, Rio Branco - AC",casas,https://www.zapimoveis.com.br/imovel/venda-casa-2-quartos-calafate-rio-branco-ac-70m2-id-2655236376/,-9.97769,-67.88752,-0.11809745140170153,0.08023241716310059
0.0,,174.0,0.0,2.0,,0.0,0.0,2616380511,,1.0,0.0,0.0,0.0,3.0,0.0,0.0,0.0,,250000.0,0.0,"Rua Andorinha, 31 - Conjunto Ouricuri, Rio Branco - AC",casas,https://www.zapimoveis.com.br/imovel/venda-casa-3-quartos-com-piscina-conjunto-ouricuri-rio-branco-ac-174m2-id-2616380511/,-9.935179714538,-67.806684458107,-0.0755488434876973,0.10845958007227954
0.0,,250.0,1.0,4.0,,0.0,0.0,2652947865,,0.0,0.0,0.0,0.0,4.0,0.0,0.0,0.0,,330000.0,0.0,"Conjunto Tucuma, Rio Branco - AC",casas,https://www.zapimoveis.com.br/imovel/venda-casa-4-quartos-com-area-de-servico-conjunto-tucuma-rio-branco-ac-250m2-id-2652947865/,-9.95041,-67.86084,-0.10405416261360519,0.09834655109077689
,,98.0,,1.0,,,,2652823593,,,,,,2.0,,,,1.0,400000.0,,"Conjunto Manoel Juliao, Rio Branco - AC",casas,https://www.zapimoveis.com.br/imovel/venda-casa-2-quartos-mobiliado-conjunto-manoel-juliao-rio-branco-ac-98m2-id-2652823593/,-9.95325,-67.83383,-0.08983717497618553,0.09646076881971333
,,122.0,,2.0,,,,2611343795,,,,,,3.0,,,,4.0,480000.0,,"Avenida Ceará, 582 - Ceramica, Rio Branco - AC",casas,https://www.zapimoveis.com.br/imovel/venda-casa-3-quartos-ceramica-rio-branco-ac-122m2-id-2611343795/,-9.972379989909,-67.801500022319,-0.07281996309136413,0.083758305504219
,,223.0,,3.0,,,,2635916453,,,,,,3.0,,,,,1370000.0,,"Portal da Amazonia, Rio Branco - AC",casas,https://www.zapimoveis.com.br/imovel/venda-casa-3-quartos-com-churrasqueira-portal-da-amazonia-rio-branco-ac-223m2-id-2635916453/,-9.97321,-67.86036,-0.10380150974185741,0.08320717229491889
0.0,,360.0,0.0,2.0,,0.0,0.0,2652943964,,1.0,0.0,0.0,0.0,3.0,0.0,0.0,0.0,3.0,475000.0,0.0,"Conjunto Manoel Juliao, Rio Branco - AC",casas,https://www.zapimoveis.com.br/imovel/venda-casa-3-quartos-com-piscina-conjunto-manoel-juliao-rio-branco-ac-360m2-id-2652943964/,-9.95325,-67.83383,-0.08983717497618553,0.09646076881971333
,,150.0,,1.0,,,,2624490670,,,,,,3.0,,,,,300000.0,,"Conjunto Tucuma, Rio Branco - AC",casas,https://www.zapimoveis.com.br/imovel/venda-casa-3-quartos-conjunto-tucuma-rio-branco-ac-150m2-id-2624490670/,-9.95041,-67.86084,-0.10405416261360519,0.09834655109077689
,,250.0,,5.0,,,,2635916154,,,,,,5.0,,,,,420000.0,,"Loteamento Joafra, Rio Branco - AC",casas,https://www.zapimoveis.com.br/imovel/venda-casa-5-quartos-loteamento-joafra-rio-branco-ac-250m2-id-2635916154/,-9.9453,-67.85189,-0.09934323927576978,0.10173963116300655
,1.0,150.0,,5.0,,,,2637014602,,,,,,3.0,,,,3.0,750000.0,,"Rua Amazonas, 770 - Capoeira, Rio Branco - AC",casas,https://www.zapimoveis.com.br/imovel/venda-casa-3-quartos-capoeira-rio-branco-ac-150m2-id-2637014602/,-9.967500003971,-67.804430000393,-0.07436218678836112,0.08699865443552696
0.0,,70.0,1.0,1.0,,0.0,0.0,2652731065,,0.0,0.0,0.0,0.0,3.0,0.0,0.0,0.0,2.0,220000.0,0.0,"Xavier Maia, Rio Branco - AC",casas,https://www.zapimoveis.com.br/imovel/venda-casa-3-quartos-com-cozinha-xavier-maia-rio-branco-ac-70m2-id-2652731065/,-9.92942,-67.82026,-0.08269446774775618,0.11228407569275267
,,300.0,,4.0,,,,2636388171,,,,,,4.0,,,,,420000.0,,"Conjunto Universitario, Rio Branco - AC",casas,https://www.zapimoveis.com.br/imovel/venda-casa-4-quartos-conjunto-universitario-rio-branco-ac-300m2-id-2636388171/,-9.94636,-67.88182,-0.11509719854967695,0.10103578285056707
,,255.0,,2.0,,,,2618080099,,,,,,3.0,,,,2.0,320000.0,,"Rua Jaime Pereira, 177 - Conjunto Bela Vista, Rio Branco - AC",casas,https://www.zapimoveis.com.br/imovel/venda-casa-3-quartos-com-varanda-conjunto-bela-vista-rio-branco-ac-255m2-id-2618080099/,-9.975069994095,-67.831779982816,-0.08875812762477883,0.08197212162990752
,,250.0,,2.0,,,,2602474889,,,,,,3.0,,,,4.0,395000.0,,"Rua Campina Grande, 37 - Vila Ivonete, Rio Branco - AC",casas,https://www.zapimoveis.com.br/imovel/venda-casa-3-quartos-com-varanda-vila-ivonete-rio-branco-ac-250m2-id-2602474889/,-9.94843000078,-67.824029991321,-0.08467884094300843,0.0996612860998592
,,162.0,,4.0,,,,2636970297,,,,,,4.0,,,,3.0,280000.0,,"Avenida Francisco Ribeiro, 346 - Loteamento Santo Afonso, Rio Branco - AC",casas,https://www.zapimoveis.com.br/imovel/venda-casa-4-quartos-loteamento-santo-afonso-rio-branco-ac-162m2-id-2636970297/,-10.01555,-67.78206,-0.06258751003766067,0.05509308026787444
,,162.0,,1.0,,,,2651819700,,,,,,3.0,,,,,350000.0,,"Conquista, Rio Branco - AC",casas,https://www.zapimoveis.com.br/imovel/venda-casa-3-quartos-conquista-rio-branco-ac-162m2-id-2651819700/,-9.95282,-67.83416,-0.09001087382550886,0.09674629219174145
,,120.0,,1.0,,,,2653180016,,,,,,2.0,,,,2.0,315000.0,,"Conjunto Rui Lino, Rio Branco - AC",casas,https://www.zapimoveis.com.br/imovel/venda-casa-2-quartos-conjunto-rui-lino-rio-branco-ac-120m2-id-2653180016/,-9.94951,-67.85387,-0.10038543237173968,0.0989441581485079
,,252.0,,3.0,,,,2566850602,,,,,,5.0,,,,5.0,320000.0,,"Rua Vicente Lucena, 255 - Vila Ivonete, Rio Branco - AC",casas,https://www.zapimoveis.com.br/imovel/venda-casa-5-quartos-vila-ivonete-rio-branco-ac-252m2-id-2566850602/,-9.948200001357,-67.823070011951,-0.0841735460583213,0.09981400752036937
,,300.0,,2.0,,,,2635912003,,,,,,2.0,,,,3.0,380000.0,,"Conjunto Bela Vista, Rio Branco - AC",casas,https://www.zapimoveis.com.br/imovel/venda-casa-2-quartos-conjunto-bela-vista-rio-branco-ac-300m2-id-2635912003/,-9.97202,-67.83173,-0.08873181866227307,0.08399734162680754
,,76.0,,1.0,,,,2639822564,350.0,,,,,2.0,,,,1.0,235000.0,,"Rua Colibri, 275 - Loteamento Jaguar, Rio Branco - AC",casas,https://www.zapimoveis.com.br/imovel/venda-casa-2-quartos-com-cozinha-americana-loteamento-jaguar-rio-branco-ac-76m2-id-2639822564/,-9.93130836399,-67.806856684679,-0.07563949669188197,0.11103018719498653
,,200.0,,2.0,,,,2638698175,,,,,,3.0,,,,4.0,390000.0,,"Conjunto Bela Vista, Rio Branco - AC",casas,https://www.zapimoveis.com.br/imovel/venda-casa-3-quartos-conjunto-bela-vista-rio-branco-ac-200m2-id-2638698175/,-9.97202,-67.83173,-0.08873181866227307,0.08399734162680754
,,250.0,,2.0,,,,2624478007,,,,,,3.0,,,,,320000.0,,"Conjunto Mascarenhas de Moraes, Rio Branco - AC",casas,https://www.zapimoveis.com.br/imovel/venda-casa-3-quartos-conjunto-mascarenhas-de-moraes-rio-branco-ac-250m2-id-2624478007/,-9.97388,-67.80756,-0.07600969384936924,0.08276228704083043
,,230.0,,3.0,,,,2635674598,,,,,,3.0,,,,3.0,390000.0,,"Xavier Maia, Rio Branco - AC",casas,https://www.zapimoveis.com.br/imovel/venda-casa-3-quartos-xavier-maia-rio-branco-ac-230m2-id-2635674598/,-9.92942,-67.82026,-0.08269446774775618,0.11228407569275267
,,184.0,,1.0,,,,2610737867,820.0,,,,,2.0,,,,2.0,295000.0,,"Rua W8, 99 - Conjunto Tucuma, Rio Branco - AC",casas,https://www.zapimoveis.com.br/imovel/venda-casa-2-quartos-conjunto-tucuma-rio-branco-ac-184m2-id-2610737867/,-9.953320003093,-67.857969993659,-0.10254350564695182,0.09641428621700325
,1.0,170.0,,2.0,,,,2654812464,,,,,,2.0,,,,1.0,587000.0,,"Rua Barbosa Lima, 778 - Base, Rio Branco - AC",casas,https://www.zapimoveis.com.br/imovel/venda-casa-2-quartos-com-ar-condicionado-base-rio-branco-ac-170m2-id-2654812464/,-9.980189547103,-67.810640492178,-0.07763114217265006,0.07857269828545146
0.0,,77.0,0.0,1.0,,0.0,0.0,2639374372,,1.0,0.0,0.0,0.0,2.0,0.0,0.0,0.0,2.0,320000.0,1.0,"Portal da Amazonia, Rio Branco - AC",casas,https://www.zapimoveis.com.br/imovel/venda-casa-2-quartos-com-piscina-portal-da-amazonia-rio-branco-ac-77m2-id-2639374372/,-9.97321,-67.86036,-0.10380150974185741,0.08320717229491889
,,200.0,,2.0,,,,2652947864,,,,,,5.0,,,,2.0,290000.0,,"Loteamento Santa Luzia, Rio Branco - AC",casas,https://www.zapimoveis.com.br/imovel/venda-casa-5-quartos-loteamento-santa-luzia-rio-branco-ac-200m2-id-2652947864/,-10.056645001777,-67.790644996702,-0.06710631018500025,0.027805676824082373
,,176.0,,3.0,,,,2644457965,,,,,,3.0,,,,2.0,650000.0,,"Conjunto Mariana, Rio Branco - AC",casas,https://www.zapimoveis.com.br/imovel/venda-casa-3-quartos-conjunto-mariana-rio-branco-ac-176m2-id-2644457965/,-9.95749,-67.85033,-0.09852211744258388,0.09364537556995772
0.0,,174.0,0.0,2.0,,0.0,0.0,2651610458,,1.0,0.0,0.0,0.0,3.0,0.0,0.0,0.0,2.0,250000.0,0.0,"Rua Andorinha, 31 - Conjunto Ouricuri, Rio Branco - AC",casas,https://www.zapimoveis.com.br/imovel/venda-casa-3-quartos-com-piscina-conjunto-ouricuri-rio-branco-ac-174m2-id-2651610458/,-9.935179714538,-67.806684458107,-0.0755488434876973,0.10845958007227954
0.0,,206.0,0.0,4.0,,0.0,0.0,2653163668,,1.0,0.0,0.0,0.0,3.0,0.0,0.0,0.0,2.0,799000.0,1.0,"Rua Silvio Antônio Araújo de Oliveira, 03 - Portal da Amazonia, Rio Branco - AC",casas,https://www.zapimoveis.com.br/imovel/venda-casa-3-quartos-com-piscina-portal-da-amazonia-rio-branco-ac-206m2-id-2653163668/,-9.968292503415,-67.87486489688,-0.11143630943178928,0.08647242858999113
,,250.0,,2.0,,,,2654902871,,,,,,4.0,,,,,500000.0,,"Nova Esperanca, Rio Branco - AC",casas,https://www.zapimoveis.com.br/imovel/venda-casa-4-quartos-nova-esperanca-rio-branco-ac-250m2-id-2654902871/,-9.97461,-67.84142,-0.09383224851072682,0.08227756131622567
,,200.0,,3.0,,,,2647395460,,,,,,4.0,,,,1.0,168000.0,,"Mocinha Magalhaes, Rio Branco - AC",casas,https://www.zapimoveis.com.br/imovel/venda-casa-4-quartos-mocinha-magalhaes-rio-branco-ac-200m2-id-2647395460/,-9.94013,-67.85964,-0.103422530434232,0.10517255170575131
,,271.0,,5.0,,,,2611986099,,,,,,4.0,,,,3.0,500000.0,,"Rua das Palmeiras, 1 - Jardim Tropical, Rio Branco - AC",casas,https://www.zapimoveis.com.br/imovel/venda-casa-4-quartos-jardim-tropical-rio-branco-ac-271m2-id-2611986099/,-9.960959260872,-67.794862104096,-0.06932602746327374,0.09134175914527079
,,120.0,,2.0,,,,2646595553,,,,,,3.0,,,,4.0,188000.0,,"Seis de Agosto, Rio Branco - AC",casas,https://www.zapimoveis.com.br/imovel/venda-casa-3-quartos-seis-de-agosto-rio-branco-ac-120m2-id-2646595553/,-9.97882,-67.8048,-0.07455693983681012,0.07948208830172702
,,142.0,,5.0,,,,2612091776,,,,,,3.0,,,,3.0,550000.0,,"Rua Halley, 211 - Morada do Sol, Rio Branco - AC",sobrados,https://www.zapimoveis.com.br/imovel/venda-sobrados-3-quartos-mobiliado-morada-do-sol-rio-branco-ac-142m2-id-2612091776/,-9.962217573715,-67.790998567154,-0.06729241558096952,0.09050622954992596
0.0,,120.0,0.0,2.0,,0.0,0.0,2643145589,,1.0,0.0,0.0,0.0,4.0,0.0,0.0,0.0,2.0,475000.0,0.0,"Sao Francisco, Rio Branco - AC",casas,https://www.zapimoveis.com.br/imovel/venda-casa-4-quartos-com-piscina-sao-francisco-rio-branco-ac-120m2-id-2643145589/,-9.95844,-67.8005,-0.07229359119405054,0.0930145681201306
,,75.0,,1.0,,,,2652943432,,,,,,2.0,,,,,145000.0,,"Alto Alegre 	, Rio Branco - AC",casas,https://www.zapimoveis.com.br/imovel/venda-casa-2-quartos-alto-alegre-rio-branco-ac-75m2-id-2652943432/,-9.92805,-67.826,-0.08571577500575912,0.11319376643618777
,,204.0,,2.0,,,,2654402253,,,,,,2.0,,,,,370000.0,,"LBA Vila Betel ll, Rio Branco - AC",casas,https://www.zapimoveis.com.br/imovel/venda-casa-2-quartos-lba-vila-betel-ll-rio-branco-ac-204m2-id-2654402253/,-9.97822,-67.84194,-0.09410595578845296,0.07988049300688144
,,160.0,,2.0,,,,2635916057,,,,,,3.0,,,,2.0,420000.0,,"Waldemar Maciel, Rio Branco - AC",casas,https://www.zapimoveis.com.br/imovel/venda-casa-3-quartos-waldemar-maciel-rio-branco-ac-160m2-id-2635916057/,-9.97996,-67.87009,-0.1089229939962895,0.07872511936193448
,,91.0,,1.0,,,,2648750791,,,,,,2.0,,,,,170000.0,,"Conquista, Rio Branco - AC",casas,https://www.zapimoveis.com.br/imovel/venda-casa-2-quartos-conquista-rio-branco-ac-91m2-id-2648750791/,-9.95282,-67.83416,-0.09001087382550886,0.09674629219174145
0.0,,225.0,0.0,2.0,,0.0,0.0,2641633156,,1.0,1.0,0.0,0.0,3.0,0.0,0.0,0.0,2.0,505000.0,0.0,"Rua Rubens Carneiro, 680 - Abrahao Alab, Rio Branco - AC",casas,https://www.zapimoveis.com.br/imovel/venda-casa-3-quartos-com-piscina-abrahao-alab-rio-branco-ac-225m2-id-2641633156/,-9.971550013857,-67.827360037634,-0.08643164461808872,0.08430941611135555
0.0,,572.0,0.0,5.0,,0.0,0.0,2619116719,,1.0,0.0,0.0,0.0,5.0,0.0,0.0,0.0,4.0,900000.0,0.0,"Rua Laranja, 247 - Morada do Sol, Rio Branco - AC",sobrados,https://www.zapimoveis.com.br/imovel/venda-sobrados-5-quartos-com-piscina-morada-do-sol-rio-branco-ac-572m2-id-2619116719/,-9.964671798225,-67.79907138341,-0.07154162435218771,0.08887660522944481
,,92.0,,1.0,,,,2654287591,486.0,,,,,3.0,,,,,345000.0,,"Vilage Wilde Maciel, Rio Branco - AC",casas,https://www.zapimoveis.com.br/imovel/venda-casa-3-quartos-vilage-wilde-maciel-rio-branco-ac-92m2-id-2654287591/,-9.97388,-67.80756,-0.07600969384936924,0.08276228704083043
0.0,,300.0,0.0,2.0,,0.0,1.0,2619335510,,1.0,0.0,0.0,0.0,4.0,1.0,0.0,0.0,2.0,350000.0,0.0,"Rua Gaivota, 10 - Conjunto Ouricuri, Rio Branco - AC",casas,https://www.zapimoveis.com.br/imovel/venda-casa-4-quartos-com-piscina-conjunto-ouricuri-rio-branco-ac-300m2-id-2619335510/,-9.935759999759,-67.807429967358,-0.0759412498484938,0.10807426613498321
,,92.0,,2.0,,,,2638225105,,,,,,2.0,,,,2.0,230000.0,,"Loteamento Jaguar, Rio Branco - AC",casas,https://www.zapimoveis.com.br/imovel/venda-casa-2-quartos-com-jardim-loteamento-jaguar-rio-branco-ac-92m2-id-2638225105/,-9.93145,-67.81023,-0.07741507544848265,0.1109361397736481
,,165.0,,4.0,,,,2643146695,,,,,,4.0,,,,3.0,350000.0,,"7º BEC, Rio Branco - AC",casas,https://www.zapimoveis.com.br/imovel/venda-casa-4-quartos-com-frente-para-o-mar-7-bec-rio-branco-ac-165m2-id-2643146695/,-9.969460007255,-67.800095005799,-0.07208041838587116,0.08569719688475547
0.0,,108.0,0.0,3.0,355.0,0.0,0.0,2589783457,,1.0,1.0,1.0,1.0,3.0,1.0,0.0,0.0,2.0,400000.0,0.0,"Avenida Eugênio Beco Bezerra, 100 - Sao Francisco, Rio Branco - AC",casas,https://www.zapimoveis.com.br/imovel/venda-casa-3-quartos-com-piscina-sao-francisco-rio-branco-ac-108m2-id-2589783457/,-9.957554899688,-67.800691528179,-0.07239440399497943,0.09360228166818693
0.0,2.0,200.0,1.0,3.0,,0.0,0.0,2643477118,,0.0,0.0,0.0,0.0,3.0,0.0,0.0,0.0,5.0,500000.0,0.0,"Rua José Machado, 73 - Floresta Sul, Rio Branco - AC",casas,https://www.zapimoveis.com.br/imovel/venda-casa-3-quartos-com-jardim-floresta-sul-rio-branco-ac-200m2-id-2643477118/,-9.989743417144,-67.850722650707,-0.09872879312741292,0.07222885365750885
0.0,,114.0,0.0,3.0,,0.0,1.0,2641603954,,1.0,1.0,1.0,1.0,4.0,1.0,0.0,0.0,2.0,580000.0,0.0,"Avenida Recanto Verde, 310 - Conjunto Mariana, Rio Branco - AC",casas_de_condominio,https://www.zapimoveis.com.br/imovel/venda-casa-de-condominio-4-quartos-com-piscina-conjunto-mariana-rio-branco-ac-114m2-id-2641603954/,-9.962130011973,-67.84608499978,-0.09628771849224903,0.090564371233266
,,188.0,,2.0,,,,2650643878,,,,,,4.0,,,,2.0,400000.0,,"Rua Santa Inês, 94 - Bosque, Rio Branco - AC",casas,https://www.zapimoveis.com.br/imovel/venda-casa-4-quartos-bosque-rio-branco-ac-188m2-id-2650643878/,-9.957949998769,-67.810370003716,-0.07748876782536307,0.09333993278006701
,,48.0,,3.0,,,,2629537181,,,,,,2.0,,,,2.0,221000.0,,"Rua Zaire, 556 - Jorge Lavocat, Rio Branco - AC",casas,https://www.zapimoveis.com.br/imovel/venda-casa-2-quartos-jorge-lavocat-rio-branco-ac-48m2-id-2629537181/,-9.929883410471,-67.841083157643,-0.09365494811734498,0.11197636750597964
0.0,,206.0,0.0,4.0,,0.0,1.0,2649784758,,1.0,0.0,0.0,0.0,3.0,0.0,0.0,0.0,2.0,799000.0,1.0,"Rua Luiz Gonzaga de Oliveira, 123 - Portal da Amazonia, Rio Branco - AC",casas,https://www.zapimoveis.com.br/imovel/venda-casa-3-quartos-com-piscina-portal-da-amazonia-rio-branco-ac-206m2-id-2649784758/,-9.968319753672,-67.87231302683,-0.11009310673082126,0.08645433420564855
0.0,,176.0,1.0,2.0,,0.0,0.0,2643147716,,0.0,0.0,0.0,0.0,2.0,0.0,0.0,0.0,1.0,340000.0,0.0,"Nova Estacao, Rio Branco - AC",casas,https://www.zapimoveis.com.br/imovel/venda-casa-2-quartos-com-churrasqueira-nova-estacao-rio-branco-ac-176m2-id-2643147716/,-9.95421,-67.83117,-0.08843705697856857,0.09582332129146723
,,243.0,,1.0,,,,2557036914,,,,,,3.0,,,,2.0,350000.0,,"Rua Abacabeira, 183 - Vila da Amizade, Rio Branco - AC",casas,https://www.zapimoveis.com.br/imovel/venda-casa-3-quartos-vila-da-amizade-rio-branco-ac-243m2-id-2557036914/,-10.028620003736,-67.803740002124,-0.07399899919635229,0.0464144952931993
,,70.0,,2.0,,,,2641762728,,,,,,2.0,,,,1.0,185000.0,,"Calafate, Rio Branco - AC",casas,https://www.zapimoveis.com.br/imovel/venda-casa-2-quartos-calafate-rio-branco-ac-70m2-id-2641762728/,-9.97769,-67.88752,-0.11809745140170153,0.08023241716310059
,,150.0,,2.0,,,,2654145364,,,,,,3.0,,,,2.0,230000.0,,"Loteamento Santa Helena, Rio Branco - AC",casas,https://www.zapimoveis.com.br/imovel/venda-casa-3-quartos-loteamento-santa-helena-rio-branco-ac-150m2-id-2654145364/,-10.01603,-67.79819,-0.07107769924875733,0.05477435650375021
,,148.0,,1.0,,,,2653497478,600.0,,,,,2.0,,,,2.0,350000.0,,"Rua Almirante Castro e Silva, 195 - Isaura Parente, Rio Branco - AC",casas,https://www.zapimoveis.com.br/imovel/venda-casa-2-quartos-isaura-parente-rio-branco-ac-148m2-id-2653497478/,-9.960030009951,-67.823530010797,-0.08441567111966052,0.09195878904392991
,,288.0,,2.0,,,,2641594523,,,,,,3.0,,,,3.0,330000.0,,"Rua Nordeste, 28 - Conjunto Bela Vista, Rio Branco - AC",casas,https://www.zapimoveis.com.br/imovel/venda-casa-3-quartos-conjunto-bela-vista-rio-branco-ac-288m2-id-2641594523/,-9.97682000975,-67.832350036051,-0.08905818093076162,0.08081009751149826
,,270.0,,1.0,,,,2654396883,,,,,,2.0,,,,6.0,450000.0,,"Nova Esperanca, Rio Branco - AC",casas,https://www.zapimoveis.com.br/imovel/venda-casa-2-quartos-nova-esperanca-rio-branco-ac-270m2-id-2654396883/,-9.97461,-67.84142,-0.09383224851072682,0.08227756131622567
,,204.0,,3.0,,,,2639440372,,,,,,4.0,,,,2.0,450000.0,,"Rua Abacate, 261 - Jardim Tropical, Rio Branco - AC",casas,https://www.zapimoveis.com.br/imovel/venda-casa-4-quartos-jardim-tropical-rio-branco-ac-204m2-id-2639440372/,-9.964126590216,-67.79717180236,-0.07054176058676384,0.0892386276228998
,,150.0,,1.0,,,,2653974077,400.0,,,,,3.0,,,,2.0,265000.0,,"Rua Padre Eustáquio, 57 - Alto Alegre 	, Rio Branco - AC",casas,https://www.zapimoveis.com.br/imovel/venda-casa-3-quartos-alto-alegre-rio-branco-ac-150m2-id-2653974077/,-9.932859986989,-67.827249983245,-0.08637371637344515,0.10999989735594211
,,126.0,,2.0,,,,2654140896,,,,,,2.0,,,,1.0,160000.0,,"Conjunto Rui Lino, Rio Branco - AC",casas,https://www.zapimoveis.com.br/imovel/venda-casa-2-quartos-conjunto-rui-lino-rio-branco-ac-126m2-id-2654140896/,-9.94951,-67.85387,-0.10038543237173968,0.0989441581485079
,,100.0,,1.0,,,,2654400692,,,,,,2.0,,,,2.0,120000.0,,"Loteamento Santo Afonso, Rio Branco - AC",casas,https://www.zapimoveis.com.br/imovel/venda-casa-2-quartos-loteamento-santo-afonso-rio-branco-ac-100m2-id-2654400692/,-10.01555,-67.78206,-0.06258751003766067,0.05509308026787444
,,173.0,,4.0,,,,2565226393,,,,,,3.0,,,,2.0,430000.0,,"Rua Senira Nogueira, 210 - Vila Ivonete, Rio Branco - AC",casas,https://www.zapimoveis.com.br/imovel/venda-casa-3-quartos-vila-ivonete-rio-branco-ac-173m2-id-2565226393/,-9.951999979071,-67.821079980499,-0.0831260728057736,0.09729079251913887
,,200.0,,1.0,,,,2653496855,800.0,,,,,3.0,,,,2.0,320000.0,,"Rua Formosa, 871 - Nova Estacao, Rio Branco - AC",casas,https://www.zapimoveis.com.br/imovel/venda-casa-3-quartos-nova-estacao-rio-branco-ac-200m2-id-2653496855/,-9.953439990037,-67.830599978487,-0.08813702036978018,0.09633461394525876
0.0,,150.0,1.0,2.0,,0.0,0.0,2651149953,700.0,0.0,0.0,0.0,0.0,3.0,0.0,0.0,0.0,2.0,363000.0,0.0,"Avenida Antônio da Rocha Viana, 1111 - Bosque, Rio Branco - AC",casas,https://www.zapimoveis.com.br/imovel/venda-casa-3-quartos-com-churrasqueira-na-varanda-bosque-rio-branco-ac-150m2-id-2651149953/,-9.96493287259,-67.818366079238,-0.08169758333236828,0.08870324980375988
,,138.0,,2.0,,,,2652815604,,,,,,2.0,,,,2.0,290000.0,,"Rua Margarida, 354 - Nova Esperanca, Rio Branco - AC",casas,https://www.zapimoveis.com.br/imovel/venda-casa-2-quartos-nova-esperanca-rio-branco-ac-138m2-id-2652815604/,-9.974909983564,-67.842100033463,-0.09419019102596142,0.08207836987728144
0.0,,182.0,1.0,1.0,,0.0,0.0,2642125019,,0.0,0.0,0.0,0.0,3.0,0.0,0.0,0.0,2.0,450000.0,0.0,"Conjunto Manoel Juliao, Rio Branco - AC",casas,https://www.zapimoveis.com.br/imovel/venda-casa-3-quartos-com-area-de-servico-conjunto-manoel-juliao-rio-branco-ac-182m2-id-2642125019/,-9.95325,-67.83383,-0.08983717497618553,0.09646076881971333
,,,,,,,,2655328898,,,,,,,,,,,210000.0,,"Rua Ubatuba, 02 - Vilage Wilde Maciel, Rio Branco - AC",terrenos_lotes_e_condominios,https://www.zapimoveis.com.br/imovel/venda-terreno-lote-condominio-vilage-wilde-maciel-rio-branco-ac-id-2655328898/,-9.95427722084,-67.820455247104,-0.08279723804259692,0.09577868612656647
,,485.0,,,,,,2655329181,823.0,,,,,,,,,,300000.0,,"Beco Carambola, 201 - Bosque, Rio Branco - AC",terrenos_lotes_e_condominios,https://www.zapimoveis.com.br/imovel/venda-terreno-lote-condominio-bosque-rio-branco-ac-485m2-id-2655329181/,-9.92548255794,-67.832304446115,-0.08903418420523737,0.11489856809771232
0.0,,360.0,0.0,,387.0,0.0,1.0,2554968858,,1.0,1.0,1.0,1.0,,1.0,0.0,0.0,,250000.0,0.0,"Estrada do Calafate, 10 - Portal da Amazonia, Rio Branco - AC",terrenos_lotes_e_condominios,https://www.zapimoveis.com.br/imovel/venda-terreno-lote-condominio-com-piscina-portal-da-amazonia-rio-branco-ac-360m2-id-2554968858/,-9.978187661004,-67.872310336277,-0.11009169053094016,0.0799019663538255
,,,,,,,,2622639956,,,,,,,,,,,1800000.0,,"Estrada da Invernada - Morada do Sol, Rio Branco - AC",terrenos_lotes_e_condominios,https://www.zapimoveis.com.br/imovel/venda-terreno-lote-condominio-morada-do-sol-rio-branco-ac-id-2622639956/,-9.965375002923,-67.791849979103,-0.06774056490171337,0.088409671795495
,,1680.0,,,,,,2619204101,,,,,,,,,,,800000.0,,"Rua Alexandre Farhat, 71 - Bosque, Rio Branco - AC",terrenos_lotes_e_condominios,https://www.zapimoveis.com.br/imovel/venda-terreno-lote-condominio-bosque-rio-branco-ac-1680m2-id-2619204101/,-9.967179982908,-67.81069002478,-0.07765721416044591,0.08721115093094005
,,,,,,,,2647778954,,,,,,,,,,,250000.0,,"Travessa Macauã, 105 - Conjunto Mariana, Rio Branco - AC",terrenos_lotes_e_condominios,https://www.zapimoveis.com.br/imovel/venda-terreno-lote-condominio-conjunto-mariana-rio-branco-ac-id-2647778954/,-9.960736000272,-67.845269956173,-0.09585871201743387,0.09149000593446358
,,252.0,,,,,,2641544056,,,,,,,,,,,98000.0,,"Jardim Tropical, Rio Branco - AC",terrenos_lotes_e_condominios,https://www.zapimoveis.com.br/imovel/venda-terreno-lote-condominio-jardim-tropical-rio-branco-ac-252m2-id-2641544056/,-9.96032,-67.79508,-0.06944071918387448,0.09176623337731434
,,267.0,,,,,,2641768857,,,,,,,,,,,150000.0,,"Portal da Amazonia, Rio Branco - AC",terrenos_lotes_e_condominios,https://www.zapimoveis.com.br/imovel/venda-terreno-lote-condominio-portal-da-amazonia-rio-branco-ac-267m2-id-2641768857/,-9.97321,-67.86036,-0.10380150974185741,0.08320717229491889
,,138.0,,1.0,,,,2619213199,,,,,,1.0,,,,2.0,858528.0,,"Avenida Getúlio Vargas, 2134 - Bosque, Rio Branco - AC",terrenos_lotes_e_condominios,https://www.zapimoveis.com.br/imovel/venda-terreno-lote-condominio-1-quarto-bosque-rio-branco-ac-138m2-id-2619213199/,-9.959119986724,-67.816330039788,-0.08062589330311896,0.09256305160299057
,,360.0,,,,,,2644457962,,,,,,,,,,,250000.0,,"Conjunto Mariana, Rio Branco - AC",terrenos_lotes_e_condominios,https://www.zapimoveis.com.br/imovel/venda-terreno-lote-condominio-conjunto-mariana-rio-branco-ac-360m2-id-2644457962/,-9.95749,-67.85033,-0.09852211744258388,0.09364537556995772
,,252.0,,,,,,2646778158,,,,,,,,,,,135000.0,,"Portal da Amazonia, Rio Branco - AC",terrenos_lotes_e_condominios,https://www.zapimoveis.com.br/imovel/venda-terreno-lote-condominio-portal-da-amazonia-rio-branco-ac-252m2-id-2646778158/,-9.97321,-67.86036,-0.10380150974185741,0.08320717229491889
,,484.0,,,,,,2652947866,,,,,,,,,,,138000.0,,"Loteamento Novo Horizonte, Rio Branco - AC",terrenos_lotes_e_condominios,https://www.zapimoveis.com.br/imovel/venda-terreno-lote-condominio-loteamento-novo-horizonte-rio-branco-ac-484m2-id-2652947866/,-9.97853,-67.8341,-0.08997929221654506,0.07967465057588584
,,300.0,,,,,,2635475821,,,,,,,,,,,55000.0,,"Loteamento Jaguar, Rio Branco - AC",terrenos_lotes_e_condominios,https://www.zapimoveis.com.br/imovel/venda-terreno-lote-condominio-loteamento-jaguar-rio-branco-ac-300m2-id-2635475821/,-9.93145,-67.81023,-0.07741507544848265,0.1109361397736481
,,460.0,,,,,,2635916155,,,,,,,,,,,398000.0,,"Floresta Sul, Rio Branco - AC",terrenos_lotes_e_condominios,https://www.zapimoveis.com.br/imovel/venda-terreno-lote-condominio-floresta-sul-rio-branco-ac-460m2-id-2635916155/,-9.99108,-67.84832,-0.09746413354213208,0.07134135215974413
,,300.0,,,,,,2641543976,,,,,,,,,,,149000.0,,"Portal da Amazonia, Rio Branco - AC",terrenos_lotes_e_condominios,https://www.zapimoveis.com.br/imovel/venda-terreno-lote-condominio-portal-da-amazonia-rio-branco-ac-300m2-id-2641543976/,-9.97321,-67.86036,-0.10380150974185741,0.08320717229491889
,,360.0,,,,,,2644457963,,,,,,,,,,,250000.0,,"Conjunto Mariana, Rio Branco - AC",terrenos_lotes_e_condominios,https://www.zapimoveis.com.br/imovel/venda-terreno-lote-condominio-conjunto-mariana-rio-branco-ac-360m2-id-2644457963/,-9.95749,-67.85033,-0.09852211744258388,0.09364537556995772
,,265.0,,,,,,2646166612,,,,,,,,,,,99000.0,,"Portal da Amazonia, Rio Branco - AC",terrenos_lotes_e_condominios,https://www.zapimoveis.com.br/imovel/venda-terreno-lote-condominio-portal-da-amazonia-rio-branco-ac-265m2-id-2646166612/,-9.97321,-67.86036,-0.10380150974185741,0.08320717229491889
,,361.0,,,,,,2612640690,,,,,,,,,,,120000.0,,"Rua Frei Caneca - Doca Furtado, Rio Branco - AC",terrenos_lotes_e_condominios,https://www.zapimoveis.com.br/imovel/venda-terreno-lote-condominio-doca-furtado-rio-branco-ac-361m2-id-2612640690/,-9.969805677745,-67.835116874717,-0.09051453454458419,0.08546766896867344
1.0,,553.0,0.0,,,0.0,1.0,2640471553,,1.0,1.0,1.0,1.0,,1.0,0.0,0.0,,510000.0,0.0,"Estrada da Floresta, 2000 - Floresta Sul, Rio Branco - AC",terrenos_lotes_e_condominios,https://www.zapimoveis.com.br/imovel/venda-terreno-lote-condominio-com-piscina-floresta-sul-rio-branco-ac-553m2-id-2640471553/,-9.986972819146,-67.844681727349,-0.09554909180570532,0.07406855245499833
,,936.0,,,,,,2619199396,,,,,,,,,,,936000.0,,"Rua José de Melo, 360 - Bosque, Rio Branco - AC",terrenos_lotes_e_condominios,https://www.zapimoveis.com.br/imovel/venda-terreno-lote-condominio-bosque-rio-branco-ac-936m2-id-2619199396/,-9.967710380794,-67.814324955814,-0.07957049700284764,0.0868589625752969
,,361.0,,,,,,2611985268,,,,,,,,,,,120000.0,,"Rua Frei Caneca, SN - Doca Furtado, Rio Branco - AC",terrenos_lotes_e_condominios,https://www.zapimoveis.com.br/imovel/venda-terreno-lote-condominio-doca-furtado-rio-branco-ac-361m2-id-2611985268/,-9.969805677745,-67.835116874717,-0.09051453454458419,0.08546766896867344
,,590.0,,,,,,2619328690,,,,,,,,,,,600000.0,,"Rua Floriano Peixoto, SN - Centro, Rio Branco - AC",terrenos_lotes_e_condominios,https://www.zapimoveis.com.br/imovel/venda-terreno-lote-condominio-com-biblioteca-centro-rio-branco-ac-590m2-id-2619328690/,-9.971434018749,-67.813150100974,-0.07895210023364811,0.08438643777269267
,,252.0,,,,,,2641543975,,,,,,,,,,,98000.0,,"Jardim Tropical, Rio Branco - AC",terrenos_lotes_e_condominios,https://www.zapimoveis.com.br/imovel/venda-terreno-lote-condominio-jardim-tropical-rio-branco-ac-252m2-id-2641543975/,-9.96032,-67.79508,-0.06944071918387448,0.09176623337731434
1.0,,430.0,0.0,,,0.0,1.0,2552680952,,1.0,1.0,1.0,1.0,,0.0,0.0,0.0,,350000.0,0.0,"Rodovia BR-364, 10 - Portal da Amazonia, Rio Branco - AC",terrenos_lotes_e_condominios,https://www.zapimoveis.com.br/imovel/venda-terreno-lote-condominio-com-piscina-portal-da-amazonia-rio-branco-ac-430m2-id-2552680952/,-9.978729994026,-67.849295017239,-0.09797734376179659,0.07954185297428307
,,520000.0,,,,,,2645145060,,,,,,,,,,,14650000.0,,"Vila Albert Sampaio, Rio Branco - AC",terrenos_lotes_e_condominios,https://www.zapimoveis.com.br/imovel/venda-terreno-lote-condominio-vila-albert-sampaio-rio-branco-ac-520000m2-id-2645145060/,-10.017199995936,-67.698729968489,-0.01872590219545153,0.05399747002722786
,,360.0,,,,,,2644457966,,,,,,,,,,,250000.0,,"Conjunto Mariana, Rio Branco - AC",terrenos_lotes_e_condominios,https://www.zapimoveis.com.br/imovel/venda-terreno-lote-condominio-conjunto-mariana-rio-branco-ac-360m2-id-2644457966/,-9.95749,-67.85033,-0.09852211744258388,0.09364537556995772
,,1040.0,,,,,,2612640874,,,,,,,,,,,130000.0,,"Rua Matilde Lemos de Moura Leite - Floresta Sul, Rio Branco - AC",terrenos_lotes_e_condominios,https://www.zapimoveis.com.br/imovel/venda-terreno-lote-condominio-floresta-sul-rio-branco-ac-1040m2-id-2612640874/,-9.968269123423,-67.87386980668,-0.11091253360537603,0.08648795308802396
,,,,,,,,2610677324,,,,,,,,,,,35000.0,,"Rua Roxinol, SN - Loteamento Jaguar, Rio Branco - AC",terrenos_lotes_e_condominios,https://www.zapimoveis.com.br/imovel/venda-terreno-lote-condominio-loteamento-jaguar-rio-branco-ac-id-2610677324/,-9.93041070782,-67.808174077247,-0.07633291964089574,0.1116262379312178
,,260.0,,,,,,2644457964,,,,,,,,,,,135000.0,,"Portal da Amazonia, Rio Branco - AC",terrenos_lotes_e_condominios,https://www.zapimoveis.com.br/imovel/venda-terreno-lote-condominio-portal-da-amazonia-rio-branco-ac-260m2-id-2644457964/,-9.97321,-67.86036,-0.10380150974185741,0.08320717229491889
,,302.0,,,,,,2613361007,,,,,,,,,,,230000.0,,"Rua Fontenele de Castro - Estacao Experimental, Rio Branco - AC",terrenos_lotes_e_condominios,https://www.zapimoveis.com.br/imovel/venda-terreno-lote-condominio-estacao-experimental-rio-branco-ac-302m2-id-2613361007/,-9.963789523765,-67.833713774838,-0.0897759986825404,0.08946244238961393
,,261.0,,,,,,2611344954,,,,,,,,,,,120000.0,,"Rua Pardal, Q 219 L 16 - Loteamento Jaguar, Rio Branco - AC",terrenos_lotes_e_condominios,https://www.zapimoveis.com.br/imovel/venda-terreno-lote-condominio-loteamento-jaguar-rio-branco-ac-261m2-id-2611344954/,-9.93145,-67.81023,-0.07741507544848265,0.1109361397736481
,,300.0,,,,,,2653181558,,,,,,,,,,,199800.0,,"Portal da Amazonia, Rio Branco - AC",terrenos_lotes_e_condominios,https://www.zapimoveis.com.br/imovel/venda-terreno-lote-condominio-portal-da-amazonia-rio-branco-ac-300m2-id-2653181558/,-9.97321,-67.86036,-0.10380150974185741,0.08320717229491889
,,378.0,,,,,,2635916058,,,,,,,,,,,320000.0,,"Portal da Amazonia, Rio Branco - AC",terrenos_lotes_e_condominios,https://www.zapimoveis.com.br/imovel/venda-terreno-lote-condominio-portal-da-amazonia-rio-branco-ac-378m2-id-2635916058/,-9.97321,-67.86036,-0.10380150974185741,0.08320717229491889
,,275.0,,,,,,2619184508,,,,,,,,,,3.0,120000.0,,"Avenida Norte, 291 - Conjunto Tucuma, Rio Branco - AC",terrenos_lotes_e_condominios,https://www.zapimoveis.com.br/imovel/venda-terreno-lote-condominio-conjunto-tucuma-rio-branco-ac-275m2-id-2619184508/,-9.946759990392,-67.861029975052,-0.10415415791037821,0.10077018609358541
,,434.0,,,,,,2501981174,,,,,,,,,,,190000.0,,"Rua Ubatuba, 233 - Vilage Wilde Maciel, Rio Branco - AC",terrenos_lotes_e_condominios,https://www.zapimoveis.com.br/imovel/venda-terreno-lote-condominio-vilage-wilde-maciel-rio-branco-ac-434m2-id-2501981174/,-9.954699999632,-67.821090038782,-0.08313136708512225,0.09549795769327939
,,360.0,,,,,,2644458360,,,,,,,,,,,250000.0,,"Conjunto Mariana, Rio Branco - AC",terrenos_lotes_e_condominios,https://www.zapimoveis.com.br/imovel/venda-terreno-lote-condominio-conjunto-mariana-rio-branco-ac-360m2-id-2644458360/,-9.95749,-67.85033,-0.09852211744258388,0.09364537556995772
1.0,,450.0,0.0,,,0.0,1.0,2654789197,,1.0,1.0,1.0,1.0,,1.0,0.0,0.0,,330000.0,0.0,"Estrada do Calafate, SN - Calafate, Rio Branco - AC",terrenos_lotes_e_condominios,https://www.zapimoveis.com.br/imovel/venda-terreno-lote-condominio-com-piscina-calafate-rio-branco-ac-450m2-id-2654789197/,-9.979098947893,-67.889778663385,-0.11928632179865621,0.07929686471328734
,,260.0,,,,,,2644458359,,,,,,,,,,,135000.0,,"Portal da Amazonia, Rio Branco - AC",terrenos_lotes_e_condominios,https://www.zapimoveis.com.br/imovel/venda-terreno-lote-condominio-portal-da-amazonia-rio-branco-ac-260m2-id-2644458359/,-9.97321,-67.86036,-0.10380150974185741,0.08320717229491889
,,,,,,,,2612640689,,,,,,,,,,,90000.0,,"Rua Andiroba - Portal da Amazonia, Rio Branco - AC",terrenos_lotes_e_condominios,https://www.zapimoveis.com.br/imovel/venda-terreno-lote-condominio-portal-da-amazonia-rio-branco-ac-id-2612640689/,-9.975772192423,-67.872742224085,-0.1103190190621201,0.08150585643353003
,,300.0,,,,,,2641544058,,,,,,,,,,,149000.0,,"Portal da Amazonia, Rio Branco - AC",terrenos_lotes_e_condominios,https://www.zapimoveis.com.br/imovel/venda-terreno-lote-condominio-portal-da-amazonia-rio-branco-ac-300m2-id-2641544058/,-9.97321,-67.86036,-0.10380150974185741,0.08320717229491889
0.0,,250.0,1.0,,,0.0,0.0,2651145270,,0.0,0.0,0.0,0.0,,0.0,0.0,0.0,,91000.0,0.0,"Rodovia BR 364, SN - Vila Custodio Freire, Rio Branco - AC",terrenos_lotes_e_condominios,https://www.zapimoveis.com.br/imovel/venda-terreno-lote-condominio-vila-custodio-freire-rio-branco-ac-250m2-id-2651145270/,-9.910971207016,-67.889820331166,-0.11930825405809452,0.12453421890815335
,,360.0,,,,,,2644958459,,,,,,,,,,,210000.0,,"Alameda Portugal, 12 - Jardim Europa, Rio Branco - AC",terrenos_lotes_e_condominios,https://www.zapimoveis.com.br/imovel/venda-terreno-lote-condominio-jardim-europa-rio-branco-ac-360m2-id-2644958459/,-9.969676671898,-67.845351138001,-0.09590144289655936,0.08555332986273577
,,193.0,,,,,,2650509053,800.0,,,,,,,,,,75000.0,,"Rua José Maria Rios, 423 - Santa Quiteria, Rio Branco - AC",terrenos_lotes_e_condominios,https://www.zapimoveis.com.br/imovel/venda-terreno-lote-condominio-santa-quiteria-rio-branco-ac-193m2-id-2650509053/,-9.950310019753,-67.827319972137,-0.08641055573710442,0.09841293875882269
,,158.0,,,,,,2654256256,,,,,,,,,,,107000.0,,"Avenida Epaminondas Jácome, 338 - Floresta Sul, Rio Branco - AC",terrenos_lotes_e_condominios,https://www.zapimoveis.com.br/imovel/venda-terreno-lote-condominio-floresta-sul-rio-branco-ac-158m2-id-2654256256/,-9.966954304733,-67.787467602672,-0.06543385658841391,0.0873610030088917
1.0,,300.0,0.0,,,0.0,1.0,2636058651,,1.0,1.0,1.0,1.0,,1.0,0.0,1.0,,210000.0,0.0,"Via Verde, 5500 - Praia do Amapa, Rio Branco - AC",terrenos_lotes_e_condominios,https://www.zapimoveis.com.br/imovel/venda-terreno-lote-condominio-com-piscina-praia-do-amapa-rio-branco-ac-300m2-id-2636058651/,-9.999689423028,-67.849692928722,-0.09818678850947096,0.06562462775471455
,,2500.0,,,,,,2654255290,,,,,,,,,,,120000.0,,"Avenida Principal, Lote 01 Quadra 04 - Santa Ines, Rio Branco - AC",terrenos_lotes_e_condominios,https://www.zapimoveis.com.br/imovel/venda-terreno-lote-condominio-santa-ines-rio-branco-ac-2500m2-id-2654255290/,-10.014693757374,-67.797380771165,-0.07065175343819889,0.05566163208612764
,,252.0,,,,,,2641540029,,,,,,,,,,,98000.0,,"Jardim Tropical, Rio Branco - AC",terrenos_lotes_e_condominios,https://www.zapimoveis.com.br/imovel/venda-terreno-lote-condominio-jardim-tropical-rio-branco-ac-252m2-id-2641540029/,-9.96032,-67.79508,-0.06944071918387448,0.09176623337731434
,,250.0,,,,,,2653344271,,,,,,,,,,,95000.0,,"Rua Padre Cícero, SN - Conquista, Rio Branco - AC",terrenos_lotes_e_condominios,https://www.zapimoveis.com.br/imovel/venda-terreno-lote-condominio-conquista-rio-branco-ac-250m2-id-2653344271/,-9.951030004281,-67.831204984258,-0.08845547129783551,0.09793486338616665
,1.0,66.0,,2.0,280.0,,,2627353293,1000.0,,,,,3.0,,,,2.0,270000.0,,"Avenida Ascanio, 1893 - Floresta Sul, Rio Branco - AC",casas_comerciais,https://www.zapimoveis.com.br/imovel/venda-casa-3-quartos-floresta-sul-rio-branco-ac-66m2-id-2627353293/,-9.99108,-67.84832,-0.09746413354213208,0.07134135215974413
,,500.0,,4.0,,,,2640093054,,,,,,8.0,,,,7.0,2200000.0,,"Vilage Wilde Maciel, Rio Branco - AC",casas,https://www.zapimoveis.com.br/imovel/venda-casa-8-quartos-vilage-wilde-maciel-rio-branco-ac-500m2-id-2640093054/,-9.97388,-67.80756,-0.07600969384936924,0.08276228704083043
,,140.0,,3.0,,,,2646472887,,,,,,2.0,,,,2.0,677000.0,,"LBA Vila Betel ll, Rio Branco - AC",casas,https://www.zapimoveis.com.br/imovel/venda-casa-2-quartos-lba-vila-betel-ll-rio-branco-ac-140m2-id-2646472887/,-9.97822,-67.84194,-0.09410595578845296,0.07988049300688144
0.0,,103.0,0.0,3.0,,0.0,1.0,2655116169,,1.0,1.0,1.0,0.0,3.0,0.0,0.0,0.0,2.0,590000.0,1.0,"Travessa da Afelétro, 12 - Boa Esperanca, Rio Branco - AC",casas_de_condominio,https://www.zapimoveis.com.br/imovel/venda-casa-de-condominio-3-quartos-com-piscina-boa-esperanca-rio-branco-ac-103m2-id-2655116169/,-9.954480537208,-67.82379132897,-0.08455321859226377,0.0956436824638235
,,225.0,,2.0,,,,2652947868,,,,,,2.0,,,,2.0,365000.0,,"Sao Francisco, Rio Branco - AC",casas,https://www.zapimoveis.com.br/imovel/venda-casa-2-quartos-com-ar-condicionado-sao-francisco-rio-branco-ac-225m2-id-2652947868/,-9.95844,-67.8005,-0.07229359119405054,0.0930145681201306
,,173.0,,2.0,,,,2635394685,,,,,,3.0,,,,2.0,430000.0,,"Rua Senira Nogueira, 210 - Vila Ivonete, Rio Branco - AC",casas,https://www.zapimoveis.com.br/imovel/venda-casa-3-quartos-vila-ivonete-rio-branco-ac-173m2-id-2635394685/,-9.951999979071,-67.821079980499,-0.0831260728057736,0.09729079251913887
0.0,,143.0,0.0,1.0,,0.0,0.0,2646166152,,1.0,0.0,0.0,0.0,3.0,0.0,0.0,0.0,,287000.0,0.0,"Loteamento Joafra, Rio Branco - AC",casas,https://www.zapimoveis.com.br/imovel/venda-casa-3-quartos-com-piscina-loteamento-joafra-rio-branco-ac-143m2-id-2646166152/,-9.9453,-67.85189,-0.09934323927576978,0.10173963116300655
0.0,,450.0,1.0,3.0,,0.0,0.0,2646777363,,0.0,0.0,0.0,0.0,4.0,0.0,0.0,0.0,3.0,850000.0,0.0,"Conjunto Paulo Cesar de Oliveira, Rio Branco - AC",casas,https://www.zapimoveis.com.br/imovel/venda-casa-4-quartos-com-churrasqueira-conjunto-paulo-cesar-de-oliveira-rio-branco-ac-450m2-id-2646777363/,-9.97388,-67.80756,-0.07600969384936924,0.08276228704083043
,,364.0,,1.0,,,,2646469430,,,,,,5.0,,,,,600000.0,,"Conjunto Universitario, Rio Branco - AC",casas,https://www.zapimoveis.com.br/imovel/venda-casa-5-quartos-conjunto-universitario-rio-branco-ac-364m2-id-2646469430/,-9.94636,-67.88182,-0.11509719854967695,0.10103578285056707
0.0,,160.0,0.0,3.0,,0.0,0.0,2617201340,,1.0,0.0,0.0,0.0,3.0,0.0,0.0,0.0,,960000.0,0.0,"Rodovia BR-364 - Distrito Industrial, Rio Branco - AC",casas,https://www.zapimoveis.com.br/imovel/venda-casa-3-quartos-com-piscina-distrito-industrial-rio-branco-ac-160m2-id-2617201340/,-9.949571696992,-67.865677506309,-0.10660043315751659,0.09890319086199638
,,333.0,,2.0,,,,2651089859,,,,,,3.0,,,,,800000.0,,"Jose Augusto, Rio Branco - AC",casas,https://www.zapimoveis.com.br/imovel/venda-casa-3-quartos-jose-augusto-rio-branco-ac-333m2-id-2651089859/,-9.96482,-67.80996,-0.07727295820812312,0.08877819808865806
1.0,,191.0,1.0,2.0,,0.0,1.0,2651168782,,1.0,1.0,1.0,1.0,3.0,1.0,0.0,0.0,2.0,1100000.0,1.0,"Rua Gênova, 50 - Jardim Europa, Rio Branco - AC",casas_de_condominio,https://www.zapimoveis.com.br/imovel/venda-casa-de-condominio-3-quartos-mobiliado-jardim-europa-rio-branco-ac-191m2-id-2651168782/,-9.970951897107,-67.84977917354,-0.09823218434476155,0.08470657032374139
,,300.0,,1.0,,,,2600433855,,,,,,2.0,,,,,680000.0,,"Vila Ivonete, Rio Branco - AC",casas,https://www.zapimoveis.com.br/imovel/venda-casa-2-quartos-vila-ivonete-rio-branco-ac-300m2-id-2600433855/,-9.94936,-67.82229,-0.08376297885119342,0.09904375932479621
,,150.0,,1.0,,,,2647592598,,,,,,2.0,,,,,600000.0,,"Jardim Primavera, Rio Branco - AC",casas,https://www.zapimoveis.com.br/imovel/venda-casa-2-quartos-jardim-primavera-rio-branco-ac-150m2-id-2647592598/,-9.96078,-67.85518,-0.10107496416755897,0.09146078977002925
,,250.0,,1.0,,,,2633395891,,,,,,2.0,,,,,260000.0,,"Jardim Brasil, Rio Branco - AC",casas,https://www.zapimoveis.com.br/imovel/venda-casa-2-quartos-jardim-brasil-rio-branco-ac-250m2-id-2633395891/,-9.94966,-67.84775,-0.09716410825693111,0.0988445569722196
,,215.0,,3.0,,,,2641832510,,,,,,5.0,,,,2.0,600000.0,,"Rua Fausto Robalo, 49 - Centro, Rio Branco - AC",casas,https://www.zapimoveis.com.br/imovel/venda-casa-5-quartos-com-churrasqueira-centro-rio-branco-ac-215m2-id-2641832510/,-9.971759980531,-67.809429973275,-0.0769939732619232,0.08416999659327613
,,250.0,,1.0,,,,2624478005,,,,,,4.0,,,,,340000.0,,"Vila Ivonete, Rio Branco - AC",casas,https://www.zapimoveis.com.br/imovel/venda-casa-4-quartos-vila-ivonete-rio-branco-ac-250m2-id-2624478005/,-9.94936,-67.82229,-0.08376297885119342,0.09904375932479621
,,35.0,,1.0,,,,2641299667,,,,,,3.0,,,,,490000.0,,"Waldemar Maciel, Rio Branco - AC",casas,https://www.zapimoveis.com.br/imovel/venda-casa-3-quartos-waldemar-maciel-rio-branco-ac-35m2-id-2641299667/,-9.97996,-67.87009,-0.1089229939962895,0.07872511936193448
,,200.0,,3.0,,,,2632751874,,,,,,4.0,,,,2.0,800000.0,,"Rua Alberto Assad, 344 - Vila Ivonete, Rio Branco - AC",sobrados,https://www.zapimoveis.com.br/imovel/venda-sobrados-4-quartos-vila-ivonete-rio-branco-ac-200m2-id-2632751874/,-9.949439692712,-67.82249348297,-0.08387008417770321,0.09899084273908455
,,130.0,,1.0,,,,2653180015,,,,,,3.0,,,,,378000.0,,"Conjunto Universitario, Rio Branco - AC",casas,https://www.zapimoveis.com.br/imovel/venda-casa-3-quartos-com-churrasqueira-conjunto-universitario-rio-branco-ac-130m2-id-2653180015/,-9.94636,-67.88182,-0.11509719854967695,0.10103578285056707
0.0,,413.0,0.0,2.0,,0.0,0.0,2619103140,,0.0,0.0,0.0,0.0,4.0,0.0,0.0,0.0,3.0,1000000.0,1.0,"Rua Vicente Lucena, 94 - Vila Ivonete, Rio Branco - AC",sobrados,https://www.zapimoveis.com.br/imovel/venda-sobrados-4-quartos-mobiliado-vila-ivonete-rio-branco-ac-413m2-id-2619103140/,-9.947820007777,-67.821569986558,-0.08338399246823981,0.10006632623736952
1.0,,256.0,0.0,4.0,,0.0,1.0,2645005259,,1.0,1.0,1.0,1.0,3.0,1.0,0.0,0.0,3.0,1850000.0,1.0,"Rodovia BR-364, 5000 - Distrito Industrial, Rio Branco - AC",casas_de_condominio,https://www.zapimoveis.com.br/imovel/venda-casa-de-condominio-3-quartos-mobiliado-distrito-industrial-rio-branco-ac-256m2-id-2645005259/,-9.949571696992,-67.865677506309,-0.10660043315751659,0.09890319086199638
,,290.0,,1.0,,,,2635916056,,,,,,2.0,,,,6.0,450000.0,,"Nova Esperanca, Rio Branco - AC",casas,https://www.zapimoveis.com.br/imovel/venda-casa-2-quartos-nova-esperanca-rio-branco-ac-290m2-id-2635916056/,-9.97461,-67.84142,-0.09383224851072682,0.08227756131622567
,,600.0,,1.0,,,,2642438056,,,,,,3.0,,,,,680000.0,,"Aviario, Rio Branco - AC",casas,https://www.zapimoveis.com.br/imovel/venda-casa-3-quartos-aviario-rio-branco-ac-600m2-id-2642438056/,-9.96614,-67.80494,-0.07463063025773813,0.08790170773731908
,,110.0,,1.0,,,,2624478008,,,,,,2.0,,,,,220000.0,,"Portal da Amazonia, Rio Branco - AC",casas,https://www.zapimoveis.com.br/imovel/venda-casa-2-quartos-portal-da-amazonia-rio-branco-ac-110m2-id-2624478008/,-9.97321,-67.86036,-0.10380150974185741,0.08320717229491889
0.0,,184.0,0.0,3.0,,0.0,0.0,2612640688,,1.0,0.0,0.0,0.0,3.0,0.0,0.0,0.0,,680000.0,0.0,"Rua Sorocaba - Doca Furtado, Rio Branco - AC",casas,https://www.zapimoveis.com.br/imovel/venda-casa-3-quartos-com-piscina-doca-furtado-rio-branco-ac-184m2-id-2612640688/,-9.967774103342,-67.835000641851,-0.09045335419585901,0.08681665030371695
,,259.0,,2.0,,,,2633668458,,,,,,5.0,,,,4.0,480000.0,,"Residencial Iolanda, Rio Branco - AC",casas,https://www.zapimoveis.com.br/imovel/venda-casa-5-quartos-residencial-iolanda-rio-branco-ac-259m2-id-2633668458/,-9.96008,-67.83594,-0.09094779489157948,0.09192559525937585
0.0,,200.0,0.0,4.0,,0.0,0.0,2630737658,,1.0,0.0,0.0,0.0,4.0,0.0,0.0,0.0,2.0,800000.0,0.0,"Rua Alberto Assad - Vila Ivonete, Rio Branco - AC",sobrados,https://www.zapimoveis.com.br/imovel/venda-sobrados-4-quartos-com-piscina-vila-ivonete-rio-branco-ac-200m2-id-2630737658/,-9.950794131013,-67.821967757166,-0.08359336306491942,0.09809148508581887
,,200.0,,2.0,,,,2635915862,,,,,,2.0,,,,4.0,315000.0,,"Conjunto Bela Vista, Rio Branco - AC",casas,https://www.zapimoveis.com.br/imovel/venda-casa-2-quartos-com-escritorio-conjunto-bela-vista-rio-branco-ac-200m2-id-2635915862/,-9.97202,-67.83173,-0.08873181866227307,0.08399734162680754
0.0,,220.0,1.0,2.0,,0.0,0.0,2654615920,,0.0,0.0,0.0,0.0,2.0,0.0,0.0,0.0,2.0,1259000.0,1.0,"Estrada de Porto Acre, 520 - Alto Alegre 	, Rio Branco - AC",sobrados,https://www.zapimoveis.com.br/imovel/venda-sobrados-2-quartos-mobiliado-alto-alegre-rio-branco-ac-220m2-id-2654615920/,-9.947570017515,-67.815799968231,-0.08034688475914485,0.10023232173174243
,,36.0,,1.0,,,,2565531882,,,,,,1.0,,,,2.0,160000.0,,"Rua do Coqueiro, 220 - Xavier Maia, Rio Branco - AC",casas,https://www.zapimoveis.com.br/imovel/venda-casa-1-quarto-xavier-maia-rio-branco-ac-36m2-id-2565531882/,-9.934610002644,-67.818199958568,-0.08161014403167444,0.10883787323753284
1.0,,120.0,1.0,2.0,700000.0,0.0,1.0,2644913104,,1.0,0.0,0.0,0.0,3.0,0.0,0.0,0.0,2.0,580000.0,0.0,"Boa Esperanca, Rio Branco - AC",casas_de_condominio,https://www.zapimoveis.com.br/imovel/venda-casa-de-condominio-3-quartos-com-piscina-boa-esperanca-rio-branco-ac-120m2-id-2644913104/,-9.9546,-67.8235,-0.08439987463206308,0.09556435823311739
0.0,,267.0,0.0,4.0,,0.0,0.0,2618378937,,1.0,0.0,0.0,0.0,3.0,0.0,0.0,0.0,,1548000.0,0.0,"Rodovia BR-364, QU U1 LT06 - Distrito Industrial, Rio Branco - AC",casas_de_condominio,https://www.zapimoveis.com.br/imovel/venda-casa-de-condominio-3-quartos-com-piscina-distrito-industrial-rio-branco-ac-267m2-id-2618378937/,-9.949571696992,-67.865677506309,-0.10660043315751659,0.09890319086199638
1.0,,445.0,0.0,6.0,,0.0,1.0,2619210800,,1.0,0.0,1.0,0.0,5.0,0.0,0.0,0.0,4.0,1800000.0,1.0,"Alameda Japim, 540 - Chacara Ipe, Rio Branco - AC",casas_de_condominio,https://www.zapimoveis.com.br/imovel/venda-casa-de-condominio-5-quartos-mobiliado-chacara-ipe-rio-branco-ac-445m2-id-2619210800/,-9.966610013492,-67.87499003479,-0.11150217704080446,0.08758961509282093
0.0,,204.0,0.0,4.0,,0.0,0.0,2635915962,,1.0,0.0,0.0,0.0,4.0,0.0,0.0,0.0,2.0,2350000.0,0.0,"Portal da Amazonia, Rio Branco - AC",casas_de_condominio,https://www.zapimoveis.com.br/imovel/venda-casa-de-condominio-4-quartos-com-piscina-portal-da-amazonia-rio-branco-ac-204m2-id-2635915962/,-9.97321,-67.86036,-0.10380150974185741,0.08320717229491889
1.0,,176.0,0.0,2.0,,0.0,1.0,2619208086,,1.0,1.0,1.0,1.0,3.0,1.0,0.0,1.0,2.0,880000.0,0.0,"Avenida Ceará, 2373 - Dom Giocondo, Rio Branco - AC",casas_de_condominio,https://www.zapimoveis.com.br/imovel/venda-casa-de-condominio-3-quartos-com-piscina-dom-giocondo-rio-branco-ac-176m2-id-2619208086/,-9.970259997049,-67.817789999683,-0.08139435801168507,0.08516599738808042
0.0,20.0,78.0,0.0,2.0,,1.0,0.0,2652947867,,1.0,0.0,0.0,1.0,3.0,0.0,0.0,0.0,2.0,460000.0,1.0,"Residencial Petropolis, Rio Branco - AC",apartamentos,https://www.zapimoveis.com.br/imovel/venda-apartamento-3-quartos-com-piscina-residencial-petropolis-rio-branco-ac-78m2-id-2652947867/,-9.9629,-67.84422,-0.09530605692927177,0.09005309314515145
,,49.0,,1.0,,,,2641762727,,,,,,2.0,,,,1.0,205000.0,,"Floresta Sul, Rio Branco - AC",apartamentos,https://www.zapimoveis.com.br/imovel/venda-apartamento-2-quartos-floresta-sul-rio-branco-ac-49m2-id-2641762727/,-9.99108,-67.84832,-0.09746413354213208,0.07134135215974413
0.0,,110.0,0.0,2.0,800.0,0.0,0.0,2619207109,,0.0,0.0,1.0,0.0,3.0,0.0,0.0,0.0,,580000.0,1.0,"Rua Major Ladislau Ferreira, 1042 - 7 BEC, Rio Branco - AC",apartamentos,https://www.zapimoveis.com.br/imovel/venda-apartamento-3-quartos-mobiliado-7-bec-rio-branco-ac-110m2-id-2619207109/,-9.970489996472,-67.827490040952,-0.08650007318398703,0.08501327596757026
1.0,7.0,80.0,0.0,2.0,,1.0,1.0,2652819502,,1.0,1.0,1.0,0.0,3.0,0.0,0.0,0.0,2.0,550000.0,1.0,"Rua São Mateus, 100 - LBA Vila Betel ll, Rio Branco - AC",apartamentos,https://www.zapimoveis.com.br/imovel/venda-apartamento-3-quartos-mobiliado-lba-vila-betel-ll-rio-branco-ac-80m2-id-2652819502/,-9.963361804011,-67.826269509927,-0.08585763429122535,0.08974645166041477
,,78.0,,1.0,,,,2624490727,,,,,,2.0,,,,,350000.0,,"Portal da Amazonia, Rio Branco - AC",apartamentos,https://www.zapimoveis.com.br/imovel/venda-apartamento-2-quartos-portal-da-amazonia-rio-branco-ac-78m2-id-2624490727/,-9.97321,-67.86036,-0.10380150974185741,0.08320717229491889
,,55.0,,2.0,,,,2638915359,,,,,,2.0,,,,,405000.0,,"Floresta Sul, Rio Branco - AC",apartamentos,https://www.zapimoveis.com.br/imovel/venda-apartamento-2-quartos-floresta-sul-rio-branco-ac-55m2-id-2638915359/,-9.99108,-67.84832,-0.09746413354213208,0.07134135215974413
0.0,12.0,77.0,1.0,1.0,700.0,1.0,0.0,2635915961,80.0,1.0,0.0,0.0,1.0,3.0,0.0,0.0,0.0,2.0,479000.0,0.0,"Residencial Petropolis, Rio Branco - AC",apartamentos,https://www.zapimoveis.com.br/imovel/venda-apartamento-3-quartos-com-piscina-residencial-petropolis-rio-branco-ac-77m2-id-2635915961/,-9.9629,-67.84422,-0.09530605692927177,0.09005309314515145
1.0,,300.0,0.0,6.0,,1.0,1.0,2619208658,,1.0,1.0,1.0,0.0,5.0,1.0,0.0,1.0,4.0,2200000.0,0.0,"Rua Severina Maria de Sousa e Silva, 161 - Jardim Manoel Juliao, Rio Branco - AC",apartamentos,https://www.zapimoveis.com.br/imovel/venda-apartamento-5-quartos-mobiliado-jardim-manoel-juliao-rio-branco-ac-300m2-id-2619208658/,-9.957292270447,-67.824093366504,-0.08471219911380751,0.09377666954372935
0.0,6.0,67.0,0.0,2.0,,0.0,0.0,2612900004,,1.0,0.0,0.0,0.0,2.0,0.0,0.0,0.0,1.0,420000.0,1.0,"Rua São Mateus, 0 - Floresta Sul, Rio Branco - AC",apartamentos,https://www.zapimoveis.com.br/imovel/venda-apartamento-2-quartos-com-piscina-floresta-sul-rio-branco-ac-67m2-id-2612900004/,-9.972959996654,-67.846100003387,-0.09629561579306685,0.08337317647717019
0.0,15.0,63.0,0.0,2.0,,1.0,1.0,2635915960,,0.0,1.0,0.0,0.0,2.0,0.0,0.0,0.0,,365000.0,0.0,"Centro, Rio Branco - AC",apartamentos,https://www.zapimoveis.com.br/imovel/venda-apartamento-2-quartos-com-churrasqueira-centro-rio-branco-ac-63m2-id-2635915960/,-9.97107,-67.81032,-0.07746244786193583,0.08462814907663585
0.0,10.0,49.0,0.0,1.0,,1.0,1.0,2638008665,,1.0,1.0,0.0,1.0,2.0,0.0,0.0,0.0,,240000.0,0.0,"Centro, Rio Branco - AC",apartamentos,https://www.zapimoveis.com.br/imovel/venda-apartamento-2-quartos-com-piscina-centro-rio-branco-ac-49m2-id-2638008665/,-9.97107,-67.81032,-0.07746244786193583,0.08462814907663585
,,53.0,,1.0,,,,2648750148,,,,,,2.0,,,,1.0,240000.0,,"Alto Alegre 	, Rio Branco - AC",apartamentos,https://www.zapimoveis.com.br/imovel/venda-apartamento-2-quartos-com-frente-para-o-mar-alto-alegre-rio-branco-ac-53m2-id-2648750148/,-9.92805,-67.826,-0.08571577500575912,0.11319376643618777
,,67.0,,1.0,,,,2651080039,,,,,,3.0,,,,2.0,420000.0,,"Floresta Sul, Rio Branco - AC",apartamentos,https://www.zapimoveis.com.br/imovel/venda-apartamento-3-quartos-floresta-sul-rio-branco-ac-67m2-id-2651080039/,-9.99108,-67.84832,-0.09746413354213208,0.07134135215974413
0.0,,75.0,1.0,1.0,,0.0,0.0,2649430086,,0.0,0.0,0.0,1.0,3.0,0.0,0.0,0.0,1.0,290000.0,1.0,"Floresta Sul, Rio Branco - AC",apartamentos,https://www.zapimoveis.com.br/imovel/venda-apartamento-3-quartos-com-cozinha-floresta-sul-rio-branco-ac-75m2-id-2649430086/,-9.99108,-67.84832,-0.09746413354213208,0.07134135215974413
0.0,6.0,102.0,0.0,2.0,780.0,1.0,1.0,2641617423,,1.0,1.0,1.0,1.0,3.0,1.0,0.0,0.0,2.0,550000.0,1.0,"Estrada da Invernada, 563 - Morada do Sol, Rio Branco - AC",apartamentos,https://www.zapimoveis.com.br/imovel/venda-apartamento-3-quartos-com-piscina-morada-do-sol-rio-branco-ac-102m2-id-2641617423/,-9.965375002923,-67.791849979103,-0.06774056490171337,0.088409671795495
0.0,8.0,68.0,1.0,2.0,,1.0,0.0,2575808387,,1.0,0.0,0.0,1.0,2.0,0.0,0.0,0.0,,414600.0,1.0,"Nova Esperanca, Rio Branco - AC",apartamentos,https://www.zapimoveis.com.br/imovel/venda-apartamento-2-quartos-com-piscina-nova-esperanca-rio-branco-ac-68m2-id-2575808387/,-9.97461,-67.84142,-0.09383224851072682,0.08227756131622567
,,63.0,,2.0,,,,2635475820,,,,,,3.0,,,,1.0,250000.0,,"Floresta Sul, Rio Branco - AC",apartamentos,https://www.zapimoveis.com.br/imovel/venda-apartamento-3-quartos-floresta-sul-rio-branco-ac-63m2-id-2635475820/,-9.99108,-67.84832,-0.09746413354213208,0.07134135215974413
,,66.0,,1.0,,,,2631548177,,,,,,3.0,,,,2.0,350000.0,,"Floresta Sul, Rio Branco - AC",apartamentos,https://www.zapimoveis.com.br/imovel/venda-apartamento-3-quartos-floresta-sul-rio-branco-ac-66m2-id-2631548177/,-9.99108,-67.84832,-0.09746413354213208,0.07134135215974413
1.0,,110.0,0.0,2.0,,1.0,1.0,2619200981,,1.0,1.0,1.0,0.0,3.0,1.0,0.0,1.0,2.0,550000.0,1.0,"Rua Major Ladislau Ferreira, 1042 - 7 BEC, Rio Branco - AC",apartamentos,https://www.zapimoveis.com.br/imovel/venda-apartamento-3-quartos-mobiliado-7-bec-rio-branco-ac-110m2-id-2619200981/,-9.970489996472,-67.827490040952,-0.08650007318398703,0.08501327596757026
,,49.0,,1.0,,,,2655389586,,,,,,2.0,,,,1.0,150000.0,,"Loteamento dos Engenheiros, Rio Branco - AC",apartamentos,https://www.zapimoveis.com.br/imovel/venda-apartamento-2-quartos-loteamento-dos-engenheiros-rio-branco-ac-49m2-id-2655389586/,-9.9627,-67.84076,-0.09348485081207268,0.09018589471353586
,,72.0,,1.0,,,,2648573185,,,,,,2.0,,,,1.0,240000.0,,"Jardim Europa, Rio Branco - AC",apartamentos,https://www.zapimoveis.com.br/imovel/venda-apartamento-2-quartos-jardim-europa-rio-branco-ac-72m2-id-2648573185/,-9.97121,-67.8514,-0.09908532280252554,0.08453518797876652
1.0,,67.0,0.0,2.0,,1.0,1.0,2618825996,,1.0,1.0,1.0,1.0,2.0,1.0,0.0,0.0,1.0,420000.0,1.0,"Rua São Mateus, 1 - Nova Esperanca, Rio Branco - AC",apartamentos,https://www.zapimoveis.com.br/imovel/venda-apartamento-2-quartos-com-piscina-nova-esperanca-rio-branco-ac-67m2-id-2618825996/,-9.97582348529,-67.846443236284,-0.09647627991204269,0.0814717975676067
,,48.0,,1.0,,,,2617193299,,,,,,2.0,,,,1.0,120000.0,,"Rua Aderbal Brasil, 124 - Conjunto Manoel Juliao, Rio Branco - AC",apartamentos,https://www.zapimoveis.com.br/imovel/venda-apartamento-2-quartos-conjunto-manoel-juliao-rio-branco-ac-48m2-id-2617193299/,-9.957841340274,-67.833818087925,-0.08983090493460269,0.09341208287283853
,,81.0,,1.0,,,,2635915861,,,,,,2.0,,,,1.0,285000.0,,"Bosque, Rio Branco - AC",apartamentos,https://www.zapimoveis.com.br/imovel/venda-apartamento-2-quartos-bosque-rio-branco-ac-81m2-id-2635915861/,-9.96263,-67.8149,-0.07987317734654392,0.09023237526246992
,,66.0,,1.0,,,,2638906930,,,,,,3.0,,,,,458000.0,,"Floresta Sul, Rio Branco - AC",apartamentos,https://www.zapimoveis.com.br/imovel/venda-apartamento-3-quartos-floresta-sul-rio-branco-ac-66m2-id-2638906930/,-9.99108,-67.84832,-0.09746413354213208,0.07134135215974413
0.0,3.0,92.0,0.0,1.0,500.0,0.0,0.0,2639161258,,0.0,1.0,0.0,0.0,3.0,0.0,0.0,0.0,1.0,440000.0,0.0,"Rua Jambo, 40 - Morada do Sol, Rio Branco - AC",apartamentos,https://www.zapimoveis.com.br/imovel/venda-apartamento-3-quartos-com-playground-morada-do-sol-rio-branco-ac-92m2-id-2639161258/,-9.966710009597,-67.798020023759,-0.0709882305291308,0.0875232168949392
,2.0,49.0,,1.0,,,,2637324867,,,,,,2.0,,,,1.0,145000.0,,"Rua Aderbal Brasil, 136 - Conjunto Manoel Juliao, Rio Branco - AC",apartamentos,https://www.zapimoveis.com.br/imovel/venda-apartamento-2-quartos-conjunto-manoel-juliao-rio-branco-ac-49m2-id-2637324867/,-9.957742970983,-67.8338114219,-0.08982739620468656,0.09347740085346637
0.0,4.0,67.0,1.0,2.0,330.0,0.0,0.0,2646311396,550.0,0.0,1.0,1.0,1.0,2.0,1.0,0.0,0.0,1.0,235000.0,0.0,"Estrada de Porto Acre, 1528 - Alto Alegre 	, Rio Branco - AC",apartamentos,https://www.zapimoveis.com.br/imovel/venda-apartamento-2-quartos-com-churrasqueira-alto-alegre-rio-branco-ac-67m2-id-2646311396/,-9.916298611881,-67.820917555821,-0.08304057892798486,0.1209967803006917
0.0,2.0,53.0,1.0,1.0,330.0,0.0,0.0,2646300711,550.0,0.0,1.0,1.0,1.0,2.0,1.0,0.0,0.0,2.0,260000.0,0.0,"Estrada de Porto Acre, 1528 - Alto Alegre 	, Rio Branco - AC",apartamentos,https://www.zapimoveis.com.br/imovel/venda-apartamento-2-quartos-com-churrasqueira-alto-alegre-rio-branco-ac-53m2-id-2646300711/,-9.916298611881,-67.820917555821,-0.08304057892798486,0.1209967803006917
0.0,,71.0,1.0,2.0,,0.0,0.0,2644958972,,0.0,1.0,1.0,0.0,3.0,0.0,0.0,0.0,1.0,330000.0,0.0,"Alameda Pirarucú, 155 - Portal da Amazonia, Rio Branco - AC",apartamentos,https://www.zapimoveis.com.br/imovel/venda-apartamento-3-quartos-portal-da-amazonia-rio-branco-ac-71m2-id-2644958972/,-9.975068528462,-67.853865179657,-0.10038289513528077,0.0819730948217128
1.0,,68.0,0.0,2.0,,1.0,1.0,2619496874,,1.0,1.0,1.0,0.0,2.0,1.0,0.0,0.0,1.0,450000.0,1.0,"Rua São Mateus, 100 - LBA Vila Betel ll, Rio Branco - AC",apartamentos,https://www.zapimoveis.com.br/imovel/venda-apartamento-2-quartos-mobiliado-lba-vila-betel-ll-rio-branco-ac-68m2-id-2619496874/,-9.963361804011,-67.826269509927,-0.08585763429122535,0.08974645166041477
0.0,12.0,78.0,1.0,2.0,700.0,1.0,0.0,2635916156,,1.0,0.0,0.0,1.0,3.0,0.0,0.0,0.0,2.0,520000.0,0.0,"Residencial Petropolis, Rio Branco - AC",apartamentos,https://www.zapimoveis.com.br/imovel/venda-apartamento-3-quartos-com-piscina-residencial-petropolis-rio-branco-ac-78m2-id-2635916156/,-9.9629,-67.84422,-0.09530605692927177,0.09005309314515145
0.0,4.0,53.0,0.0,1.0,,0.0,1.0,2613215702,,0.0,1.0,1.0,0.0,2.0,1.0,0.0,0.0,1.0,230000.0,0.0,"Estrada de Porto Acre, 1528 - Alto Alegre 	, Rio Branco - AC",apartamentos,https://www.zapimoveis.com.br/imovel/venda-apartamento-2-quartos-com-churrasqueira-alto-alegre-rio-branco-ac-53m2-id-2613215702/,-9.916298611881,-67.820917555821,-0.08304057892798486,0.1209967803006917
0.0,,64.0,0.0,1.0,,0.0,1.0,2636388471,,1.0,1.0,0.0,1.0,2.0,0.0,0.0,0.0,1.0,360000.0,0.0,"Centro, Rio Branco - AC",apartamentos,https://www.zapimoveis.com.br/imovel/venda-apartamento-2-quartos-com-piscina-centro-rio-branco-ac-64m2-id-2636388471/,-9.97107,-67.81032,-0.07746244786193583,0.08462814907663585
,3.0,51.0,,1.0,,,,2651188558,,,,,,2.0,,,,1.0,110000.0,,"Rua Maria José Domingos, 01 - Calafate, Rio Branco - AC",apartamentos,https://www.zapimoveis.com.br/imovel/venda-apartamento-2-quartos-calafate-rio-branco-ac-51m2-id-2651188558/,-9.976350298309,-67.883300513486,-0.11587648184947406,0.081121989591763
0.0,11.0,111.0,0.0,3.0,800.0,1.0,1.0,2553060763,,1.0,0.0,1.0,0.0,3.0,1.0,0.0,0.0,2.0,580000.0,0.0,"Rua Major Ladislau Ferreira, 1042 - 7 BEC, Rio Branco - AC",apartamentos,https://www.zapimoveis.com.br/imovel/venda-apartamento-3-quartos-mobiliado-7-bec-rio-branco-ac-111m2-id-2553060763/,-9.970489996472,-67.827490040952,-0.08650007318398703,0.08501327596757026
0.0,8.0,68.0,1.0,2.0,,1.0,0.0,2627766602,,1.0,0.0,0.0,1.0,2.0,0.0,0.0,0.0,2.0,460000.0,1.0,"Nova Esperanca, Rio Branco - AC",apartamentos,https://www.zapimoveis.com.br/imovel/venda-apartamento-2-quartos-com-piscina-nova-esperanca-rio-branco-ac-68m2-id-2627766602/,-9.97461,-67.84142,-0.09383224851072682,0.08227756131622567
,,330.0,,,,,,2628459191,,,,,,,,,,,170000.0,,"Rua Major Ladislau Ferreira - Abraao Alab, Rio Branco - AC",terrenos_e_lotes_comerciais,https://www.zapimoveis.com.br/imovel/venda-terreno-lote-comercial-abraao-alab-rio-branco-ac-330m2-id-2628459191/,-9.971030000584,-67.822539982303,-0.08389455957356945,0.08465470900253212
,,1780.0,,,,,,2572261307,,,,,,,,,,,700000.0,,"Avenida Antônio da Rocha Viana, 780 - Vila Nova, Rio Branco - AC",terrenos_e_lotes_comerciais,https://www.zapimoveis.com.br/imovel/venda-terreno-lote-comercial-vila-nova-rio-branco-ac-1780m2-id-2572261307/,-9.94067242289,-67.826485081633,-0.0859711026466155,0.10481237865315263
,,1564.0,,,,,,2652943963,,,,,,,,,,,700000.0,,"Areal, Rio Branco - AC",terrenos_e_lotes_comerciais,https://www.zapimoveis.com.br/imovel/venda-terreno-lote-comercial-areal-rio-branco-ac-1564m2-id-2652943963/,-10.00281,-67.80141,-0.07277257893007878,0.06355254017398039
,,260.0,,,,,,2653180017,,,,,,,,,,,390000.0,,"Aviario, Rio Branco - AC",terrenos_e_lotes_comerciais,https://www.zapimoveis.com.br/imovel/venda-terreno-lote-comercial-aviario-rio-branco-ac-260m2-id-2653180017/,-9.96614,-67.80494,-0.07463063025773813,0.08790170773731908
,,703.0,,,,,,2616332593,,,,,,,,,,,800000.0,,"Avenida Ceará, SN - 7º BEC, Rio Branco - AC",terrenos_e_lotes_comerciais,https://www.zapimoveis.com.br/imovel/venda-terreno-lote-comercial-7-bec-rio-branco-ac-703m2-id-2616332593/,-9.97305767748,-67.797607942642,-0.07077132745079387,0.08330831564270044
,,706.0,,,,,,2635394686,,,,,,,,,,,800000.0,,"Avenida Ceará - Dom Giocondo, Rio Branco - AC",terrenos_e_lotes_comerciais,https://www.zapimoveis.com.br/imovel/venda-terreno-lote-comercial-dom-giocondo-rio-branco-ac-706m2-id-2635394686/,-9.970685001449,-67.814095005306,-0.07944946021908383,0.08488379113362822
,,458.0,,,398000.0,,,2635916157,,,,,,,,,,,450000.0,,"Loteamento Novo Horizonte, Rio Branco - AC",terrenos_e_lotes_comerciais,https://www.zapimoveis.com.br/imovel/venda-terreno-lote-comercial-loteamento-novo-horizonte-rio-branco-ac-458m2-id-2635916157/,-9.97853,-67.8341,-0.08997929221654506,0.07967465057588584
